~VERSION INFORMATION 
VERS  .    2.0                                     :CWLS Log ASCII Standard - VERSION2.0
WRAP  .    NO                                      :One Line per Time step
DLM   .    SPACE                                   :Column Data section Delimiter
PROD  .    Schlumberger Technology Corp.           :LAS Producer
PROG  .    Horizon LASWriter 1.1.8606.0            :LAS Program name and version
CREA  .    08/18/2009                              :LAS Creation date {MM/DD/YYYY}
#--------------------------------------------------
~WELL INFORMATION 
#MNEM           .UNIT                      DATA            :DESCRIPTION
#----            ------          --------------            -----------------------------
 STRT           .S               04:00:00/03-Jul-2009  :START TIME                          
 STOP           .S               11:00:00/04-Jul-2009  :STOP TIME                          
 STEP           .S                           0.00000       :STEP
NULL            .                       -999.25            :NULL VALUE
COMP            .                  StatoilHydro            :COMPANY
WELL            .                    15/9-F-9 A            :WELL NAME
FLD             .                         Volve            :FIELD NAME
RIGN            .                Maersk Inspirer           :Rig Name
RIGTYP          .                       Jack-up            :Rig Type
SON             .                     09SCA0196            :Service Order Number
SRVC            .                  Schlumberger            :SERVICE COMPANY
DATE            .                    07/03/2009            :LOG DATE{MM/DD/YYYY} (Composite Date for Composite LAP)
CLAB            .                       County:            :County Label
CNTY            .                       -999.25            :COUNTY
SLAB            .                       -999.25            :State/Province Label
STAT            .                       -999.25            :STATE or PROVINCE
PROV            .                       -999.25            :STATE or PROVINCE
CTRY            .                        Norway            :COUNTRY
CONT_REGION     .                        Europe            :Continent Region
SECT            .                       -999.25            :Section
TOWN            .                       -999.25            :Township
RANG            .                       -999.25            :Range
API             .                       -999.25            :API NUMBER
UWI             .                       -999.25            :UNIQUE WELL ID
LUL             .                  Weather Deck            :Logging Unit Location
LUN             .                Geoservices: 1010567      :Logging Unit Number
LOC             .                Norwegian North Sea       :FIELD LOCATION
FL1             .                Section: 12 1/4 in.       :Field Location Line 1
FL2             .                Job no.: 09SCA0196        :Field Location Line 2
LATI            .                58° 26' 29.74" N          :LATITUDE
LONG            .                  1° 53' 15" E            :LONGITUDE
PDAT            .                           MSL            :Local Permanent Datum
LMF             .                            DF            :Logging Measured From
APD             .M                      54.9000            :Elevation of Depth Reference (LMF) Above Permanent Datum
EPD             .M                       0.0000            :Elevation of Permanent Datum (PDAT) above Mean Sea Level
EKB             .M                      -999.25            :Elevation of Kelly Bushing Above Permanent Datum
EDF             .M                      54.9000            :Elevation of Drill Floor Above Permanent Datum
EGL             .M                     -91.0000            :Elevation of Ground Level Above Permanent Datum
ECF             .M                      -999.25            :Elevation of Casing Flange above Permanent Datum
#--------------------------------------------------
~CURVE INFORMATION
#MNEM           .UNIT                  API CODE            :DESCRIPTION
#----            ------          --------------            ----------------------------------------
 TIME           .S                                         :                                          Time Index(hh:mm  :ss/dd-MMM-yyyy)
DEPTH           .M                                         :(RT)    (DnMWorkflow)           (1)       Depth Index
ROP5            .M/HR                                      :(RT)                            (1)       Rate of penetration averaged over the last 5 ft (1.5 m)
GR              .GAPI                                      :(RT)    (TELE825-IWOB)          (1)       Gamma Ray
BLKP            .M                                         :(RT)                            (1)       Height of block above rig floor
PVEL            .M/HR                                      :(RT)                            (1)       Pipe Velocity
HKLA            .KKGF                                      :(RT)                            (1)       Average Hookload
SWOB            .KKGF                                      :(RT)                            (1)       Surface Weight On Bit
STOR            .kN.m                                      :(RT)                            (1)       Surface Torque
RPM             .RPM                                       :(RT)                            (1)       Rotational Speed
STICK           .RPM                                       :(RM)    (TELE825-IWOB)          (1)       Stick Slip Indicator
TFLO            .LPM                                       :(RT)                            (1)       Total flow rate of all active pumps
SPM1            .SD/M                                      :(RT)                            (1)       Pump 1 Stroke Rate
SPM2            .SD/M                                      :(RT)                            (1)       Pump 2 Stroke Rate
SPM3            .SD/M                                      :(RT)                            (1)       Pump 3 Stroke Rate
SPPA            .BAR                                       :(RT)                            (1)       Standpipe Pressure
AJAM            .                                          :(RT)    (TELE825-IWOB)          (1)       Number of Anti-Jams Detected
TRPM            .RPM                                       :(RT)    (TELE825-IWOB)          (1)       MWD Turbine Rotation Speed
SHKL            .                                          :(RT)    (TELE825-IWOB)          (1)       Tool Shock Level
SHKPK           .M/S2                                      :(RT)    (TELE825-IWOB)          (1)       Shock Peak
SHKR            .CPS                                       :(RT)    (TELE825-IWOB)          (1)       Shock Rate
SHKRSK          .                                          :(RT)    (TELE825-IWOB)          (1)       Shock Risk
#-------------------------------------------------------------
#          TIME          DEPTH           ROP5             GR           BLKP           PVEL           HKLA           SWOB           STOR            RPM          STICK           TFLO           SPM1           SPM2           SPM3           SPPA           AJAM           TRPM           SHKL          SHKPK           SHKR         SHKRSK 
#                 (DnMWorkflow)                 (TELE825-IWO)                                                                                            (TELE825-IWO)                                                                             (TELE825-IWO)  (TELE825-IWO)  (TELE825-IWO)  (TELE825-IWO)  (TELE825-IWO)  (TELE825-IWO)
#                           (1)            (1)            (1)            (1)            (1)            (1)            (1)            (1)            (1)            (1)            (1)            (1)            (1)            (1)            (1)            (1)            (1)            (1)            (1)            (1)            (1)
#                          (RT)           (RT)           (RT)           (RT)           (RT)           (RT)           (RT)           (RT)           (RT)           (RM)           (RT)           (RT)           (RT)           (RT)           (RT)           (RT)           (RT)           (RT)           (RT)           (RT)           (RT)
~ASCII 
# ...
00:20:00/04-Jul-2009       835.6716        -999.25       255.5032         8.0428        34.7520        97.6385        10.0621         7.7550       144.0000        -999.25      3447.2410        78.0000         0.0000        78.0000       144.9769        -999.25        -999.25        -999.25        -999.25        -999.25        -999.25
00:20:10/04-Jul-2009       835.6968        -999.25        -999.25         8.0141         0.0000       100.2371         7.0120         7.0413       144.0000        -999.25      3447.2410        78.0000         0.0000        78.0000       146.0858        -999.25        -999.25        -999.25        -999.25        -999.25        -999.25
00:20:20/04-Jul-2009       835.2426        -999.25        -999.25         8.4479      -257.1266       104.5564         2.2864         7.1390       144.0000        -999.25      3447.2410        78.0000         0.0000        78.0000       143.8371        -999.25        -999.25        -999.25         0.0000         0.0000         0.0000
00:20:30/04-Jul-2009       834.7699        -999.25        -999.25         8.9410       -77.4069       103.5820         3.7810         5.7941       144.0000        -999.25      3447.2410        78.0000         0.0000        78.0000       143.7661        -999.25      3164.0630        -999.25        -999.25        -999.25        -999.25
00:20:40/04-Jul-2009       834.7703        -999.25       263.5505         8.9407         0.2219       104.0223         3.4380         5.0935       144.0000        -999.25      3447.2410        78.0000         0.0000        78.0000       141.4773        -999.25        -999.25        -999.25        -999.25        -999.25        -999.25
00:20:50/04-Jul-2009       834.7703        -999.25        -999.25         8.9407         0.0000       104.0303         3.4259         4.9799       143.0000        -999.25      3447.2410        78.0000         0.0000        78.0000       140.8070        -999.25        -999.25        -999.25        -999.25        -999.25        -999.25
00:21:00/04-Jul-2009       834.7703        -999.25        -999.25         8.9407         0.0000       104.0758         3.3571         5.0826       143.0000        -999.25      3447.2410        78.0000         0.0000        78.0000       137.5205        -999.25        -999.25        -999.25        -999.25        -999.25        -999.25
00:21:10/04-Jul-2009       834.4899        -999.25        -999.25         9.2099      -175.7029       112.6023        -5.4453         4.9897       104.0000        -999.25      3447.2410        78.0000         0.0000        78.0000       140.2850        -999.25      3125.0000        -999.25         0.0000         0.0000         0.0000
00:21:20/04-Jul-2009       834.0149        -999.25       263.5505         9.6852      -174.4670       114.1214        -6.7509         2.3921       104.0000        -999.25      3447.2410        78.0000         0.0000        78.0000       141.6070        -999.25        -999.25        -999.25        -999.25        -999.25        -999.25
00:21:30/04-Jul-2009       833.6594        -999.25        -999.25        10.0515       -45.6121       111.4639        -3.9683         2.1413       104.0000        -999.25      3447.2410        78.0000         0.0000        78.0000       143.8711        -999.25        -999.25        -999.25        -999.25        -999.25        -999.25
00:21:40/04-Jul-2009       833.7099        -999.25        -999.25        10.0056        38.4467       108.7715         0.8937         2.0577       104.0000         0.0000      3447.2410        78.0000         0.0000        78.0000       138.0857        -999.25        -999.25        -999.25        -999.25        -999.25        -999.25
00:21:50/04-Jul-2009       833.9731        -999.25        -999.25         9.7428        91.3330        96.6474        10.7064         2.0708       104.0000        -999.25      3447.2410        78.0000         0.0000        78.0000       140.3221        -999.25      3125.0000        -999.25        -999.25        -999.25        -999.25
00:22:00/04-Jul-2009       834.0597        -999.25       267.5742         9.6512         0.0000        99.2943         8.0879         2.0347       104.0000        -999.25      3447.2410        78.0000         0.0000        78.0000       140.0008        -999.25        -999.25        -999.25        -999.25        -999.25        -999.25
00:22:10/04-Jul-2009       834.2116        -999.25        -999.25         9.5051        79.2783        97.1271        10.3796         1.7527       104.0000        -999.25      3447.2410        78.0000         0.0000        78.0000       140.0811        -999.25        -999.25        -999.25        -999.25        -999.25        -999.25
00:22:20/04-Jul-2009       834.3902        -999.25        -999.25         9.3207         7.5701        99.1800         8.2198         1.5542       100.0000        -999.25      2784.1960        62.0000         0.0000        64.0000       128.0409        -999.25        -999.25        -999.25        -999.25        -999.25        -999.25
00:22:30/04-Jul-2009       834.4893        -999.25        -999.25         9.2214        49.3634        97.6432         9.6980         1.4037        72.0000        -999.25      2099.1100        46.0000         0.0000        49.0000        82.3110        -999.25        -999.25        -999.25        -999.25        -999.25        -999.25
00:22:40/04-Jul-2009       834.6840        -999.25        -999.25         9.0355       114.4284        97.1955         9.6401         1.2829        58.0000        -999.25      1414.2530        32.0000         0.0000        32.0000        55.1108        -999.25        -999.25        -999.25        -999.25        -999.25        -999.25
00:22:50/04-Jul-2009       834.9835        -999.25        -999.25         8.7310       115.5425        97.7646         9.7024         1.3264        24.0000        -999.25       486.1494        11.0000         0.0000        11.0000        16.8960        -999.25        -999.25        -999.25        -999.25        -999.25        -999.25
00:23:00/04-Jul-2009       835.1803        -999.25        -999.25         8.5349        71.6189        98.4290         8.9815         1.2860        13.0000        -999.25       220.9770         5.0000         0.0000         5.0000         5.6928        -999.25        -999.25        -999.25        -999.25        -999.25        -999.25
00:23:10/04-Jul-2009       835.3558        -999.25        -999.25         8.3590        60.9133        99.1285         8.3290         1.0280         6.0000        -999.25       132.5862         3.0000         0.0000         3.0000         5.4643        -999.25        -999.25        -999.25        -999.25        -999.25        -999.25
00:23:20/04-Jul-2009       835.4849        -999.25        -999.25         8.2260        30.8831        98.6666         8.5858         0.9934         0.0000        -999.25         0.0000         0.0000         0.0000         0.0000         4.9484        -999.25        -999.25        -999.25        -999.25        -999.25        -999.25
00:23:30/04-Jul-2009       835.5135        -999.25        -999.25         8.1989        14.1414        99.5620         7.9936         0.7230         0.0000        -999.25         0.0000         0.0000         0.0000         0.0000         4.8156        -999.25        -999.25        -999.25        -999.25        -999.25        -999.25
00:23:40/04-Jul-2009       835.5610        -999.25        -999.25         8.1499         5.7750        98.6643         8.6569         0.7131         0.0000        -999.25         0.0000         0.0000         0.0000         0.0000         4.8867        -999.25        -999.25        -999.25        -999.25        -999.25        -999.25
00:23:50/04-Jul-2009       835.5610        -999.25        -999.25         8.1499         0.0000        99.2146         8.2114         0.6881         0.0000        -999.25         0.0000         0.0000         0.0000         0.0000         4.4326        -999.25        -999.25        -999.25        -999.25        -999.25        -999.25
