~Version Information
VERS.             2.0 : CWLS log ASCII standard - Version 2.0
WRAP.             NO  : One line per depth step
#
~Well Information Block
#MNEM.UNIT                   Data Type:Information
#__________________________________________________________
  STRT.           30-AUG-2008 00:00:00 : START INDEX                   
  STOP.           30-AUG-2008 18:00:00 : STOP INDEX                    
  STEP.SEC           10.0000 : STEP                          
  NULL.              -999.25 : NULL VALUE                    
  COMP.           StatoilHydro : COMPANY                       
  WELL.             15/9-F-9 : WELL                          
   FLD.                Volve : FIELD                         
   LOC.           Norwegian North Sea : LOCATION                      
  PROV.                      : PROVINCE                      
  CNTY.               Norway : COUNTY                        
  STAT.           Maersk Inspirer : RIG                           
  CTRY.                      : COUNTRY                       
  SRVC.           Schlumberger D&M : SERVICE COMPANY               
  DATE.           29-AUG-2008 09:22:08 : LOG DATE                      
   UWI.                      : UNIQUE WELL ID                
   API.                      : API NUMBER                    
#
~Curve Information Block
#MNEM.UNIT                     : Curve Description
#---------                     --------------------
TIME	    .HHMMSS	       : 
DATE	    .D		       : 
GR          .GAPI              : ARC Gamma Ray, Real-Time                                        
INCL_CONT_RT.DEG               : MWD Cont Inc 2hz                                                
HKLD        .KKGF              : Measured Hookload 2hz                                           
SWOB        .KKGF              : Surface Weight on Bit 2hz                                       
TQA         .KMN               : SRF STOR 2hz                                                    
RPM         .RPM               : SRF SRPM 2hz                                                    
SHKRSK_RT   .----              : MWD SHKRSK 2hz                                                  
Stick_RT    .RPM               : MWD PKtoPK RPM 2hz                                              
DEPT        .M                 : Bit Depth 2hz                                                   
TRPM_RT     .RPM               : MWD TUR_RPM 2hz                                                 
ATMP        .DEGC              : ARC Annular Temperature                                         
BPOS        .M                 : Block Position 2hz                                              
BVEL        .M/S               : Block Velocity 2hz                                              
ROP5        .M/HR              : 5ft ROP 2hz                                                     
ECD_ARC     .G/C3              : Equivalent Circulating Density                                  
SPPA        .BAR               : SRF PUMPRS 2hz                                                  
TFLO        .LPM               : HSPM Total Pump Flow 2hz                                        
#
~Parameter Information Block
#MNEM.UNIT                       Value:Description
#__________________________________________________________
#
~Other Information Block

#
~A TIME       DATE     GR    INCL_CONT_RT       HKLD       SWOB        TQA        RPM  SHKRSK_RT   Stick_RT       DEPT    TRPM_RT       ATMP       BPOS       BVEL       ROP5    ECD_ARC       SPPA       TFLO
00:00:08 30-Aug-08    -999.25      10.7561    91.9714     1.8034     7.5529    64.0000     0.0000    99.0000   894.4033  2656.2500    18.0000    17.1803     0.0016    -999.25     1.0388    96.7251  3101.6666
00:00:18 30-Aug-08    -999.25      10.7561    92.2825     1.4923     7.5529    64.0000     0.0000    99.0000   894.4178  2656.2500    18.0000    17.1658     0.0016    -999.25     1.0388    96.7251  3101.6666
00:00:28 30-Aug-08    -999.25      10.7561    92.3560     1.4188     6.3115    64.0000     0.0000    99.0000   894.4377  2656.2500    18.0000    17.1458     0.0016    -999.25     1.0388    94.2997  3101.6666
00:00:38 30-Aug-08    -999.25      10.7561    92.1417     1.6331     6.2966    65.0000     0.0000    99.0000   894.4522  2656.2500    18.0000    17.1314     0.0017    -999.25     1.0385    95.4489  3101.6666
00:00:48 30-Aug-08    -999.25      10.7561    91.8942     1.8805     6.3816    64.0000     0.0000    99.0000   894.4671  2656.2500    18.0000    17.1166     0.0016    -999.25     1.0383    96.6786  3101.6666
00:00:58 30-Aug-08    -999.25      10.7561    91.6559     2.1188     5.9899    64.0000     0.0000    99.0000   894.4863  2656.2500    18.0000    17.0972     0.0017    -999.25     1.0391    94.6157  3101.6666
00:01:08 30-Aug-08    -999.25      10.7561    91.8337     1.9411     7.5069    64.0000     0.0000    99.0000   894.5001  2656.2500    18.0000    17.0834     0.0015    -999.25     1.0392    94.3679  3101.6666
00:01:18 30-Aug-08    -999.25      10.7561    91.9197     1.8550     7.5069    64.0000     0.0000    99.0000   894.5146  2656.2500    18.0000    17.0689     0.0016    -999.25     1.0387    94.3679  3101.6666
00:01:28 30-Aug-08    -999.25      10.7561    91.7793     1.9954     4.6637    64.0000     0.0000    99.0000   894.5342  2656.2500    18.0000    17.0492     0.0016    -999.25     1.0390    95.6007  3101.6666
00:01:38 30-Aug-08    -999.25      10.7561    91.3791     2.3956     6.9780    64.0000     0.0000    99.0000   894.5484  2656.2500    18.0000    17.0352     0.0016    -999.25     1.0392    95.3560  3101.6666
00:01:48 30-Aug-08    -999.25      10.7561    91.5149     2.2599     6.9780    64.0000     0.0000    99.0000   894.5609  2656.2500    18.0000    17.0224     0.0014    -999.25     1.0387    95.3560  3101.6666
00:01:58 30-Aug-08    -999.25      10.7561    91.8560     1.9188     7.6454    65.0000     0.0000    99.0000   894.5801  2656.2500    18.0000    17.0034     0.0016    -999.25     1.0387    94.8852  3101.6666
00:02:08 30-Aug-08    -999.25      10.7561    91.7083     2.0665     6.3207    65.0000     0.0000    99.0000   894.5950  2656.2500    18.0000    16.9887     0.0016    -999.25     1.0389    95.0803  3101.6666
00:02:18 30-Aug-08    -999.25      10.7561    91.3679     2.4069     6.5297    64.0000     0.0000    99.0000   894.6095  2656.2500    18.0000    16.9740     0.0016    -999.25     1.0394    94.5971  3101.6666
00:02:28 30-Aug-08    -999.25      10.7561    91.7305     2.0443     4.6280    65.0000     0.0000   117.0000   894.6284  2656.2500    18.0000    16.9553     0.0015    -999.25     1.0391    95.1918  3101.6666
00:02:38 30-Aug-08    -999.25      10.7561    91.8834     1.8914     4.6280    65.0000     0.0000   117.0000   894.6432  2656.2500    18.0000    16.9403     0.0016    -999.25     1.0389    95.1918  3101.6666
00:02:48 30-Aug-08    -999.25      10.7561    92.1270     1.6478     5.0871    64.0000     0.0000   117.0000   894.6581  2656.2500    18.0000    16.9256     0.0017    -999.25     1.0393    94.7489  3101.6666
00:02:58 30-Aug-08    -999.25      10.7561    91.7462     2.0285     5.9118    65.0000     0.0000   117.0000   894.6777  2656.2500    18.0000    16.9060     0.0016    -999.25     1.0393    94.9843  3101.6666
00:03:08 30-Aug-08    -999.25      10.7561    91.5287     2.2461     5.9118    65.0000     0.0000   102.0000   894.6911  2656.2500    18.0000    16.8925     0.0015    -999.25     1.0393    94.9843  3101.6666
00:03:18 30-Aug-08    -999.25      10.7561    91.8110     1.9638     7.3450    65.0000     0.0000   102.0000   894.7054  2656.2500    18.0000    16.8784     0.0016    -999.25     1.0393    95.5326  3101.6666
00:03:28 30-Aug-08    -999.25      10.7561    91.5857     2.1891     6.3258    64.0000     0.0000   102.0000   894.7245  2656.2500    18.0000    16.8590     0.0017    -999.25     1.0390    95.0401  3101.6666
00:03:38 30-Aug-08    -999.25      10.7561    91.4968     2.2779     5.6233    65.0000     0.0000   114.0000   894.7391  2656.2500    18.0000    16.8445     0.0016    -999.25     1.0388    95.2538  3101.6666
00:03:48 30-Aug-08    -999.25      10.7561    91.2067     2.5681     5.6233    65.0000     0.0000   114.0000   894.7536  2656.2500    18.0000    16.8299     0.0017    -999.25     1.0392    95.2538  3101.6666
00:03:58 30-Aug-08    -999.25      10.7561    91.5475     2.2272     6.4438    65.0000     0.0000   114.0000   894.7722  2656.2500    18.0000    16.8112     0.0015    -999.25     1.0392    94.4051  3101.6666
00:04:08 30-Aug-08    -999.25      10.7561    91.6942     2.0805     7.0005    65.0000     0.0000   114.0000   894.7867  2656.2500    18.0000    16.7969     0.0016    -999.25     1.0392    96.0529  3101.6666
00:04:18 30-Aug-08    -999.25      10.7561    91.8112     1.9636     6.5854    65.0000     0.0000   114.0000   894.8002  2656.2500    18.0000    16.7834     0.0015    -999.25     1.0392    94.5073  3101.6666
00:04:28 30-Aug-08    -999.25      10.7561    91.6618     2.1130     6.5854    65.0000     0.0000   114.0000   894.8188  2656.2500    18.0000    16.7650     0.0015    -999.25     1.0392    94.5073  3101.6666
00:04:38 30-Aug-08    -999.25      10.7561    91.6707     2.1041     3.3660    64.0000     0.0000   114.0000   894.8333  2656.2500    18.0000    16.7503     0.0017    -999.25     1.0391    94.3772  3101.6666
00:04:48 30-Aug-08    -999.25      10.7561    91.6107     2.1641     6.2378    64.0000     0.0000   114.0000   894.8478  2656.2500    18.0000    16.7359     0.0016    -999.25     1.0391    96.7963  3101.6666
00:04:58 30-Aug-08    -999.25      10.7561    91.2983     2.4765     7.4501    64.0000     0.0000   135.0000   894.8670  2656.2500    18.0000    16.7166     0.0016    -999.25     1.0391    94.7830  3101.6666
00:05:08 30-Aug-08    -999.25      10.7561    91.7103     2.0645     7.4501    64.0000     0.0000   135.0000   894.8804  2656.2500    18.0000    16.7029     0.0016    -999.25     1.0388    94.7830  3101.6666
00:05:18 30-Aug-08    -999.25      10.7561    91.7303     2.0445     5.8916    65.0000     0.0000   135.0000   894.8943  2656.2500    18.0000    16.6894     0.0015    -999.25     1.0386    96.0932  3101.6666
00:05:28 30-Aug-08    -999.25      10.7561    91.4172     2.3576     6.0754    65.0000     0.0000   129.0000   894.9139  2656.2500    18.0000    16.6696     0.0016    -999.25     1.0387    95.0989  3101.6666
00:05:38 30-Aug-08    -999.25      10.7561    91.2479     2.5268     7.6152    64.0000     0.0000   129.0000   894.9281  2656.2500    18.0000    16.6553     0.0016    -999.25     1.0386    94.4763  3101.6666
00:05:48 30-Aug-08    -999.25      10.7561    91.6077     2.1671     7.6152    64.0000     0.0000   129.0000   894.9422  2656.2500    18.0000    16.6413     0.0016    -999.25     1.0390    94.4763  3101.6666
00:05:58 30-Aug-08    -999.25      10.7561    92.0626     1.7122     7.8776    64.0000     0.0000   129.0000   894.9604  2656.2500    18.0000    16.6230     0.0014    -999.25     1.0390    95.8423  3101.6666
00:06:08 30-Aug-08    -999.25      10.7561    92.2985     1.4762     6.1819    64.0000     0.0000   111.0000   894.9750  2656.2500    18.0000    16.6086     0.0016    -999.25     1.0390    95.8206  3101.6666
00:06:18 30-Aug-08    -999.25      10.7561    92.0413     1.7335     6.1819    64.0000     0.0000   111.0000   894.9898  2656.2500    18.0000    16.5937     0.0017    -999.25     1.0386    95.8206  3101.6666
00:06:28 30-Aug-08    -999.25      10.7561    91.8189     1.9558     5.0944    64.0000     0.0000   111.0000   895.0090  2656.2500    18.0000    16.5744     0.0016    -999.25     1.0382    95.2197  3101.6666
