~Version Information
VERS.             2.0 : CWLS log ASCII standard - Version 2.0
WRAP.             NO  : One line per depth step
#
~Well Information Block
#MNEM.UNIT                   Data Type:Information
#__________________________________________________________
  STRT.           21-SEP-2007 06:00:00 : START INDEX                   
  STOP.           21-SEP-2007 18:00:00 : STOP INDEX                    
  STEP.SEC           10.0000 : STEP                          
  NULL.              -999.25 : NULL VALUE                    
  COMP.              Statoil : COMPANY                       
  WELL.              15/9-F7 : WELL                          
   FLD.                Volve : FIELD                         
   LOC.                      : LOCATION                      
  PROV.                      : PROVINCE                      
  CNTY.                      : COUNTY                        
  STAT.                      : STATE                         
  CTRY.               Norway : COUNTRY                       
  SRVC.           Schlumberger : SERVICE COMPANY               
  DATE.           21-SEP-2007 04:03:39 : LOG DATE                      
   UWI.                      : UNIQUE WELL ID                
   API.                      : API NUMBER                    
#
~Curve Information Block
#MNEM.UNIT                     : Curve Description
#---------                     --------------------
TIME	    .HHMMSS	       : 
DATE	    .D		       : 
DEPT        .M                 : Bit Depth 2hz                                                   
ROP5        .M/HR              : 5ft ROP 2hz                                                     
BPOS        .M                 : Block Position 2hz                                              
BVEL        .M/S               : Block Velocity 2hz                                              
SWOB        .KKGF              : Surface Weight on Bit 2hz                                       
HKLD        .KKGF              : Measured Hookload 2hz                                           
TQA         .KMN               : SRF STOR 2hz                                                    
RPM         .RPM               : SRF SRPM 2hz                                                    
INCL_CONT_RT.DEG               : MWD Cont Inc 2hz                                                
Stick_RT    .RPM               : MWD PKtoPK RPM 2hz                                              
CRPM_RT     .RPM               : MWD CRPM 2hz                                                    
TFLO        .LPM               : HSPM Total Pump Flow 2hz                                        
TRPM_RT     .RPM               : MWD TUR_RPM 2hz                                                 
SPPA        .BAR               : SRF PUMPRS 2hz                                                  
SHKRSK_RT   .----              : MWD SHKRSK 2hz                                                  
SHKPK_RT    .G                 : MWD SHK_PK 2hz                                                  
GR          .GAPI              : MWD GR(TM) 2hz                                                  
#
~Parameter Information Block
#MNEM.UNIT                       Value:Description
#__________________________________________________________
#
~Other Information Block

#
~A TIME       DATE       DEPT       ROP5       BPOS       BVEL       SWOB       HKLD        TQA        RPM INCL_CONT_RT   Stick_RT    CRPM_RT       TFLO    TRPM_RT       SPPA  SHKRSK_RT   SHKPK_RT       GR
# ...
15:32:09 21-Sep-07    198.553     21.419     29.095     -0.016      1.153     88.560      0.899     98.000        0.000    102.000     30.000   3057.357   2109.375     73.100      0.000     32.000      7.209
15:32:19 21-Sep-07    198.409     21.419     29.239     -0.016      1.182     88.531      0.899     98.000        0.000    102.000     29.000   1661.607   2109.375     73.092      0.000     32.000      7.209
15:32:29 21-Sep-07    198.216     21.419     29.432     -0.016      1.132     88.581      2.353    119.000        0.000     87.000     29.000   3057.357   2109.375     73.003      0.000     32.000      7.209
15:32:39 21-Sep-07    198.100     21.419     29.549     -0.014      1.162     88.551      1.736     98.000        0.000     87.000     29.000   3057.357   2109.375     73.160      0.000     32.000      9.612
15:32:49 21-Sep-07    197.990     21.419     29.659     -0.012      1.126     88.586      1.415    119.000        0.000     87.000     29.000   3057.357   2109.375     73.105      0.000     32.000      9.612
15:32:59 21-Sep-07    197.959     21.419     29.693     -0.001      0.637     89.075      1.415    119.000        0.000     87.000     29.000   3057.357   2109.375     73.038      0.000     32.000      7.209
15:33:09 21-Sep-07    197.959     21.419     29.693      0.000      0.599     89.114      2.372    119.000        0.000     87.000     29.000   3057.357   2109.375     73.043      0.000     32.000      7.209
15:33:19 21-Sep-07    197.959     21.419     29.693      0.000      0.613     89.099      2.372    119.000        0.000     75.000     29.000   3057.357   2109.375     72.967      0.000     32.000      7.209
15:33:29 21-Sep-07    198.265     21.419     29.397      0.032     -0.750     90.463     -0.469    119.000        0.000     75.000     29.000   3057.357   2109.375     72.908      0.000     32.000      4.806
15:33:39 21-Sep-07    198.692     21.419     28.970      0.047     -0.745     90.458      1.404     98.000        0.000     75.000     29.000   1661.607   2109.375     72.912      0.000     32.000      4.806
15:33:49 21-Sep-07    199.117     21.419     28.545      0.047     -0.841     90.554      1.404     98.000        0.000     75.000     30.000   1661.607   2109.375     72.878      0.000     32.000      4.806
15:33:59 21-Sep-07    199.684     21.419     27.978      0.047     -0.811     90.523      0.891    118.000        0.000     54.000     30.000   1661.607   2109.375     72.963      0.000     32.000      7.209
15:34:09 21-Sep-07    200.074     21.419     27.587      0.044     -0.838     90.551      1.035     98.000        0.000     54.000     30.000   1661.607   2109.375     72.972      0.000     32.000      7.209
15:34:19 21-Sep-07    200.453     21.419     27.208      0.042     -0.836     90.548      0.613    119.000        0.000     54.000     30.000   1661.607   2109.375     73.047      0.000     32.000      7.209
15:34:29 21-Sep-07    200.958     21.419     26.703      0.042     -0.800     90.512      0.613    119.000        0.000     54.000     30.000   1661.607   2109.375     73.235      0.000     24.000      4.806
15:34:39 21-Sep-07    201.338     21.419     26.323      0.042     -0.829     90.542      0.844    119.000        0.000     54.000     29.000   1661.607   2109.375     73.165      0.000     24.000      4.806
15:34:49 21-Sep-07    201.718     21.419     25.943      0.042     -0.792     90.504      0.844    119.000        0.000    111.000     29.000   1661.607   2109.375     73.125      0.000     24.000      4.806
15:34:59 21-Sep-07    202.224     21.419     25.437      0.042     -0.811     90.523      0.552    119.000        0.000    111.000     29.000   3057.357   2109.375     72.931      0.000     24.000      4.806
15:35:09 21-Sep-07    202.604     21.419     25.057      0.042     -0.894     90.606      0.574     98.000        0.000    111.000     29.000   3057.357   2109.375     72.746      0.000     32.000      4.806
15:35:19 21-Sep-07    202.984     21.419     24.677      0.042     -0.897     90.610      0.574     98.000        0.000    111.000     29.000   3057.357   2109.375     72.746      0.000     32.000      4.806
15:35:29 21-Sep-07    203.491     21.419     24.170      0.042     -0.872     90.584      1.616    119.000        0.000     84.000     29.000   3057.357   2109.375     72.693      0.000     32.000      4.806
15:35:39 21-Sep-07    203.871     21.419     23.789      0.042     -0.798     90.511      0.706     98.000        0.000     84.000     29.000   3057.357   2109.375     72.674      0.000     32.000      4.806
15:35:49 21-Sep-07    204.252     21.419     23.409      0.042     -0.844     90.557      1.875    119.000        0.000     84.000     29.000   3057.357   2109.375     72.598      0.000     32.000      7.209
15:35:59 21-Sep-07    204.758     21.419     22.903      0.042     -0.922     90.634      1.875    119.000        0.000     84.000     29.000   3057.357   2109.375     72.754      0.000     24.000      7.209
15:36:09 21-Sep-07    205.138     21.419     22.523      0.042     -0.945     90.657      0.380    119.000        0.000     84.000     29.000   3057.357   2109.375     72.636      0.000     24.000      7.209
15:36:19 21-Sep-07    205.518     21.419     22.143      0.042     -0.816     90.528      0.380    119.000        0.000    192.000     29.000   3057.357   2109.375     72.791      0.000     24.000      7.209
15:36:29 21-Sep-07    206.025     21.419     21.636      0.042     -0.882     90.594      2.332    119.000        0.000    192.000     29.000   3057.357   2109.375     73.086      0.000     24.000      7.209
15:36:39 21-Sep-07    206.404     21.419     21.257      0.042     -0.719     90.431      1.720     98.000        0.000    192.000     29.000   1661.607   2109.375     73.618      0.000     32.000      7.209
15:36:49 21-Sep-07    206.784     21.419     20.877      0.042     -0.276     89.989      1.720     98.000        0.000    192.000     29.000   1661.607   2109.375     74.272      0.000     32.000      7.209
15:36:59 21-Sep-07    207.290     21.419     20.371      0.042     -0.814     90.526      2.283    119.000        0.000    192.000     29.000   1661.607   2109.375     73.415      0.000     32.000      7.209
15:37:09 21-Sep-07    207.670     21.419     19.991      0.042     -0.881     90.593      1.443     98.000        0.000     57.000     29.000   1661.607   2109.375     72.977      0.000     32.000      7.209
15:37:19 21-Sep-07    208.043     21.419     19.618      0.042     -0.786     90.499      1.381    119.000        0.000     57.000     29.000   1661.607   2109.375     72.901      0.000     32.000      4.806
15:37:29 21-Sep-07    208.531     21.419     19.130      0.040     -0.888     90.600      1.381    119.000        0.000     57.000     29.000   1661.607   2109.375     73.040      0.000     40.000      4.806
15:37:39 21-Sep-07    208.913     21.419     18.748      0.042     -0.968     90.680      0.761    119.000        0.000     57.000     29.000   1661.607   2109.375     73.333      0.000     40.000      4.806
15:37:49 21-Sep-07    209.294     21.419     18.367      0.042     -0.955     90.668      0.761    119.000        0.000     57.000     29.000   1661.607   2109.375     73.066      0.000     40.000      7.209
15:37:59 21-Sep-07    209.803     21.419     17.858      0.042     -0.954     90.667      1.826    119.000        0.000    102.000     29.000   3057.357   2109.375     72.912      0.000     40.000      7.209
15:38:09 21-Sep-07    210.184     21.419     17.477      0.042     -1.074     90.786      1.347     98.000        0.000    102.000     29.000   3057.357   2109.375     73.018      0.000     40.000      7.209
15:38:19 21-Sep-07    210.565     21.419     17.096      0.042     -1.109     90.821      1.347     98.000        0.000    102.000     29.000   1661.607   2070.313     72.815      0.000     24.000      7.209
15:38:29 21-Sep-07    211.076     21.419     16.585      0.043     -0.969     90.681      1.752    118.000        0.000    102.000     29.000   3057.357   2070.313     72.902      0.000     24.000      7.209
