~Version Information
VERS.             2.0 : CWLS log ASCII standard - Version 2.0
WRAP.             NO  : One line per depth step
#
~Well Information Block
#MNEM.UNIT                   Data Type:Information
#__________________________________________________________
  STRT.           21-SEP-2007 06:00:00 : START INDEX                   
  STOP.           21-SEP-2007 18:00:00 : STOP INDEX                    
  STEP.SEC           10.0000 : STEP                          
  NULL.              -999.25 : NULL VALUE                    
  COMP.              Statoil : COMPANY                       
  WELL.              15/9-F7 : WELL                          
   FLD.                Volve : FIELD                         
   LOC.                      : LOCATION                      
  PROV.                      : PROVINCE                      
  CNTY.                      : COUNTY                        
  STAT.                      : STATE                         
  CTRY.               Norway : COUNTRY                       
  SRVC.           Schlumberger : SERVICE COMPANY               
  DATE.           21-SEP-2007 04:03:39 : LOG DATE                      
   UWI.                      : UNIQUE WELL ID                
   API.                      : API NUMBER                    
#
~Curve Information Block
#MNEM.UNIT                     : Curve Description
#---------                     --------------------
TIME	    .HHMMSS	       : 
DATE	    .D		       : 
DEPT        .M                 : Bit Depth 2hz                                                   
ROP5        .M/HR              : 5ft ROP 2hz                                                     
BPOS        .M                 : Block Position 2hz                                              
BVEL        .M/S               : Block Velocity 2hz                                              
SWOB        .KKGF              : Surface Weight on Bit 2hz                                       
HKLD        .KKGF              : Measured Hookload 2hz                                           
TQA         .KMN               : SRF STOR 2hz                                                    
RPM         .RPM               : SRF SRPM 2hz                                                    
INCL_CONT_RT.DEG               : MWD Cont Inc 2hz                                                
Stick_RT    .RPM               : MWD PKtoPK RPM 2hz                                              
CRPM_RT     .RPM               : MWD CRPM 2hz                                                    
TFLO        .LPM               : HSPM Total Pump Flow 2hz                                        
TRPM_RT     .RPM               : MWD TUR_RPM 2hz                                                 
SPPA        .BAR               : SRF PUMPRS 2hz                                                  
SHKRSK_RT   .----              : MWD SHKRSK 2hz                                                  
SHKPK_RT    .G                 : MWD SHK_PK 2hz                                                  
GR          .GAPI              : MWD GR(TM) 2hz                                                  
#
~Parameter Information Block
#MNEM.UNIT                       Value:Description
#__________________________________________________________
#
~Other Information Block

#
~A TIME       DATE       DEPT       ROP5       BPOS       BVEL       SWOB       HKLD        TQA        RPM INCL_CONT_RT   Stick_RT    CRPM_RT       TFLO    TRPM_RT       SPPA  SHKRSK_RT   SHKPK_RT       GR
# ...
12:23:39 21-Sep-07    202.298      4.046     26.011     -0.010      0.949     88.763      0.741    162.000        0.486    153.000     55.000   3500.452   2539.063     94.594      0.000     32.000      7.209
12:23:49 21-Sep-07    202.205      4.046     26.103     -0.010      0.942     88.771     -0.389    161.000        0.486    153.000     55.000   3500.452   2539.063     94.509      0.000     56.000      7.209
12:23:59 21-Sep-07    202.082      4.046     26.227     -0.010      1.019     88.694     -0.389    161.000        0.486    153.000     60.000   3500.452   2539.063     94.618      0.000     56.000      7.209
12:24:09 21-Sep-07    202.008      4.046     26.303     -0.009      0.524     89.188      1.618    162.000        0.486    153.000     60.000   3500.452   2539.063     94.580      0.000     56.000      7.209
12:24:19 21-Sep-07    202.022      4.046     26.289      0.001     -0.307     90.019      1.618    162.000        0.486    258.000     60.000   3500.452   2539.063     94.470      0.000     56.000      7.209
12:24:29 21-Sep-07    202.061      4.046     26.250      0.003     -0.561     90.273      1.618    162.000        0.486    258.000     60.000   3500.452   2539.063     94.533      0.000     56.000      4.806
12:24:39 21-Sep-07    202.090      4.046     26.221      0.003     -0.527     90.240      2.212    161.000        1.874    258.000     60.000   3500.452   2539.063     94.693      0.000     80.000      4.806
12:24:49 21-Sep-07    202.120      4.046     26.192      0.003     -0.409     90.121      2.212    161.000        1.874    258.000     58.000   3500.452   2539.063     94.538      0.000     80.000      4.806
12:24:59 21-Sep-07    202.169      4.046     26.143      0.004     -0.535     90.247      1.717    162.000        1.874     99.000     58.000   3500.452   2539.063     94.423      0.000     80.000      4.806
12:25:09 21-Sep-07    202.231      4.046     26.081      0.007     -0.466     90.178      1.717    162.000        1.874     99.000     58.000   3500.452   2539.063     94.732      0.000     80.000      4.806
12:25:19 21-Sep-07    202.294      4.046     26.019      0.007     -0.632     90.345      0.898    162.000        1.874     99.000     58.000   3500.452   2500.000     94.405      0.000     80.000      7.209
12:25:29 21-Sep-07    202.390      4.046     25.924      0.008     -0.707     90.420      0.898    162.000        1.874     99.000     58.000   3500.452   2500.000     94.499      0.000     56.000      7.209
12:25:39 21-Sep-07    202.495      4.046     25.819      0.011     -0.707     90.420      2.176    162.000        1.874     99.000     59.000   3500.452   2500.000     94.419      0.000     56.000      7.209
12:25:49 21-Sep-07    202.617      4.046     25.697      0.014     -0.587     90.299      2.176    162.000        1.874     96.000     59.000   3500.452   2500.000     94.575      0.000     56.000      4.806
12:25:59 21-Sep-07    202.800      4.046     25.514      0.015     -0.768     90.481      2.176    162.000        1.874     96.000     59.000   3500.452   2500.000     94.343      0.000     56.000      7.209
12:26:09 21-Sep-07    202.980      4.046     25.335      0.019     -0.829     90.542      0.939    162.000        1.874     96.000     59.000   3500.452   2539.063     94.188      0.000     64.000      7.209
12:26:19 21-Sep-07    203.180      4.046     25.135      0.022     -0.880     90.593      0.939    162.000        1.874     96.000     58.000   3500.452   2539.063     94.120      0.000     64.000      7.209
12:26:29 21-Sep-07    203.235      4.046     25.076      0.002     -0.010     89.722      2.481    161.000        1.874    108.000     58.000   3500.452   2539.063     94.423      0.000     64.000      4.806
12:26:39 21-Sep-07    203.235      4.046     25.076      0.000     -0.060     89.772      2.481    161.000        1.874    108.000     58.000   3500.452   2539.063     94.298      0.000     64.000      4.806
12:26:49 21-Sep-07    203.264      4.046     25.048      0.002     -0.547     90.259      1.371    162.000        1.874    108.000     58.000   3500.452   2539.063     94.299      0.000     64.000      4.806
12:26:59 21-Sep-07    203.334      4.046     24.978      0.006     -0.364     90.076      1.371    162.000        0.486    108.000     58.000   3500.452   2500.000     94.228      0.000     48.000      7.209
12:27:09 21-Sep-07    203.387      4.046     24.925      0.006     -0.425     90.137      2.035    162.000        0.486    108.000     59.000   3500.452   2500.000     94.391      0.000     48.000      7.209
12:27:19 21-Sep-07    203.441      4.046     24.871      0.006     -0.652     90.365      2.035    162.000        0.486    234.000     59.000   3500.452   2500.000     94.061      0.000     48.000      7.209
12:27:29 21-Sep-07    203.513      4.046     24.799      0.006     -0.636     90.348      2.035    162.000        0.486    234.000     59.000   3500.452   2500.000     94.177      0.000     48.000      7.209
12:27:39 21-Sep-07    203.568      4.046     24.744      0.006     -0.647     90.359      1.826    163.000        0.486    234.000     59.000   3500.452   2500.000     94.353      0.000     32.000      4.806
12:27:49 21-Sep-07    203.622      4.046     24.690      0.006     -0.651     90.363      1.826    163.000        0.486    234.000     59.000   3500.452   2500.000     94.169      0.000     32.000      7.209
12:27:59 21-Sep-07    203.654      4.046     24.657      0.001     -0.452     90.164      1.468    161.000        0.486    234.000     59.000   3500.452   2500.000     94.116      0.000     32.000      7.209
12:28:09 21-Sep-07    203.675      4.046     24.637      0.002     -0.586     90.298      1.468    161.000        0.486     78.000     59.000   3500.452   2500.000     94.233      0.000     32.000      4.806
12:28:19 21-Sep-07    203.709      4.046     24.603      0.004     -0.626     90.338      2.273    162.000        0.486     78.000     59.000   3500.452   2500.000     94.208      0.000     32.000      4.806
12:28:29 21-Sep-07    203.759      4.046     24.553      0.004     -0.587     90.299      2.273    162.000        0.486     78.000     59.000   3500.452   2539.063     94.106      0.000     80.000      4.806
12:28:39 21-Sep-07    203.796      4.046     24.516      0.004     -0.711     90.424      0.932    161.000        0.486     78.000     58.000   3500.452   2539.063     94.245      0.000     80.000      7.209
12:28:49 21-Sep-07    203.831      4.046     24.480      0.004     -0.418     90.130      0.932    161.000        0.486     96.000     58.000   3500.452   2539.063     94.190      0.000     80.000      7.209
12:28:59 21-Sep-07    203.879      4.046     24.433      0.004     -0.620     90.332      0.932    161.000        0.486     96.000     58.000   3500.452   2539.063     94.159      0.000     80.000      7.209
12:29:09 21-Sep-07    203.914      4.046     24.397      0.004     -0.464     90.176      1.884    161.000        0.486     96.000     58.000   3500.452   2539.063     94.048      0.000     80.000      7.209
12:29:19 21-Sep-07    203.950      4.046     24.361      0.004     -0.374     90.086      1.884    161.000        0.486     96.000     58.000   3500.452   2539.063     94.189      0.000     48.000      7.209
12:29:29 21-Sep-07    203.999      4.046     24.313      0.004     -0.604     90.316      1.646    162.000        0.486     96.000     58.000   3500.452   2539.063     94.138      0.000     48.000      4.806
12:29:39 21-Sep-07    204.034      4.046     24.278      0.004     -0.626     90.339      1.646    162.000        0.486     75.000     58.000   3500.452   2539.063     94.150      0.000     48.000      7.209
12:29:49 21-Sep-07    204.071      4.090     24.241      0.004     -0.506     90.219      1.255    160.000        0.486     75.000     58.000   3500.452   2539.063     94.080      0.000     48.000      7.209
12:29:59 21-Sep-07    204.119      4.090     24.193      0.004     -0.515     90.227      1.255    160.000        0.486     75.000     58.000   3500.452   2539.063     94.098      0.000     32.000      7.209
