~Version Information
VERS.             2.0 : CWLS log ASCII standard - Version 2.0
WRAP.             NO  : One line per depth step
#
~Well Information Block
#MNEM.UNIT                   Data Type:Information
#__________________________________________________________
  STRT.           21-SEP-2007 06:00:00 : START INDEX                   
  STOP.           21-SEP-2007 18:00:00 : STOP INDEX                    
  STEP.SEC           10.0000 : STEP                          
  NULL.              -999.25 : NULL VALUE                    
  COMP.              Statoil : COMPANY                       
  WELL.              15/9-F7 : WELL                          
   FLD.                Volve : FIELD                         
   LOC.                      : LOCATION                      
  PROV.                      : PROVINCE                      
  CNTY.                      : COUNTY                        
  STAT.                      : STATE                         
  CTRY.               Norway : COUNTRY                       
  SRVC.           Schlumberger : SERVICE COMPANY               
  DATE.           21-SEP-2007 04:03:39 : LOG DATE                      
   UWI.                      : UNIQUE WELL ID                
   API.                      : API NUMBER                    
#
~Curve Information Block
#MNEM.UNIT                     : Curve Description
#---------                     --------------------
TIME	    .HHMMSS	       : 
DATE	    .D		       : 
DEPT        .M                 : Bit Depth 2hz                                                   
ROP5        .M/HR              : 5ft ROP 2hz                                                     
BPOS        .M                 : Block Position 2hz                                              
BVEL        .M/S               : Block Velocity 2hz                                              
SWOB        .KKGF              : Surface Weight on Bit 2hz                                       
HKLD        .KKGF              : Measured Hookload 2hz                                           
TQA         .KMN               : SRF STOR 2hz                                                    
RPM         .RPM               : SRF SRPM 2hz                                                    
INCL_CONT_RT.DEG               : MWD Cont Inc 2hz                                                
Stick_RT    .RPM               : MWD PKtoPK RPM 2hz                                              
CRPM_RT     .RPM               : MWD CRPM 2hz                                                    
TFLO        .LPM               : HSPM Total Pump Flow 2hz                                        
TRPM_RT     .RPM               : MWD TUR_RPM 2hz                                                 
SPPA        .BAR               : SRF PUMPRS 2hz                                                  
SHKRSK_RT   .----              : MWD SHKRSK 2hz                                                  
SHKPK_RT    .G                 : MWD SHK_PK 2hz                                                  
GR          .GAPI              : MWD GR(TM) 2hz                                                  
#
~Parameter Information Block
#MNEM.UNIT                       Value:Description
#__________________________________________________________
#
~Other Information Block

#
~A TIME       DATE       DEPT       ROP5       BPOS       BVEL       SWOB       HKLD        TQA        RPM INCL_CONT_RT   Stick_RT    CRPM_RT       TFLO    TRPM_RT       SPPA  SHKRSK_RT   SHKPK_RT       GR
# ...
10:46:09 21-Sep-07    199.809     15.762     28.196      0.000     -0.132     89.844      2.528    162.000        0.486    186.000     58.000   3500.452   2539.063     94.492      0.000     64.000      7.209
10:46:19 21-Sep-07    199.809     15.762     28.196      0.000     -0.236     89.948      2.528    162.000        0.486     60.000     58.000   3500.452   2539.063     94.039      0.000     64.000      7.209
10:46:29 21-Sep-07    199.809     15.762     28.196      0.000     -0.201     89.913     -0.872    102.000        0.486     60.000     58.000   3500.452   2539.063     94.119      0.000     64.000      7.209
10:46:39 21-Sep-07    199.809     15.762     28.196      0.000     -0.235     89.948      1.445    110.000        0.486     60.000     58.000   3323.214   2539.063     94.173      0.000     64.000      7.209
10:46:49 21-Sep-07    199.809     15.762     28.196      0.000     -0.213     89.925     -0.712    102.000        0.486     60.000     58.000   3323.214   2539.063     94.143      0.000     56.000      7.209
10:46:59 21-Sep-07    199.809     15.762     28.196      0.000     -0.242     89.955     -0.712    102.000        0.486     60.000      0.000   3323.214   2539.063     94.189      0.000     56.000      7.209
10:47:09 21-Sep-07    199.809     15.762     28.196      0.000     -0.208     89.921      0.160    102.000        0.486     57.000      0.000   3323.214   2539.063     94.236      0.000     56.000      9.612
10:47:19 21-Sep-07    199.809     15.762     28.196      0.000     -0.218     89.931     -0.213    102.000        0.486     57.000      0.000   3323.214   2539.063     94.213      0.000     56.000      9.612
10:47:29 21-Sep-07    199.809     15.762     28.196      0.000     -0.200     89.912     -0.213    102.000        0.486     57.000      0.000   3323.214   2539.063     94.096      0.000     56.000      7.209
10:47:39 21-Sep-07    199.809     15.762     28.196      0.000     -0.274     89.986      0.302    102.000        0.000     57.000      0.000   3323.214   2539.063     94.137      0.000      0.000      4.806
10:47:49 21-Sep-07    199.809     15.762     28.196      0.000     -0.289     90.001      0.302    102.000        0.000     57.000      0.000   3323.214   2539.063     94.168      0.000      0.000      4.806
10:47:59 21-Sep-07    199.809     15.762     28.196      0.000     -0.216     89.928      0.833    102.000        0.000     57.000      0.000   3500.452   2539.063     93.361      0.000      0.000      7.209
10:48:09 21-Sep-07    199.809     15.762     28.196      0.000     -0.220     89.932      0.268    102.000        0.000     57.000      0.000   3500.452   2539.063     76.185      0.000      0.000      7.209
10:48:19 21-Sep-07    199.809     15.762     28.196      0.000     -0.237     89.950     -1.598     94.000        0.000     57.000      0.000   3057.357   2539.063     72.740      0.000      0.000      7.209
10:48:29 21-Sep-07    199.809     15.762     28.196      0.000     -0.334     90.046     -1.598     94.000        0.486     57.000      0.000   3057.357   2265.625     48.033      0.000      0.000      4.806
10:48:39 21-Sep-07    199.809     15.762     28.196      0.000     -0.494     90.206     -0.405     94.000        0.486     57.000      0.000   3057.357   2265.625      5.025      0.000      0.000      4.806
10:48:49 21-Sep-07    199.809     15.762     28.196      0.000     -0.372     90.084     -1.508     73.000      -999.25    -999.25    -999.25   1838.845    -999.25      2.954    -999.25    -999.25    -999.25
10:48:59 21-Sep-07    199.809     15.762     28.196      0.000     -0.281     89.993     -1.508     73.000      -999.25    -999.25    -999.25   1838.845    -999.25      2.894    -999.25    -999.25    -999.25
10:49:09 21-Sep-07    199.809     15.762     28.196      0.000     -0.325     90.038     -1.388      7.000      -999.25    -999.25    -999.25    132.929    -999.25      2.918    -999.25    -999.25    -999.25
10:49:19 21-Sep-07    199.809     15.762     28.196      0.000      0.476     89.237     -1.388      7.000      -999.25    -999.25    -999.25    132.929    -999.25      2.954    -999.25    -999.25    -999.25
10:49:29 21-Sep-07    199.809     15.762     28.196      0.000      0.417     89.296     -1.473      0.000      -999.25    -999.25    -999.25    132.929    -999.25      2.917    -999.25    -999.25    -999.25
10:49:39 21-Sep-07    199.809     15.762     28.196      0.000      0.423     89.289     -1.024      0.000      -999.25    -999.25    -999.25      0.000    -999.25      2.919    -999.25    -999.25    -999.25
10:49:49 21-Sep-07    199.809     15.762     28.196      0.000      0.427     89.285     -1.619      0.000      -999.25    -999.25    -999.25      0.000    -999.25      2.938    -999.25    -999.25    -999.25
10:49:59 21-Sep-07    199.809     15.762     28.196      0.000      0.319     89.394     -1.619      0.000      -999.25    -999.25    -999.25      0.000    -999.25      2.926    -999.25    -999.25    -999.25
10:50:09 21-Sep-07    199.809     15.762     28.196      0.000      0.332     89.380     -0.968      0.000      -999.25    -999.25    -999.25      0.000    -999.25      3.040    -999.25    -999.25    -999.25
10:50:19 21-Sep-07    199.809     15.762     28.196      0.000      0.272     89.441     -1.445      0.000      -999.25    -999.25    -999.25      0.000    -999.25      3.173    -999.25    -999.25    -999.25
10:50:29 21-Sep-07    199.809     15.762     28.196      0.000      0.150     89.562     -1.445      0.000      -999.25    -999.25    -999.25      0.000    -999.25      3.462    -999.25    -999.25    -999.25
10:50:39 21-Sep-07    199.809     15.762     28.196      0.000     -0.232     89.944     -1.365     21.000      -999.25    -999.25    -999.25      0.000    -999.25     21.232    -999.25    -999.25    -999.25
10:50:49 21-Sep-07    199.809     15.762     28.196      0.000     -0.330     90.042     -1.365     21.000      -999.25    -999.25    -999.25      0.000    -999.25     21.739    -999.25    -999.25    -999.25
10:50:59 21-Sep-07    199.809     15.762     28.196      0.000     -0.303     90.016     -1.486     51.000      -999.25    -999.25    -999.25   1772.381    -999.25     42.669    -999.25    -999.25    -999.25
10:51:09 21-Sep-07    199.809     15.762     28.196      0.000     -0.221     89.934     -1.016      2.000      -999.25    -999.25    -999.25   1772.381    -999.25     62.539    -999.25    -999.25    -999.25
10:51:19 21-Sep-07    199.809     15.762     28.196      0.000     -0.269     89.981     -1.527     82.000      -999.25    -999.25    -999.25   3057.357    -999.25     69.926    -999.25    -999.25    -999.25
10:51:29 21-Sep-07    199.809     15.762     28.196      0.000     -0.222     89.934     -1.527     82.000      -999.25    -999.25    -999.25   3057.357    -999.25     71.753    -999.25    -999.25    -999.25
10:51:39 21-Sep-07    199.809     15.762     28.196      0.000     -0.248     89.960     -0.749      2.000      -999.25    -999.25    -999.25   3057.357    -999.25     71.805    -999.25    -999.25    -999.25
10:51:49 21-Sep-07    199.809     15.762     28.196      0.000     -0.215     89.927     -1.490     89.000      -999.25    -999.25    -999.25   3057.357    -999.25     71.806    -999.25    -999.25    -999.25
10:51:59 21-Sep-07    199.809     15.762     28.196      0.000     -0.253     89.965     -1.490     89.000      -999.25    -999.25    -999.25   3057.357    -999.25     71.836    -999.25    -999.25    -999.25
10:52:09 21-Sep-07    199.809     15.762     28.196      0.000     -0.308     90.021     -1.574     89.000      -999.25    -999.25    -999.25   3057.357    -999.25     71.838    -999.25    -999.25    -999.25
10:52:19 21-Sep-07    199.807     15.762     28.197     -0.000      0.026     89.687     -1.574     89.000      -999.25    -999.25    -999.25   3057.357    -999.25     68.546    -999.25    -999.25    -999.25
10:52:29 21-Sep-07    199.807     15.762     28.197      0.000     -0.271     89.983     -1.518     89.000      -999.25    -999.25    -999.25   3057.357    -999.25     10.746    -999.25    -999.25    -999.25
