~VERSION INFORMATION 
VERS  .    2.0                                     :CWLS Log ASCII Standard - VERSION2.0
WRAP  .    NO                                      :One Line per Time step
DLM   .    SPACE                                   :Column Data section Delimiter
PROD  .    Schlumberger Technology Corp.           :LAS Producer
PROG  .    Horizon LASWriter 1.1.8606.0            :LAS Program name and version
CREA  .    08/18/2009                              :LAS Creation date {MM/DD/YYYY}
#--------------------------------------------------
~WELL INFORMATION 
#MNEM           .UNIT                      DATA            :DESCRIPTION
#----            ------          --------------            -----------------------------
 STRT           .S               04:00:00/03-Jul-2009  :START TIME                          
 STOP           .S               11:00:00/04-Jul-2009  :STOP TIME                          
 STEP           .S                           0.00000       :STEP
NULL            .                       -999.25            :NULL VALUE
COMP            .                  StatoilHydro            :COMPANY
WELL            .                    15/9-F-9 A            :WELL NAME
FLD             .                         Volve            :FIELD NAME
RIGN            .                Maersk Inspirer           :Rig Name
RIGTYP          .                       Jack-up            :Rig Type
SON             .                     09SCA0196            :Service Order Number
SRVC            .                  Schlumberger            :SERVICE COMPANY
DATE            .                    07/03/2009            :LOG DATE{MM/DD/YYYY} (Composite Date for Composite LAP)
CLAB            .                       County:            :County Label
CNTY            .                       -999.25            :COUNTY
SLAB            .                       -999.25            :State/Province Label
STAT            .                       -999.25            :STATE or PROVINCE
PROV            .                       -999.25            :STATE or PROVINCE
CTRY            .                        Norway            :COUNTRY
CONT_REGION     .                        Europe            :Continent Region
SECT            .                       -999.25            :Section
TOWN            .                       -999.25            :Township
RANG            .                       -999.25            :Range
API             .                       -999.25            :API NUMBER
UWI             .                       -999.25            :UNIQUE WELL ID
LUL             .                  Weather Deck            :Logging Unit Location
LUN             .                Geoservices: 1010567      :Logging Unit Number
LOC             .                Norwegian North Sea       :FIELD LOCATION
FL1             .                Section: 12 1/4 in.       :Field Location Line 1
FL2             .                Job no.: 09SCA0196        :Field Location Line 2
LATI            .                58° 26' 29.74" N          :LATITUDE
LONG            .                  1° 53' 15" E            :LONGITUDE
PDAT            .                           MSL            :Local Permanent Datum
LMF             .                            DF            :Logging Measured From
APD             .M                      54.9000            :Elevation of Depth Reference (LMF) Above Permanent Datum
EPD             .M                       0.0000            :Elevation of Permanent Datum (PDAT) above Mean Sea Level
EKB             .M                      -999.25            :Elevation of Kelly Bushing Above Permanent Datum
EDF             .M                      54.9000            :Elevation of Drill Floor Above Permanent Datum
EGL             .M                     -91.0000            :Elevation of Ground Level Above Permanent Datum
ECF             .M                      -999.25            :Elevation of Casing Flange above Permanent Datum
#--------------------------------------------------
~CURVE INFORMATION
#MNEM           .UNIT                  API CODE            :DESCRIPTION
#----            ------          --------------            ----------------------------------------
 TIME           .S                                         :                                          Time Index(hh:mm  :ss/dd-MMM-yyyy)
DEPTH           .M                                         :(RT)    (DnMWorkflow)           (1)       Depth Index
ROP5            .M/HR                                      :(RT)                            (1)       Rate of penetration averaged over the last 5 ft (1.5 m)
GR              .GAPI                                      :(RT)    (TELE825-IWOB)          (1)       Gamma Ray
BLKP            .M                                         :(RT)                            (1)       Height of block above rig floor
PVEL            .M/HR                                      :(RT)                            (1)       Pipe Velocity
HKLA            .KKGF                                      :(RT)                            (1)       Average Hookload
SWOB            .KKGF                                      :(RT)                            (1)       Surface Weight On Bit
STOR            .kN.m                                      :(RT)                            (1)       Surface Torque
RPM             .RPM                                       :(RT)                            (1)       Rotational Speed
STICK           .RPM                                       :(RM)    (TELE825-IWOB)          (1)       Stick Slip Indicator
TFLO            .LPM                                       :(RT)                            (1)       Total flow rate of all active pumps
SPM1            .SD/M                                      :(RT)                            (1)       Pump 1 Stroke Rate
SPM2            .SD/M                                      :(RT)                            (1)       Pump 2 Stroke Rate
SPM3            .SD/M                                      :(RT)                            (1)       Pump 3 Stroke Rate
SPPA            .BAR                                       :(RT)                            (1)       Standpipe Pressure
AJAM            .                                          :(RT)    (TELE825-IWOB)          (1)       Number of Anti-Jams Detected
TRPM            .RPM                                       :(RT)    (TELE825-IWOB)          (1)       MWD Turbine Rotation Speed
SHKL            .                                          :(RT)    (TELE825-IWOB)          (1)       Tool Shock Level
SHKPK           .M/S2                                      :(RT)    (TELE825-IWOB)          (1)       Shock Peak
SHKR            .CPS                                       :(RT)    (TELE825-IWOB)          (1)       Shock Rate
SHKRSK          .                                          :(RT)    (TELE825-IWOB)          (1)       Shock Risk
#-------------------------------------------------------------
#          TIME          DEPTH           ROP5             GR           BLKP           PVEL           HKLA           SWOB           STOR            RPM          STICK           TFLO           SPM1           SPM2           SPM3           SPPA           AJAM           TRPM           SHKL          SHKPK           SHKR         SHKRSK 
#                 (DnMWorkflow)                 (TELE825-IWO)                                                                                            (TELE825-IWO)                                                                             (TELE825-IWO)  (TELE825-IWO)  (TELE825-IWO)  (TELE825-IWO)  (TELE825-IWO)  (TELE825-IWO)
#                           (1)            (1)            (1)            (1)            (1)            (1)            (1)            (1)            (1)            (1)            (1)            (1)            (1)            (1)            (1)            (1)            (1)            (1)            (1)            (1)            (1)
#                          (RT)           (RT)           (RT)           (RT)           (RT)           (RT)           (RT)           (RT)           (RT)           (RM)           (RT)           (RT)           (RT)           (RT)           (RT)           (RT)           (RT)           (RT)           (RT)           (RT)           (RT)
~ASCII 
# ...
06:04:00/03-Jul-2009       467.0742        61.1672        -999.25        14.6135        61.6676        94.1972       -53.0495        -0.1556        84.0000        -999.25      2784.3100        63.0000         0.0000        63.0000        88.5349        -999.25        -999.25        -999.25        -999.25        -999.25        -999.25
06:04:10/03-Jul-2009       467.2346        60.8899        -999.25        14.4534        61.6054        94.2048       -53.1841        -0.1700        84.0000        -999.25      2784.3100        63.0000         0.0000        63.0000        92.3898         0.0000        -999.25        -999.25        -999.25        -999.25        -999.25
06:04:20/03-Jul-2009       467.4101        60.6000        -999.25        14.2785        61.4186        93.5061       -52.3993        -0.1994        84.0000        -999.25      2784.3100        63.0000         0.0000        63.0000        93.7211        -999.25      2382.8130        -999.25         0.0000         0.0000         0.0000
06:04:30/03-Jul-2009       467.5752        60.6090       203.1955        14.1130        59.8395        93.4773       -52.9056        -0.1672        84.0000        -999.25      2784.3100        63.0000         0.0000        63.0000        93.8724        -999.25        -999.25        -999.25        -999.25        -999.25        -999.25
06:04:40/03-Jul-2009       467.7322        60.3973        -999.25        13.9565        60.2284        93.6235       -52.7114        -0.2083        84.0000        -999.25      2784.3100        63.0000         0.0000        63.0000        91.6979        -999.25        -999.25        -999.25        -999.25        -999.25        -999.25
06:04:50/03-Jul-2009       467.9044        60.4686        -999.25        13.7833        59.4784        93.8348       -53.0670        -0.1820        84.0000        -999.25      2784.3100        63.0000         0.0000        63.0000        89.2361        -999.25        -999.25        -999.25        -999.25        -999.25        -999.25
06:05:00/03-Jul-2009       468.0692        60.5562        -999.25        13.6182        59.3556        93.1150       -51.9919        -0.1634        84.0000        -999.25      2784.3100        63.0000         0.0000        63.0000        95.2716         0.0000      2343.7500        -999.25        -999.25        -999.25        -999.25
06:05:10/03-Jul-2009       468.2292        60.1988        -999.25        13.4597        60.2276        94.1820       -53.5377        -0.1862        84.0000        -999.25      2784.3100        63.0000         0.0000        63.0000        90.9195        -999.25        -999.25        -999.25         0.0000         0.0000         0.0000
06:05:20/03-Jul-2009       468.4054        60.1171       189.1126        13.2821        61.4547        93.6482       -52.7195        -0.1486        84.0000        -999.25      2784.3100        63.0000         0.0000        63.0000        95.1358        -999.25        -999.25        -999.25        -999.25        -999.25        -999.25
06:05:30/03-Jul-2009       468.5732        59.9453        -999.25        13.1151        59.2839        93.6493       -52.9698        -0.1709        84.0000        -999.25      2784.3100        63.0000         0.0000        63.0000        92.0747        -999.25        -999.25        -999.25        -999.25        -999.25        -999.25
06:05:40/03-Jul-2009       468.7299        59.7096        -999.25        12.9590        60.4673        93.0627       -52.2130        -0.1460        84.0000         0.0000      2784.3100        63.0000         0.0000        63.0000        94.4253        -999.25        -999.25        -999.25        -999.25        -999.25        -999.25
06:05:50/03-Jul-2009       468.8980        59.5192        -999.25        12.7908        59.0114        93.5746       -52.8052        -0.1798        84.0000        -999.25      2784.3100        63.0000         0.0000        63.0000        94.7929         0.0000      2421.8750        -999.25        -999.25        -999.25        -999.25
06:06:00/03-Jul-2009       469.0651        59.6564       193.1363        12.6223        59.6905        94.0544       -53.5095        -0.1767        84.0000        -999.25      2784.3100        63.0000         0.0000        63.0000        93.5048        -999.25        -999.25        -999.25         0.0000         0.0000         0.0000
06:06:10/03-Jul-2009       469.2278        59.7860        -999.25        12.4601        60.4749        94.2187       -52.9401        -0.1757        84.0000        -999.25      2784.3100        63.0000         0.0000        63.0000        88.7543        -999.25        -999.25        -999.25        -999.25        -999.25        -999.25
06:06:20/03-Jul-2009       469.3980        59.7483        -999.25        12.2902        57.0073        94.0141       -53.0395        -0.1546        84.0000        -999.25      2784.3100        63.0000         0.0000        63.0000        93.5481        -999.25        -999.25        -999.25        -999.25        -999.25        -999.25
06:06:30/03-Jul-2009       469.5614        59.6006        -999.25        12.1268        57.8533        93.3348       -52.5582        -0.1544        84.0000        -999.25      2784.3100        63.0000         0.0000        63.0000        94.2153        -999.25        -999.25        -999.25        -999.25        -999.25        -999.25
06:06:40/03-Jul-2009       469.7160        59.6419        -999.25        11.9714        57.6066        93.3711       -52.6656        -0.1332        84.0000        -999.25      2784.3100        63.0000         0.0000        63.0000        92.9890         1.0000      2421.8750        -999.25         0.0000         0.0000         0.0000
06:06:50/03-Jul-2009       469.8885        59.4176       195.1481        11.7987        57.3777        93.1716       -52.3651        -0.1618        84.0000        -999.25      2784.3100        63.0000         0.0000        63.0000        91.6855        -999.25        -999.25        -999.25        -999.25        -999.25        -999.25
06:07:00/03-Jul-2009       470.0516        59.2465        -999.25        11.6361        59.8227        93.2888       -52.6221        -0.1600        84.0000        -999.25      2784.3100        63.0000         0.0000        63.0000        92.9458        -999.25        -999.25        -999.25        -999.25        -999.25        -999.25
06:07:10/03-Jul-2009       470.2036        59.0619        -999.25        11.4844        58.3498        93.1264       -52.2011        -0.1466        84.0000        -999.25      2784.3100        63.0000         0.0000        63.0000        94.0547        -999.25        -999.25        -999.25        -999.25        -999.25        -999.25
06:07:20/03-Jul-2009       470.3626        58.8453        -999.25        11.3244        51.5452        92.6818       -52.1590        -0.1389        84.0000        -999.25      2784.3100        63.0000         0.0000        63.0000        93.1589        -999.25        -999.25        -999.25        -999.25        -999.25        -999.25
06:07:30/03-Jul-2009       470.5196        58.2963        -999.25        11.1683        59.4238        93.9867       -53.7532        -0.1641        84.0000        -999.25      2784.3100        63.0000         0.0000        63.0000        92.5597        -999.25      2343.7500        -999.25         0.0000         0.0000         0.0000
06:07:40/03-Jul-2009       470.6685        58.0887       193.1363        11.0191        54.0059        93.4628       -52.6361        -0.1078        84.0000         0.0000      2784.3100        63.0000         0.0000        63.0000        92.8809        -999.25        -999.25        -999.25        -999.25        -999.25        -999.25
06:07:50/03-Jul-2009       470.8329        57.3469        -999.25        10.8550        60.8184        94.3795       -53.4357        -0.1379        84.0000        -999.25      2784.3100        63.0000         0.0000        63.0000        92.3095        -999.25        -999.25        -999.25        -999.25        -999.25        -999.25
