~VERSION INFORMATION 
VERS  .    2.0                                     :CWLS Log ASCII Standard - VERSION2.0
WRAP  .    NO                                      :One Line per Time step
DLM   .    SPACE                                   :Column Data section Delimiter
PROD  .    Schlumberger Technology Corp.           :LAS Producer
PROG  .    Horizon LASWriter 1.1.8606.0            :LAS Program name and version
CREA  .    08/18/2009                              :LAS Creation date {MM/DD/YYYY}
#--------------------------------------------------
~WELL INFORMATION 
#MNEM           .UNIT                      DATA            :DESCRIPTION
#----            ------          --------------            -----------------------------
 STRT           .S               04:00:00/03-Jul-2009  :START TIME                          
 STOP           .S               11:00:00/04-Jul-2009  :STOP TIME                          
 STEP           .S                           0.00000       :STEP
NULL            .                       -999.25            :NULL VALUE
COMP            .                  StatoilHydro            :COMPANY
WELL            .                    15/9-F-9 A            :WELL NAME
FLD             .                         Volve            :FIELD NAME
RIGN            .                Maersk Inspirer           :Rig Name
RIGTYP          .                       Jack-up            :Rig Type
SON             .                     09SCA0196            :Service Order Number
SRVC            .                  Schlumberger            :SERVICE COMPANY
DATE            .                    07/03/2009            :LOG DATE{MM/DD/YYYY} (Composite Date for Composite LAP)
CLAB            .                       County:            :County Label
CNTY            .                       -999.25            :COUNTY
SLAB            .                       -999.25            :State/Province Label
STAT            .                       -999.25            :STATE or PROVINCE
PROV            .                       -999.25            :STATE or PROVINCE
CTRY            .                        Norway            :COUNTRY
CONT_REGION     .                        Europe            :Continent Region
SECT            .                       -999.25            :Section
TOWN            .                       -999.25            :Township
RANG            .                       -999.25            :Range
API             .                       -999.25            :API NUMBER
UWI             .                       -999.25            :UNIQUE WELL ID
LUL             .                  Weather Deck            :Logging Unit Location
LUN             .                Geoservices: 1010567      :Logging Unit Number
LOC             .                Norwegian North Sea       :FIELD LOCATION
FL1             .                Section: 12 1/4 in.       :Field Location Line 1
FL2             .                Job no.: 09SCA0196        :Field Location Line 2
LATI            .                58° 26' 29.74" N          :LATITUDE
LONG            .                  1° 53' 15" E            :LONGITUDE
PDAT            .                           MSL            :Local Permanent Datum
LMF             .                            DF            :Logging Measured From
APD             .M                      54.9000            :Elevation of Depth Reference (LMF) Above Permanent Datum
EPD             .M                       0.0000            :Elevation of Permanent Datum (PDAT) above Mean Sea Level
EKB             .M                      -999.25            :Elevation of Kelly Bushing Above Permanent Datum
EDF             .M                      54.9000            :Elevation of Drill Floor Above Permanent Datum
EGL             .M                     -91.0000            :Elevation of Ground Level Above Permanent Datum
ECF             .M                      -999.25            :Elevation of Casing Flange above Permanent Datum
#--------------------------------------------------
~CURVE INFORMATION
#MNEM           .UNIT                  API CODE            :DESCRIPTION
#----            ------          --------------            ----------------------------------------
 TIME           .S                                         :                                          Time Index(hh:mm  :ss/dd-MMM-yyyy)
DEPTH           .M                                         :(RT)    (DnMWorkflow)           (1)       Depth Index
ROP5            .M/HR                                      :(RT)                            (1)       Rate of penetration averaged over the last 5 ft (1.5 m)
GR              .GAPI                                      :(RT)    (TELE825-IWOB)          (1)       Gamma Ray
BLKP            .M                                         :(RT)                            (1)       Height of block above rig floor
PVEL            .M/HR                                      :(RT)                            (1)       Pipe Velocity
HKLA            .KKGF                                      :(RT)                            (1)       Average Hookload
SWOB            .KKGF                                      :(RT)                            (1)       Surface Weight On Bit
STOR            .kN.m                                      :(RT)                            (1)       Surface Torque
RPM             .RPM                                       :(RT)                            (1)       Rotational Speed
STICK           .RPM                                       :(RM)    (TELE825-IWOB)          (1)       Stick Slip Indicator
TFLO            .LPM                                       :(RT)                            (1)       Total flow rate of all active pumps
SPM1            .SD/M                                      :(RT)                            (1)       Pump 1 Stroke Rate
SPM2            .SD/M                                      :(RT)                            (1)       Pump 2 Stroke Rate
SPM3            .SD/M                                      :(RT)                            (1)       Pump 3 Stroke Rate
SPPA            .BAR                                       :(RT)                            (1)       Standpipe Pressure
AJAM            .                                          :(RT)    (TELE825-IWOB)          (1)       Number of Anti-Jams Detected
TRPM            .RPM                                       :(RT)    (TELE825-IWOB)          (1)       MWD Turbine Rotation Speed
SHKL            .                                          :(RT)    (TELE825-IWOB)          (1)       Tool Shock Level
SHKPK           .M/S2                                      :(RT)    (TELE825-IWOB)          (1)       Shock Peak
SHKR            .CPS                                       :(RT)    (TELE825-IWOB)          (1)       Shock Rate
SHKRSK          .                                          :(RT)    (TELE825-IWOB)          (1)       Shock Risk
#-------------------------------------------------------------
#          TIME          DEPTH           ROP5             GR           BLKP           PVEL           HKLA           SWOB           STOR            RPM          STICK           TFLO           SPM1           SPM2           SPM3           SPPA           AJAM           TRPM           SHKL          SHKPK           SHKR         SHKRSK 
#                 (DnMWorkflow)                 (TELE825-IWO)                                                                                            (TELE825-IWO)                                                                             (TELE825-IWO)  (TELE825-IWO)  (TELE825-IWO)  (TELE825-IWO)  (TELE825-IWO)  (TELE825-IWO)
#                           (1)            (1)            (1)            (1)            (1)            (1)            (1)            (1)            (1)            (1)            (1)            (1)            (1)            (1)            (1)            (1)            (1)            (1)            (1)            (1)            (1)
#                          (RT)           (RT)           (RT)           (RT)           (RT)           (RT)           (RT)           (RT)           (RT)           (RM)           (RT)           (RT)           (RT)           (RT)           (RT)           (RT)           (RT)           (RT)           (RT)           (RT)           (RT)
~ASCII 
# ...
08:52:00/04-Jul-2009       977.9432        12.7315        -999.25        23.7207        10.9102        90.1871        21.0773         1.9179       104.0000        -999.25      3447.2410        78.0000         0.0000        78.0000       154.4534        -999.25        -999.25        -999.25        -999.25        -999.25        -999.25
08:52:10/04-Jul-2009       977.9698        -999.25        -999.25        23.6942        10.0594        90.1331        20.9170         1.9617       104.0000        -999.25      3447.2410        78.0000         0.0000        78.0000       153.5762         0.0000      3125.0000        -999.25        -999.25        -999.25        -999.25
08:52:20/04-Jul-2009       978.0018        -999.25       217.2783        23.6621         9.6655        90.1685        20.9495         1.9495       104.0000        -999.25      3447.2410        78.0000         0.0000        78.0000       152.5538        -999.25        -999.25        -999.25         0.0000         0.0000         0.0000
08:52:30/04-Jul-2009       978.0306        -999.25        -999.25        23.6330        10.8514        90.1636        20.8580         2.0177       104.0000        -999.25      3447.2410        78.0000         0.0000        78.0000       146.4812        -999.25        -999.25        -999.25        -999.25        -999.25        -999.25
08:52:40/04-Jul-2009       978.0594        -999.25        -999.25        23.6045        11.2213        90.1985        20.8495         1.9837       104.0000        -999.25      3447.2410        78.0000         0.0000        78.0000       152.0163        -999.25        -999.25        -999.25        -999.25        -999.25        -999.25
08:52:50/04-Jul-2009       978.0955        12.0336        -999.25        23.5687        13.1079        90.1565        21.0271         1.9209       104.0000        -999.25      3447.2410        78.0000         0.0000        78.0000       150.8611        -999.25        -999.25        -999.25        -999.25        -999.25        -999.25
08:53:00/04-Jul-2009       978.1356        -999.25        -999.25        23.5287        14.9727        89.6971        21.3431         1.9314       104.0000        -999.25      3447.2410        78.0000         0.0000        78.0000       149.7924         0.0000      3125.0000        -999.25         0.0000         0.0000         0.0000
08:53:10/04-Jul-2009       978.1749        -999.25       233.3730        23.4893        14.6941        89.3366        21.7773         1.9534       104.0000        -999.25      3447.2410        78.0000         0.0000        78.0000       151.8310        -999.25        -999.25        -999.25        -999.25        -999.25        -999.25
08:53:20/04-Jul-2009       978.2216        -999.25        -999.25        23.4427        16.1607        88.8277        22.2746         1.9652       104.0000        -999.25      3447.2410        78.0000         0.0000        78.0000       152.2572        -999.25        -999.25        -999.25        -999.25        -999.25        -999.25
08:53:30/04-Jul-2009       978.2638        11.8303        -999.25        23.4003        14.0435        88.4351        22.4987         1.9900       104.0000        -999.25      3447.2410        78.0000         0.0000        78.0000       151.6395        -999.25        -999.25        -999.25        -999.25        -999.25        -999.25
08:53:40/04-Jul-2009       978.3052        -999.25        -999.25        23.3591        14.0653        88.1755        23.0185         1.9484       104.0000         0.0000      3447.2410        78.0000         0.0000        78.0000       147.3275        -999.25        -999.25        -999.25        -999.25        -999.25        -999.25
08:53:50/04-Jul-2009       978.3413        -999.25        -999.25        23.3227        12.0721        88.3078        22.7809         1.9290       104.0000        -999.25      3447.2410        78.0000         0.0000        78.0000       148.5414         0.0000      3085.9380        -999.25         0.0000         0.0000         0.0000
08:54:00/04-Jul-2009       978.3751        -999.25       215.2665        23.2891        12.3419        88.3271        22.9185         1.9119       104.0000        -999.25      3447.2410        78.0000         0.0000        78.0000       153.5391        -999.25        -999.25        -999.25        -999.25        -999.25        -999.25
08:54:10/04-Jul-2009       978.4067        11.5536        -999.25        23.2574        12.1461        88.2942        22.8268         1.9674       104.0000        -999.25      3447.2410        78.0000         0.0000        78.0000       152.0874        -999.25        -999.25        -999.25        -999.25        -999.25        -999.25
08:54:20/04-Jul-2009       978.4414        -999.25        -999.25        23.2226        11.9568        88.2622        22.7908         1.9789       104.0000        -999.25      3447.2410        78.0000         0.0000        78.0000       150.9754        -999.25        -999.25        -999.25        -999.25        -999.25        -999.25
08:54:30/04-Jul-2009       978.4751        -999.25        -999.25        23.1890        12.7945        88.1866        22.8536         1.9597       104.0000        -999.25      3447.2410        78.0000         0.0000        78.0000       152.8163         0.0000        -999.25        -999.25        -999.25        -999.25        -999.25
08:54:40/04-Jul-2009       978.5068        -999.25        -999.25        23.1573        12.4377        88.3761        22.7570         1.9410       104.0000        -999.25      3447.2410        78.0000         0.0000        78.0000       152.8997        -999.25      3125.0000        -999.25         0.0000         0.0000         0.0000
08:54:50/04-Jul-2009       978.5425        -999.25       225.3257        23.1215        12.4594        88.4055        22.6998         1.9415       104.0000        -999.25      3447.2410        78.0000         0.0000        78.0000       151.5406        -999.25        -999.25        -999.25        -999.25        -999.25        -999.25
08:55:00/04-Jul-2009       978.5770        11.8049        -999.25        23.0869        12.1787        88.3481        22.6910         1.9192       104.0000        -999.25      3447.2410        78.0000         0.0000        78.0000       149.1345        -999.25        -999.25        -999.25        -999.25        -999.25        -999.25
08:55:10/04-Jul-2009       978.6107        -999.25        -999.25        23.0534        12.3311        88.3110        22.7497         1.9632       104.0000        -999.25      3447.2410        78.0000         0.0000        78.0000       152.3870        -999.25        -999.25        -999.25        -999.25        -999.25        -999.25
08:55:20/04-Jul-2009       978.6247        -999.25        -999.25        23.0386         0.0000        88.8648        22.1969         1.9581       104.0000        -999.25      3447.2410        78.0000         0.0000        78.0000       150.2619         0.0000      3085.9380        -999.25        -999.25        -999.25        -999.25
08:55:30/04-Jul-2009       978.5907        -999.25       213.2546        23.0735         8.1881        92.9176        18.2216         1.9769       104.0000        -999.25      3447.2410        78.0000         0.0000        78.0000       146.4564        -999.25        -999.25        -999.25         0.0000         0.0000         0.0000
08:55:40/04-Jul-2009       978.6061        -999.25        -999.25        23.0581         3.9210        92.8969        18.1661         1.9632       104.0000         0.0000      3447.2410        78.0000         0.0000        78.0000       148.0286        -999.25        -999.25        -999.25        -999.25        -999.25        -999.25
08:55:50/04-Jul-2009       978.6500        -999.25        -999.25        23.0143        15.0902        91.5453        19.6065         1.9386       104.0000        -999.25      3447.2410        78.0000         0.0000        78.0000       145.4093        -999.25        -999.25        -999.25        -999.25        -999.25        -999.25
