~Version Information
VERS.             2.0 : CWLS log ASCII standard - Version 2.0
WRAP.             NO  : One line per depth step
#
~Well Information Block
#MNEM.UNIT                   Data Type:Information
#__________________________________________________________
  STRT.           30-AUG-2008 00:00:00 : START INDEX                   
  STOP.           30-AUG-2008 18:00:00 : STOP INDEX                    
  STEP.SEC           10.0000 : STEP                          
  NULL.              -999.25 : NULL VALUE                    
  COMP.           StatoilHydro : COMPANY                       
  WELL.             15/9-F-9 : WELL                          
   FLD.                Volve : FIELD                         
   LOC.           Norwegian North Sea : LOCATION                      
  PROV.                      : PROVINCE                      
  CNTY.               Norway : COUNTY                        
  STAT.           Maersk Inspirer : RIG                           
  CTRY.                      : COUNTRY                       
  SRVC.           Schlumberger D&M : SERVICE COMPANY               
  DATE.           29-AUG-2008 09:22:08 : LOG DATE                      
   UWI.                      : UNIQUE WELL ID                
   API.                      : API NUMBER                    
#
~Curve Information Block
#MNEM.UNIT                     : Curve Description
#---------                     --------------------
TIME	    .HHMMSS	       : 
DATE	    .D		       : 
GR          .GAPI              : ARC Gamma Ray, Real-Time                                        
INCL_CONT_RT.DEG               : MWD Cont Inc 2hz                                                
HKLD        .KKGF              : Measured Hookload 2hz                                           
SWOB        .KKGF              : Surface Weight on Bit 2hz                                       
TQA         .KMN               : SRF STOR 2hz                                                    
RPM         .RPM               : SRF SRPM 2hz                                                    
SHKRSK_RT   .----              : MWD SHKRSK 2hz                                                  
Stick_RT    .RPM               : MWD PKtoPK RPM 2hz                                              
DEPT        .M                 : Bit Depth 2hz                                                   
TRPM_RT     .RPM               : MWD TUR_RPM 2hz                                                 
ATMP        .DEGC              : ARC Annular Temperature                                         
BPOS        .M                 : Block Position 2hz                                              
BVEL        .M/S               : Block Velocity 2hz                                              
ROP5        .M/HR              : 5ft ROP 2hz                                                     
ECD_ARC     .G/C3              : Equivalent Circulating Density                                  
SPPA        .BAR               : SRF PUMPRS 2hz                                                  
TFLO        .LPM               : HSPM Total Pump Flow 2hz                                        
#
~Parameter Information Block
#MNEM.UNIT                       Value:Description
#__________________________________________________________
#
~Other Information Block

#
~A TIME       DATE     GR    INCL_CONT_RT       HKLD       SWOB        TQA        RPM  SHKRSK_RT   Stick_RT       DEPT    TRPM_RT       ATMP       BPOS       BVEL       ROP5    ECD_ARC       SPPA       TFLO
# ...
17:52:38 30-Aug-08    -999.25      -999.25    93.2909     0.5208     0.0125     0.0000    -999.25    -999.25   898.2060    -999.25    39.0000    11.0699     0.0000    20.4969     1.2948     1.5270     0.0000
17:52:48 30-Aug-08    -999.25      -999.25    93.3293     0.4823     0.0122     0.0000    -999.25    -999.25   898.2060    -999.25    39.0000    11.0699     0.0000    20.4969     1.2947     1.6045     0.0000
17:52:58 30-Aug-08    -999.25      -999.25    93.2959     0.5157     0.0138     0.0000    -999.25    -999.25   898.2060    -999.25    39.0000    11.0699     0.0000    20.4969     1.2948     1.4651     0.0000
17:53:08 30-Aug-08    -999.25      -999.25    93.2651     0.5465     0.0099     0.0000    -999.25    -999.25   898.2060    -999.25    39.0000    11.0699     0.0000    20.4969     1.2943     1.4372     0.0000
17:53:18 30-Aug-08    -999.25      -999.25    93.2681     0.5435     0.0099     0.0000    -999.25    -999.25   898.2060    -999.25    39.0000    11.0699     0.0000    20.4969     1.2943     1.4372     0.0000
17:53:28 30-Aug-08    -999.25      -999.25    93.3115     0.5001     0.0120     0.0000    -999.25    -999.25   898.2060    -999.25    39.0000    11.0699     0.0000    20.4969     1.2943     1.4558     0.0000
17:53:38 30-Aug-08    -999.25      -999.25    93.2979     0.5138     0.0112     0.0000    -999.25    -999.25   898.2060    -999.25    39.0000    11.0699     0.0000    20.4969     1.2943     1.3969     0.0000
17:53:48 30-Aug-08    -999.25      -999.25    93.3333     0.4783     0.0139     0.0000    -999.25    -999.25   898.2060    -999.25    39.0000    11.0699     0.0000    20.4969     1.2947     2.0536     0.0000
17:53:58 30-Aug-08    -999.25      -999.25    93.3015     0.5101     0.0139     0.0000    -999.25    -999.25   898.2060    -999.25    39.0000    11.0699     0.0000    20.4969     1.2951     2.0536     0.0000
17:54:08 30-Aug-08    -999.25      -999.25    93.2933     0.5183     0.0108     0.0000    -999.25    -999.25   898.2060    -999.25    39.0000    11.0699     0.0000    20.4969     1.2948     1.7717     0.0000
17:54:18 30-Aug-08    -999.25      -999.25    93.2788     0.5328     0.0124     0.0000    -999.25    -999.25   898.2060    -999.25    39.0000    11.0699     0.0000    20.4969     1.2943     1.5054     0.0000
17:54:28 30-Aug-08    -999.25      -999.25    93.2869     0.5247     0.0124     0.0000    -999.25    -999.25   898.2060    -999.25    39.0000    11.0699     0.0000    20.4969     1.2947     1.5054     0.0000
17:54:38 30-Aug-08    -999.25      -999.25    93.3039     0.5078     0.0113     0.0000    -999.25    -999.25   898.2060    -999.25    39.0000    11.0699     0.0000    20.4969     1.2948     1.8771     0.0000
17:54:48 30-Aug-08    -999.25      -999.25    93.3565     0.4551     0.0132     0.0000    -999.25    -999.25   898.2060    -999.25    39.0000    11.0699     0.0000    20.4969     1.2943     1.9359     0.0000
17:54:58 30-Aug-08    -999.25      -999.25    93.2930     0.5186     0.0112     0.0000    -999.25    -999.25   898.2060    -999.25    39.0000    11.0699     0.0000    20.4969     1.2943     1.7222     0.0000
17:55:08 30-Aug-08    -999.25      -999.25    93.3525     0.4591     0.0116     0.0000    -999.25    -999.25   898.2060    -999.25    39.0000    11.0699     0.0000    20.4969     1.2943     1.7965     0.0000
17:55:18 30-Aug-08    -999.25      -999.25    93.3138     0.4978     0.0116     0.0000    -999.25    -999.25   898.2060    -999.25    39.0000    11.0699     0.0000    20.4969     1.2943     1.7965     0.0000
17:55:28 30-Aug-08    -999.25      -999.25    93.3466     0.4650     0.0106     0.0000    -999.25    -999.25   898.2060    -999.25    39.0000    11.0699     0.0000    20.4969     1.2943     1.5735     0.0000
17:55:38 30-Aug-08    -999.25      -999.25    93.3917     0.4199     0.0105     0.0000    -999.25    -999.25   898.2060    -999.25    39.0000    11.0699     0.0000    20.4969     1.2943     1.6943     0.0000
17:55:48 30-Aug-08    -999.25      -999.25    93.3492     0.4624     0.0105     0.0000    -999.25    -999.25   898.2060    -999.25    39.0000    11.0699     0.0000    20.4969     1.2947     1.6943     0.0000
17:55:58 30-Aug-08    -999.25      -999.25    93.4416     0.3701     0.0101     0.0000    -999.25    -999.25   898.2060    -999.25    39.0000    11.0699     0.0000    20.4969     1.2948     1.7748     0.0000
17:56:08 30-Aug-08    -999.25      -999.25    93.4064     0.4052     0.0118     0.0000    -999.25    -999.25   898.2060    -999.25    39.0000    11.0699     0.0000    20.4969     1.2943     1.9824     0.0000
17:56:18 30-Aug-08    -999.25      -999.25    93.3752     0.4365     0.0129     0.0000    -999.25    -999.25   898.2060    -999.25    39.0000    11.0699     0.0000    20.4969     1.2943     1.4806     0.0000
17:56:28 30-Aug-08    -999.25      -999.25    93.3350     0.4766     0.0129     0.0000    -999.25    -999.25   898.2060    -999.25    39.0000    11.0699     0.0000    20.4969     1.2943     1.4806     0.0000
17:56:38 30-Aug-08    -999.25      -999.25    93.3921     0.4196     0.0138     0.0000    -999.25    -999.25   898.2060    -999.25    39.0000    11.0699     0.0000    20.4969     1.2940     1.1430     0.0000
17:56:48 30-Aug-08    -999.25      -999.25    93.4413     0.3703     0.0120     0.0000    -999.25    -999.25   898.2060    -999.25    39.0000    11.0699     0.0000    20.4969     1.2939     1.2483     0.0000
17:56:58 30-Aug-08    -999.25      -999.25    93.4099     0.4017     0.0125     0.0000    -999.25    -999.25   898.2060    -999.25    39.0000    11.0699     0.0000    20.4969     1.2947     1.4031     0.0000
17:57:08 30-Aug-08    -999.25      -999.25    93.3353     0.4764     0.0125     0.0000    -999.25    -999.25   898.2060    -999.25    39.0000    11.0699     0.0000    20.4969     1.2948     1.4031     0.0000
17:57:18 30-Aug-08    -999.25      -999.25    93.3750     0.4366     0.0115     0.0000    -999.25    -999.25   898.2060    -999.25    39.0000    11.0699     0.0000    20.4969     1.2947     1.4899     0.0000
17:57:28 30-Aug-08    -999.25      -999.25    93.3407     0.4709     0.0133     0.0000    -999.25    -999.25   898.2060    -999.25    39.0000    11.0699     0.0000    20.4969     1.2951     1.1925     0.0000
17:57:38 30-Aug-08    -999.25      -999.25    93.3695     0.4421     0.0125     0.0000    -999.25    -999.25   898.2060    -999.25    39.0000    11.0699     0.0000    20.4969     1.2948     1.4248     0.0000
17:57:48 30-Aug-08    -999.25      -999.25    93.4099     0.4018     0.0125     0.0000    -999.25    -999.25   898.2060    -999.25    39.0000    11.0699     0.0000    20.4969     1.2947     1.4248     0.0000
17:57:58 30-Aug-08    -999.25      -999.25    93.4465     0.3651     0.0118     0.0000    -999.25    -999.25   898.2060    -999.25    39.0000    11.0699     0.0000    20.4969     1.2948     1.6726     0.0000
17:58:08 30-Aug-08    -999.25      -999.25    93.4453     0.3663     0.0129     0.0000    -999.25    -999.25   898.2060    -999.25    39.0000    11.0699     0.0000    20.4969     1.2943     1.6695     0.0000
17:58:18 30-Aug-08    -999.25      -999.25    93.4760     0.3356     0.0115     0.0000    -999.25    -999.25   898.2060    -999.25    39.0000    11.0699     0.0000    20.4969     1.2947     1.8058     0.0000
17:58:28 30-Aug-08    -999.25      -999.25    93.4424     0.3693     0.0115     0.0000    -999.25    -999.25   898.2060    -999.25    39.0000    11.0699     0.0000    20.4969     1.2948     1.8058     0.0000
17:58:38 30-Aug-08    -999.25      -999.25    93.4102     0.4014     0.0111     0.0000    -999.25    -999.25   898.2060    -999.25    39.0000    11.0699     0.0000    20.4969     1.2947     1.4775     0.0000
17:58:48 30-Aug-08    -999.25      -999.25    93.4559     0.3557     0.0120     0.0000    -999.25    -999.25   898.2060    -999.25    39.0000    11.0699     0.0000    20.4969     1.2951     1.6200     0.0000
17:58:58 30-Aug-08    -999.25      -999.25    93.4390     0.3726     0.0120     0.0000    -999.25    -999.25   898.2060    -999.25    39.0000    11.0699     0.0000    20.4969     1.2945     1.6200     0.0000
