~VERSION INFORMATION 
VERS  .    2.0                                     :CWLS Log ASCII Standard - VERSION2.0
WRAP  .    NO                                      :One Line per Time step
DLM   .    SPACE                                   :Column Data section Delimiter
PROD  .    Schlumberger Technology Corp.           :LAS Producer
PROG  .    Horizon LASWriter 1.1.8606.0            :LAS Program name and version
CREA  .    08/18/2009                              :LAS Creation date {MM/DD/YYYY}
#--------------------------------------------------
~WELL INFORMATION 
#MNEM           .UNIT                      DATA            :DESCRIPTION
#----            ------          --------------            -----------------------------
 STRT           .S               04:00:00/03-Jul-2009  :START TIME                          
 STOP           .S               11:00:00/04-Jul-2009  :STOP TIME                          
 STEP           .S                           0.00000       :STEP
NULL            .                       -999.25            :NULL VALUE
COMP            .                  StatoilHydro            :COMPANY
WELL            .                    15/9-F-9 A            :WELL NAME
FLD             .                         Volve            :FIELD NAME
RIGN            .                Maersk Inspirer           :Rig Name
RIGTYP          .                       Jack-up            :Rig Type
SON             .                     09SCA0196            :Service Order Number
SRVC            .                  Schlumberger            :SERVICE COMPANY
DATE            .                    07/03/2009            :LOG DATE{MM/DD/YYYY} (Composite Date for Composite LAP)
CLAB            .                       County:            :County Label
CNTY            .                       -999.25            :COUNTY
SLAB            .                       -999.25            :State/Province Label
STAT            .                       -999.25            :STATE or PROVINCE
PROV            .                       -999.25            :STATE or PROVINCE
CTRY            .                        Norway            :COUNTRY
CONT_REGION     .                        Europe            :Continent Region
SECT            .                       -999.25            :Section
TOWN            .                       -999.25            :Township
RANG            .                       -999.25            :Range
API             .                       -999.25            :API NUMBER
UWI             .                       -999.25            :UNIQUE WELL ID
LUL             .                  Weather Deck            :Logging Unit Location
LUN             .                Geoservices: 1010567      :Logging Unit Number
LOC             .                Norwegian North Sea       :FIELD LOCATION
FL1             .                Section: 12 1/4 in.       :Field Location Line 1
FL2             .                Job no.: 09SCA0196        :Field Location Line 2
LATI            .                58° 26' 29.74" N          :LATITUDE
LONG            .                  1° 53' 15" E            :LONGITUDE
PDAT            .                           MSL            :Local Permanent Datum
LMF             .                            DF            :Logging Measured From
APD             .M                      54.9000            :Elevation of Depth Reference (LMF) Above Permanent Datum
EPD             .M                       0.0000            :Elevation of Permanent Datum (PDAT) above Mean Sea Level
EKB             .M                      -999.25            :Elevation of Kelly Bushing Above Permanent Datum
EDF             .M                      54.9000            :Elevation of Drill Floor Above Permanent Datum
EGL             .M                     -91.0000            :Elevation of Ground Level Above Permanent Datum
ECF             .M                      -999.25            :Elevation of Casing Flange above Permanent Datum
#--------------------------------------------------
~CURVE INFORMATION
#MNEM           .UNIT                  API CODE            :DESCRIPTION
#----            ------          --------------            ----------------------------------------
 TIME           .S                                         :                                          Time Index(hh:mm  :ss/dd-MMM-yyyy)
DEPTH           .M                                         :(RT)    (DnMWorkflow)           (1)       Depth Index
ROP5            .M/HR                                      :(RT)                            (1)       Rate of penetration averaged over the last 5 ft (1.5 m)
GR              .GAPI                                      :(RT)    (TELE825-IWOB)          (1)       Gamma Ray
BLKP            .M                                         :(RT)                            (1)       Height of block above rig floor
PVEL            .M/HR                                      :(RT)                            (1)       Pipe Velocity
HKLA            .KKGF                                      :(RT)                            (1)       Average Hookload
SWOB            .KKGF                                      :(RT)                            (1)       Surface Weight On Bit
STOR            .kN.m                                      :(RT)                            (1)       Surface Torque
RPM             .RPM                                       :(RT)                            (1)       Rotational Speed
STICK           .RPM                                       :(RM)    (TELE825-IWOB)          (1)       Stick Slip Indicator
TFLO            .LPM                                       :(RT)                            (1)       Total flow rate of all active pumps
SPM1            .SD/M                                      :(RT)                            (1)       Pump 1 Stroke Rate
SPM2            .SD/M                                      :(RT)                            (1)       Pump 2 Stroke Rate
SPM3            .SD/M                                      :(RT)                            (1)       Pump 3 Stroke Rate
SPPA            .BAR                                       :(RT)                            (1)       Standpipe Pressure
AJAM            .                                          :(RT)    (TELE825-IWOB)          (1)       Number of Anti-Jams Detected
TRPM            .RPM                                       :(RT)    (TELE825-IWOB)          (1)       MWD Turbine Rotation Speed
SHKL            .                                          :(RT)    (TELE825-IWOB)          (1)       Tool Shock Level
SHKPK           .M/S2                                      :(RT)    (TELE825-IWOB)          (1)       Shock Peak
SHKR            .CPS                                       :(RT)    (TELE825-IWOB)          (1)       Shock Rate
SHKRSK          .                                          :(RT)    (TELE825-IWOB)          (1)       Shock Risk
#-------------------------------------------------------------
#          TIME          DEPTH           ROP5             GR           BLKP           PVEL           HKLA           SWOB           STOR            RPM          STICK           TFLO           SPM1           SPM2           SPM3           SPPA           AJAM           TRPM           SHKL          SHKPK           SHKR         SHKRSK 
#                 (DnMWorkflow)                 (TELE825-IWO)                                                                                            (TELE825-IWO)                                                                             (TELE825-IWO)  (TELE825-IWO)  (TELE825-IWO)  (TELE825-IWO)  (TELE825-IWO)  (TELE825-IWO)
#                           (1)            (1)            (1)            (1)            (1)            (1)            (1)            (1)            (1)            (1)            (1)            (1)            (1)            (1)            (1)            (1)            (1)            (1)            (1)            (1)            (1)
#                          (RT)           (RT)           (RT)           (RT)           (RT)           (RT)           (RT)           (RT)           (RT)           (RM)           (RT)           (RT)           (RT)           (RT)           (RT)           (RT)           (RT)           (RT)           (RT)           (RT)           (RT)
~ASCII 
# ...
06:52:00/04-Jul-2009       946.7648        -999.25        -999.25        14.7557         0.0000       110.2554        -0.0209         0.8752       104.0000        -999.25      3447.2410        78.0000         0.0000        78.0000       147.0526        -999.25        -999.25        -999.25        -999.25        -999.25        -999.25
06:52:10/04-Jul-2009       946.7648        -999.25        -999.25        14.7557         0.0000       107.6275         2.7312         1.3373       123.0000        -999.25      3447.2410        78.0000         0.0000        78.0000       148.2974        -999.25        -999.25        -999.25        -999.25        -999.25        -999.25
06:52:20/04-Jul-2009       946.7648        -999.25        -999.25        14.7557         0.0000       105.1671         5.0529        12.3563       124.0000        -999.25      3447.2410        78.0000         0.0000        78.0000       151.6766         0.0000      3125.0000        -999.25        -999.25        -999.25        -999.25
06:52:30/04-Jul-2009       946.7648        -999.25       219.2902        14.7557         0.0000       105.2249         5.0081         5.3697       144.0000        -999.25      3447.2410        78.0000         0.0000        78.0000       151.8248        -999.25        -999.25        -999.25         0.0000         0.0000         0.0000
06:52:40/04-Jul-2009       946.5181        -999.25        -999.25        15.0026      -100.2870       106.3965         3.2819         3.2914       143.0000        -999.25      3447.2410        78.0000         0.0000        78.0000       148.3499        -999.25        -999.25        -999.25        -999.25        -999.25        -999.25
06:52:50/04-Jul-2009       946.5276        -999.25        -999.25        14.9929         6.9043       104.8518         5.4684         6.6134       143.0000        -999.25      3447.2410        78.0000         0.0000        78.0000       153.5020        -999.25        -999.25        -999.25        -999.25        -999.25        -999.25
06:53:00/04-Jul-2009       946.5273        -999.25        -999.25        14.9932         0.0000       105.0643         5.0313         3.9152       143.0000        -999.25      3447.2410        78.0000         0.0000        78.0000       147.8093         0.0000        -999.25        -999.25        -999.25        -999.25        -999.25
06:53:10/04-Jul-2009       946.6213        -999.25        -999.25        14.9028        43.0271       104.6509         5.5584         4.6511       144.0000        -999.25      3447.2410        78.0000         0.0000        78.0000       147.1267        -999.25      3125.0000        -999.25         0.0000         0.0000         0.0000
06:53:20/04-Jul-2009       946.7850        -999.25       225.3257        14.7391        55.8325       105.0763         5.1244         5.7180       143.0000        -999.25      3447.2410        78.0000         0.0000        78.0000       146.1599        -999.25        -999.25        -999.25        -999.25        -999.25        -999.25
06:53:30/04-Jul-2009       946.9404        -999.25        -999.25        14.5838        55.5453       103.6003         6.9239         5.6196       143.0000        -999.25      3447.2410        78.0000         0.0000        78.0000       144.9985         0.0000        -999.25        -999.25        -999.25        -999.25        -999.25
06:53:40/04-Jul-2009       947.0883        -999.25        -999.25        14.4358        55.7302       103.2452         7.0187         7.3411       143.0000        84.0000      3447.2410        78.0000         0.0000        78.0000       145.0047        -999.25        -999.25        -999.25        -999.25        -999.25        -999.25
06:53:50/04-Jul-2009       947.2513        15.8700        -999.25        14.2727        55.3233        99.4140        10.9022         5.9426       143.0000        -999.25      3447.2410        78.0000         0.0000        78.0000       147.0588        -999.25      3085.9380        -999.25         0.0000         0.0000         0.0000
06:54:00/04-Jul-2009       947.3427        -999.25       219.2902        14.1786         6.2297        97.0117        12.6964         6.4282       144.0000        -999.25      3447.2410        78.0000         0.0000        78.0000       151.8742        -999.25        -999.25        -999.25        -999.25        -999.25        -999.25
06:54:10/04-Jul-2009       947.3922        -999.25        -999.25        14.1297        22.6385        98.7244        11.4510         8.4507       144.0000        -999.25      3447.2410        78.0000         0.0000        78.0000       151.9793         0.0000        -999.25        -999.25        -999.25        -999.25        -999.25
06:54:20/04-Jul-2009       947.4589        16.1667        -999.25        14.0629        22.7821        98.5820        11.5487         5.9704       144.0000        -999.25      3447.2410        78.0000         0.0000        78.0000       151.0125        -999.25        -999.25        -999.25         0.0000         0.0000         0.0000
06:54:30/04-Jul-2009       947.5229        -999.25        -999.25        13.9991        22.9301        98.4992        11.6834         6.7176       143.0000        -999.25      3447.2410        78.0000         0.0000        78.0000       149.5298        -999.25      3125.0000        -999.25        -999.25        -999.25        -999.25
06:54:40/04-Jul-2009       947.5833        -999.25       213.2546        13.9388        22.8060        98.4105        11.7598         7.1588       143.0000        -999.25      3447.2410        78.0000         0.0000        78.0000       151.6086        -999.25        -999.25        -999.25        -999.25        -999.25        -999.25
06:54:50/04-Jul-2009       947.6499        16.6135        -999.25        13.8721        22.8953        98.2914        11.8723         7.1216       143.0000        -999.25      3447.2410        78.0000         0.0000        78.0000       151.9762         0.0000        -999.25        -999.25        -999.25        -999.25        -999.25
06:55:00/04-Jul-2009       947.7146        -999.25        -999.25        13.8074        24.5707        98.4806        11.8425         6.9150       144.0000        -999.25      3447.2410        78.0000         0.0000        78.0000       149.9530        -999.25        -999.25        -999.25         0.0000         0.0000         0.0000
06:55:10/04-Jul-2009       947.7800        17.1671        -999.25        13.7420        24.8601        98.1258        12.1114         7.0449       144.0000        -999.25      3447.2410        78.0000         0.0000        78.0000       152.0874        -999.25      3125.0000        -999.25        -999.25        -999.25        -999.25
06:55:20/04-Jul-2009       947.8524        -999.25       213.2546        13.6698        24.7448        98.3316        11.9022         6.6269       143.0000        -999.25      3447.2410        78.0000         0.0000        78.0000       149.9221        -999.25        -999.25        -999.25        -999.25        -999.25        -999.25
06:55:30/04-Jul-2009       947.9214        18.2822        -999.25        13.6005        24.7557        98.4104        11.6877         6.9614       144.0000        -999.25      3447.2410        78.0000         0.0000        78.0000       147.8217         0.0000        -999.25        -999.25        -999.25        -999.25        -999.25
06:55:40/04-Jul-2009       947.9875        -999.25        -999.25        13.5345        24.7927        98.4709        11.6936         7.5257       144.0000        30.0000      3447.2410        78.0000         0.0000        78.0000       149.5731        -999.25      3125.0000        -999.25         0.0000         0.0000         0.0000
06:55:50/04-Jul-2009       948.0606        19.3428       231.3612        13.4616        25.0690        98.6812        11.5125         7.4811       144.0000        -999.25      3447.2410        78.0000         0.0000        78.0000       149.9653        -999.25        -999.25        -999.25        -999.25        -999.25        -999.25
