~Version Information
VERS.             2.0 : CWLS log ASCII standard - Version 2.0
WRAP.             NO  : One line per depth step
#
~Well Information Block
#MNEM.UNIT                   Data Type:Information
#__________________________________________________________
  STRT.           21-SEP-2007 06:00:00 : START INDEX                   
  STOP.           21-SEP-2007 18:00:00 : STOP INDEX                    
  STEP.SEC           10.0000 : STEP                          
  NULL.              -999.25 : NULL VALUE                    
  COMP.              Statoil : COMPANY                       
  WELL.              15/9-F7 : WELL                          
   FLD.                Volve : FIELD                         
   LOC.                      : LOCATION                      
  PROV.                      : PROVINCE                      
  CNTY.                      : COUNTY                        
  STAT.                      : STATE                         
  CTRY.               Norway : COUNTRY                       
  SRVC.           Schlumberger : SERVICE COMPANY               
  DATE.           21-SEP-2007 04:03:39 : LOG DATE                      
   UWI.                      : UNIQUE WELL ID                
   API.                      : API NUMBER                    
#
~Curve Information Block
#MNEM.UNIT                     : Curve Description
#---------                     --------------------
TIME	    .HHMMSS	       : 
DATE	    .D		       : 
DEPT        .M                 : Bit Depth 2hz                                                   
ROP5        .M/HR              : 5ft ROP 2hz                                                     
BPOS        .M                 : Block Position 2hz                                              
BVEL        .M/S               : Block Velocity 2hz                                              
SWOB        .KKGF              : Surface Weight on Bit 2hz                                       
HKLD        .KKGF              : Measured Hookload 2hz                                           
TQA         .KMN               : SRF STOR 2hz                                                    
RPM         .RPM               : SRF SRPM 2hz                                                    
INCL_CONT_RT.DEG               : MWD Cont Inc 2hz                                                
Stick_RT    .RPM               : MWD PKtoPK RPM 2hz                                              
CRPM_RT     .RPM               : MWD CRPM 2hz                                                    
TFLO        .LPM               : HSPM Total Pump Flow 2hz                                        
TRPM_RT     .RPM               : MWD TUR_RPM 2hz                                                 
SPPA        .BAR               : SRF PUMPRS 2hz                                                  
SHKRSK_RT   .----              : MWD SHKRSK 2hz                                                  
SHKPK_RT    .G                 : MWD SHK_PK 2hz                                                  
GR          .GAPI              : MWD GR(TM) 2hz                                                  
#
~Parameter Information Block
#MNEM.UNIT                       Value:Description
#__________________________________________________________
#
~Other Information Block

#
~A TIME       DATE       DEPT       ROP5       BPOS       BVEL       SWOB       HKLD        TQA        RPM INCL_CONT_RT   Stick_RT    CRPM_RT       TFLO    TRPM_RT       SPPA  SHKRSK_RT   SHKPK_RT       GR
06:00:09 21-Sep-07    143.664     80.662      7.442      0.024      8.004     90.144      0.017      0.000      -999.25    -999.25    -999.25      0.000    -999.25      3.021    -999.25    -999.25    -999.25
06:00:19 21-Sep-07    143.878     83.520      7.228      0.024      7.993     90.155      0.017      0.000      -999.25    -999.25    -999.25      0.000    -999.25      3.020    -999.25    -999.25    -999.25
06:00:29 21-Sep-07    144.162     84.851      6.944      0.024      8.010     90.138      0.018      0.000      -999.25    -999.25    -999.25      0.000    -999.25      3.011    -999.25    -999.25    -999.25
06:00:39 21-Sep-07    144.376     85.431      6.730      0.024      8.102     90.046      0.013      0.000      -999.25    -999.25    -999.25      0.000    -999.25      3.015    -999.25    -999.25    -999.25
06:00:49 21-Sep-07    144.597     85.444      6.510      0.024      8.023     90.124      0.019      0.000      -999.25    -999.25    -999.25      0.000    -999.25      3.019    -999.25    -999.25    -999.25
06:00:59 21-Sep-07    144.905     86.708      6.201      0.026      8.030     90.117      0.019      0.000      -999.25    -999.25    -999.25      0.000    -999.25      3.010    -999.25    -999.25    -999.25
06:01:09 21-Sep-07    145.151     88.465      5.956      0.027      7.993     90.155      0.016      0.000      -999.25    -999.25    -999.25      0.000    -999.25      3.016    -999.25    -999.25    -999.25
06:01:19 21-Sep-07    145.424     92.286      5.684      0.029      7.983     90.165      0.016      0.000      -999.25    -999.25    -999.25      0.000    -999.25      3.023    -999.25    -999.25    -999.25
06:01:29 21-Sep-07    145.819     98.245      5.288      0.033      8.045     90.103      0.019      0.000      -999.25    -999.25    -999.25      0.000    -999.25      3.013    -999.25    -999.25    -999.25
06:01:39 21-Sep-07    146.117    104.991      4.991      0.033      8.037     90.110      0.012      0.000      -999.25    -999.25    -999.25      0.000    -999.25      3.011    -999.25    -999.25    -999.25
06:01:49 21-Sep-07    146.414    110.744      4.694      0.033      8.039     90.109      0.019      0.000      -999.25    -999.25    -999.25      0.000    -999.25      3.010    -999.25    -999.25    -999.25
06:01:59 21-Sep-07    146.810    117.950      4.298      0.033      8.006     90.142      0.019      0.000      -999.25    -999.25    -999.25      0.000    -999.25      3.008    -999.25    -999.25    -999.25
06:02:09 21-Sep-07    147.108    118.833      4.000      0.033      7.978     90.170      0.016      0.000      -999.25    -999.25    -999.25      0.000    -999.25      3.010    -999.25    -999.25    -999.25
06:02:19 21-Sep-07    147.405    118.905      3.703      0.033      7.991     90.157      0.016      0.000      -999.25    -999.25    -999.25      0.000    -999.25      3.003    -999.25    -999.25    -999.25
06:02:29 21-Sep-07    147.802    118.949      3.306      0.033      8.024     90.124      0.019      0.000      -999.25    -999.25    -999.25      0.000    -999.25      3.009    -999.25    -999.25    -999.25
06:02:39 21-Sep-07    148.099    118.964      3.009      0.033      8.027     90.120      0.011      0.000      -999.25    -999.25    -999.25      0.000    -999.25      3.023    -999.25    -999.25    -999.25
06:02:49 21-Sep-07    148.396    118.958      2.712      0.033      7.986     90.162      0.011      0.000      -999.25    -999.25    -999.25      0.000    -999.25      3.012    -999.25    -999.25    -999.25
06:02:59 21-Sep-07    148.792    118.915      2.315      0.033      7.999     90.148      0.022      0.000      -999.25    -999.25    -999.25      0.000    -999.25      3.007    -999.25    -999.25    -999.25
06:03:09 21-Sep-07    149.090    118.957      2.018      0.033      8.052     90.096      0.016      0.000      -999.25    -999.25    -999.25      0.000    -999.25      3.030    -999.25    -999.25    -999.25
06:03:19 21-Sep-07    149.216    118.944      1.885      0.027      9.016     89.132      0.019      0.000      -999.25    -999.25    -999.25      0.000    -999.25      3.051    -999.25    -999.25    -999.25
06:03:29 21-Sep-07    149.248    118.944      1.861      0.000      7.718     90.430      0.019      0.000      -999.25    -999.25    -999.25      0.000    -999.25      3.036    -999.25    -999.25    -999.25
06:03:39 21-Sep-07    149.418     84.332      1.684      0.017      8.572     89.576      0.019      0.000      -999.25    -999.25    -999.25      0.000    -999.25      3.037    -999.25    -999.25    -999.25
06:03:49 21-Sep-07    149.483     84.332      1.520      0.014      0.000     65.669      0.019      0.000      -999.25    -999.25    -999.25      0.000    -999.25      3.055    -999.25    -999.25    -999.25
06:03:59 21-Sep-07    149.483     84.332      1.464      0.000      0.000     65.998      0.019      0.000      -999.25    -999.25    -999.25      0.000    -999.25      3.054    -999.25    -999.25    -999.25
06:04:09 21-Sep-07    149.483     84.332      1.464      0.000      0.000     66.064      0.013      0.000      -999.25    -999.25    -999.25      0.000    -999.25      3.058    -999.25    -999.25    -999.25
06:04:19 21-Sep-07    149.483     84.332      1.464      0.000      0.000     66.040      0.015      0.000      -999.25    -999.25    -999.25      0.000    -999.25      3.057    -999.25    -999.25    -999.25
06:04:29 21-Sep-07    149.483     84.332      1.463      0.000      0.000     66.217      0.015      0.000      -999.25    -999.25    -999.25      0.000    -999.25      3.060    -999.25    -999.25    -999.25
06:04:39 21-Sep-07    149.483     84.332      1.492      0.000      0.000     64.848      0.019      0.000      -999.25    -999.25    -999.25      0.000    -999.25      3.037    -999.25    -999.25    -999.25
06:04:49 21-Sep-07    149.483     84.332      4.082      0.000      0.000     63.815      0.019      0.000      -999.25    -999.25    -999.25      0.000    -999.25      2.770    -999.25    -999.25    -999.25
06:04:59 21-Sep-07    149.483     84.332     12.792      0.000      0.000     63.683      0.017      0.000      -999.25    -999.25    -999.25      0.000    -999.25      2.761    -999.25    -999.25    -999.25
06:05:09 21-Sep-07    149.483     84.332     19.334      0.000      0.000     62.917      0.013      0.000      -999.25    -999.25    -999.25      0.000    -999.25      2.809    -999.25    -999.25    -999.25
06:05:19 21-Sep-07    149.483     84.332     25.826      0.000      0.000     63.445      0.013      0.000      -999.25    -999.25    -999.25      0.000    -999.25      2.878    -999.25    -999.25    -999.25
06:05:29 21-Sep-07    149.483     84.332     34.858      0.000      0.000     63.177      0.018      0.000      -999.25    -999.25    -999.25      0.000    -999.25      2.979    -999.25    -999.25    -999.25
06:05:39 21-Sep-07    149.483     84.332     38.181      0.000      0.000     64.801      0.010      0.000      -999.25    -999.25    -999.25      0.000    -999.25      3.376    -999.25    -999.25    -999.25
06:05:49 21-Sep-07    149.483     84.332     38.340      0.000      0.000     63.945      0.019      0.000      -999.25    -999.25    -999.25      0.000    -999.25      3.350    -999.25    -999.25    -999.25
06:05:59 21-Sep-07    149.483     84.332     38.800      0.000      0.000     64.847      0.019      0.000      -999.25    -999.25    -999.25      0.000    -999.25      3.384    -999.25    -999.25    -999.25
06:06:09 21-Sep-07    149.483     84.332     38.800      0.000      0.000     63.892      0.019      0.000      -999.25    -999.25    -999.25      0.000    -999.25      3.379    -999.25    -999.25    -999.25
06:06:19 21-Sep-07    149.483     84.332     38.800      0.000      0.000     64.166      0.019      0.000      -999.25    -999.25    -999.25      0.000    -999.25      3.389    -999.25    -999.25    -999.25
06:06:29 21-Sep-07    149.483     84.332     38.799      0.000      0.000     64.269      0.019      0.000      -999.25    -999.25    -999.25      0.000    -999.25      3.387    -999.25    -999.25    -999.25
