~VERSION INFORMATION 
VERS  .    2.0                                     :CWLS Log ASCII Standard - VERSION2.0
WRAP  .    NO                                      :One Line per Time step
DLM   .    SPACE                                   :Column Data section Delimiter
PROD  .    Schlumberger Technology Corp.           :LAS Producer
PROG  .    Horizon LASWriter 1.1.8606.0            :LAS Program name and version
CREA  .    08/18/2009                              :LAS Creation date {MM/DD/YYYY}
#--------------------------------------------------
~WELL INFORMATION 
#MNEM           .UNIT                      DATA            :DESCRIPTION
#----            ------          --------------            -----------------------------
 STRT           .S               04:00:00/03-Jul-2009  :START TIME                          
 STOP           .S               11:00:00/04-Jul-2009  :STOP TIME                          
 STEP           .S                           0.00000       :STEP
NULL            .                       -999.25            :NULL VALUE
COMP            .                  StatoilHydro            :COMPANY
WELL            .                    15/9-F-9 A            :WELL NAME
FLD             .                         Volve            :FIELD NAME
RIGN            .                Maersk Inspirer           :Rig Name
RIGTYP          .                       Jack-up            :Rig Type
SON             .                     09SCA0196            :Service Order Number
SRVC            .                  Schlumberger            :SERVICE COMPANY
DATE            .                    07/03/2009            :LOG DATE{MM/DD/YYYY} (Composite Date for Composite LAP)
CLAB            .                       County:            :County Label
CNTY            .                       -999.25            :COUNTY
SLAB            .                       -999.25            :State/Province Label
STAT            .                       -999.25            :STATE or PROVINCE
PROV            .                       -999.25            :STATE or PROVINCE
CTRY            .                        Norway            :COUNTRY
CONT_REGION     .                        Europe            :Continent Region
SECT            .                       -999.25            :Section
TOWN            .                       -999.25            :Township
RANG            .                       -999.25            :Range
API             .                       -999.25            :API NUMBER
UWI             .                       -999.25            :UNIQUE WELL ID
LUL             .                  Weather Deck            :Logging Unit Location
LUN             .                Geoservices: 1010567      :Logging Unit Number
LOC             .                Norwegian North Sea       :FIELD LOCATION
FL1             .                Section: 12 1/4 in.       :Field Location Line 1
FL2             .                Job no.: 09SCA0196        :Field Location Line 2
LATI            .                58° 26' 29.74" N          :LATITUDE
LONG            .                  1° 53' 15" E            :LONGITUDE
PDAT            .                           MSL            :Local Permanent Datum
LMF             .                            DF            :Logging Measured From
APD             .M                      54.9000            :Elevation of Depth Reference (LMF) Above Permanent Datum
EPD             .M                       0.0000            :Elevation of Permanent Datum (PDAT) above Mean Sea Level
EKB             .M                      -999.25            :Elevation of Kelly Bushing Above Permanent Datum
EDF             .M                      54.9000            :Elevation of Drill Floor Above Permanent Datum
EGL             .M                     -91.0000            :Elevation of Ground Level Above Permanent Datum
ECF             .M                      -999.25            :Elevation of Casing Flange above Permanent Datum
#--------------------------------------------------
~CURVE INFORMATION
#MNEM           .UNIT                  API CODE            :DESCRIPTION
#----            ------          --------------            ----------------------------------------
 TIME           .S                                         :                                          Time Index(hh:mm  :ss/dd-MMM-yyyy)
DEPTH           .M                                         :(RT)    (DnMWorkflow)           (1)       Depth Index
ROP5            .M/HR                                      :(RT)                            (1)       Rate of penetration averaged over the last 5 ft (1.5 m)
GR              .GAPI                                      :(RT)    (TELE825-IWOB)          (1)       Gamma Ray
BLKP            .M                                         :(RT)                            (1)       Height of block above rig floor
PVEL            .M/HR                                      :(RT)                            (1)       Pipe Velocity
HKLA            .KKGF                                      :(RT)                            (1)       Average Hookload
SWOB            .KKGF                                      :(RT)                            (1)       Surface Weight On Bit
STOR            .kN.m                                      :(RT)                            (1)       Surface Torque
RPM             .RPM                                       :(RT)                            (1)       Rotational Speed
STICK           .RPM                                       :(RM)    (TELE825-IWOB)          (1)       Stick Slip Indicator
TFLO            .LPM                                       :(RT)                            (1)       Total flow rate of all active pumps
SPM1            .SD/M                                      :(RT)                            (1)       Pump 1 Stroke Rate
SPM2            .SD/M                                      :(RT)                            (1)       Pump 2 Stroke Rate
SPM3            .SD/M                                      :(RT)                            (1)       Pump 3 Stroke Rate
SPPA            .BAR                                       :(RT)                            (1)       Standpipe Pressure
AJAM            .                                          :(RT)    (TELE825-IWOB)          (1)       Number of Anti-Jams Detected
TRPM            .RPM                                       :(RT)    (TELE825-IWOB)          (1)       MWD Turbine Rotation Speed
SHKL            .                                          :(RT)    (TELE825-IWOB)          (1)       Tool Shock Level
SHKPK           .M/S2                                      :(RT)    (TELE825-IWOB)          (1)       Shock Peak
SHKR            .CPS                                       :(RT)    (TELE825-IWOB)          (1)       Shock Rate
SHKRSK          .                                          :(RT)    (TELE825-IWOB)          (1)       Shock Risk
#-------------------------------------------------------------
#          TIME          DEPTH           ROP5             GR           BLKP           PVEL           HKLA           SWOB           STOR            RPM          STICK           TFLO           SPM1           SPM2           SPM3           SPPA           AJAM           TRPM           SHKL          SHKPK           SHKR         SHKRSK 
#                 (DnMWorkflow)                 (TELE825-IWO)                                                                                            (TELE825-IWO)                                                                             (TELE825-IWO)  (TELE825-IWO)  (TELE825-IWO)  (TELE825-IWO)  (TELE825-IWO)  (TELE825-IWO)
#                           (1)            (1)            (1)            (1)            (1)            (1)            (1)            (1)            (1)            (1)            (1)            (1)            (1)            (1)            (1)            (1)            (1)            (1)            (1)            (1)            (1)
#                          (RT)           (RT)           (RT)           (RT)           (RT)           (RT)           (RT)           (RT)           (RT)           (RM)           (RT)           (RT)           (RT)           (RT)           (RT)           (RT)           (RT)           (RT)           (RT)           (RT)           (RT)
~ASCII 
# ...
02:48:00/04-Jul-2009       885.9526        -999.25        -999.25        35.4930        26.9229        87.6421        21.5643         2.2768       104.0000        -999.25      3447.2410        78.0000         0.0000        78.0000       155.3739        -999.25        -999.25        -999.25        -999.25        -999.25        -999.25
02:48:10/04-Jul-2009       886.0281        29.8214        -999.25        35.4175        27.2210        87.5926        21.8036         2.2066       104.0000        -999.25      3447.2410        78.0000         0.0000        78.0000       155.6797         0.0000      3125.0000        -999.25        -999.25        -999.25        -999.25
02:48:20/04-Jul-2009       886.0951        -999.25       251.4795        35.3502        26.9991        87.2066        22.0763         2.2137       104.0000        -999.25      3447.2410        78.0000         0.0000        78.0000       153.0511        -999.25        -999.25        -999.25         0.0000         0.0000         0.0000
02:48:30/04-Jul-2009       886.1707        -999.25        -999.25        35.2749        27.0818        87.3039        22.0012         2.1992       104.0000        -999.25      3447.2410        78.0000         0.0000        78.0000       156.3376        -999.25        -999.25        -999.25        -999.25        -999.25        -999.25
02:48:40/04-Jul-2009       886.2356        29.1877        -999.25        35.2104        23.5785        87.6501        21.4818         2.2217       104.0000        -999.25      3447.2410        78.0000         0.0000        78.0000       155.6920        -999.25        -999.25        -999.25        -999.25        -999.25        -999.25
02:48:50/04-Jul-2009       886.3013        -999.25        -999.25        35.1447        24.6469        88.0922        21.1419         2.2715       104.0000        -999.25      3447.2410        78.0000         0.0000        78.0000       156.4611        -999.25        -999.25        -999.25        -999.25        -999.25        -999.25
02:49:00/04-Jul-2009       886.3768        28.6839        -999.25        35.0687        26.6401        88.1949        21.1207         2.2663       104.0000        -999.25      3447.2410        78.0000         0.0000        78.0000       155.8218         0.0000      3085.9380        -999.25         0.0000         0.0000         0.0000
02:49:10/04-Jul-2009       886.4473        -999.25       247.4559        34.9983        24.4968        88.4114        20.9485         2.1743       104.0000        -999.25      3447.2410        78.0000         0.0000        78.0000       154.4410        -999.25        -999.25        -999.25        -999.25        -999.25        -999.25
02:49:20/04-Jul-2009       886.5137        28.1717        -999.25        34.9324        25.7653        88.0580        21.2846         2.2203       104.0000        -999.25      3447.2410        78.0000         0.0000        78.0000       155.8743        -999.25        -999.25        -999.25        -999.25        -999.25        -999.25
02:49:30/04-Jul-2009       886.5822        -999.25        -999.25        34.8632        22.6342        87.6173        21.5450         2.2061       104.0000        -999.25      3447.2410        78.0000         0.0000        78.0000       155.2410        -999.25        -999.25        -999.25        -999.25        -999.25        -999.25
02:49:40/04-Jul-2009       886.6503        27.4848        -999.25        34.7950        26.1026        87.7646        21.6853         2.2339       104.0000         0.0000      3447.2410        78.0000         0.0000        78.0000       156.8503        -999.25        -999.25        -999.25        -999.25        -999.25        -999.25
02:49:50/04-Jul-2009       886.7128        -999.25        -999.25        34.7332        23.0062        87.6903        21.6197         2.2788       104.0000        -999.25      3447.2410        78.0000         0.0000        78.0000       155.3028         0.0000      3125.0000        -999.25         0.0000         0.0000         0.0000
02:50:00/04-Jul-2009       886.7830        26.7781       217.2783        34.6624        23.5198        87.6620        21.5567         2.2365       104.0000        -999.25      3447.2410        78.0000         0.0000        78.0000       154.5615        -999.25        -999.25        -999.25        -999.25        -999.25        -999.25
02:50:10/04-Jul-2009       886.8480        -999.25        -999.25        34.5972        22.4492        88.0173        21.2742         2.2365       104.0000        -999.25      3447.2410        78.0000         0.0000        78.0000       153.4403        -999.25        -999.25        -999.25        -999.25        -999.25        -999.25
02:50:20/04-Jul-2009       886.9147        -999.25        -999.25        34.5310        26.3028        87.9997        21.3574         2.2322       104.0000        -999.25      3447.2410        78.0000         0.0000        78.0000       156.8534        -999.25        -999.25        -999.25        -999.25        -999.25        -999.25
02:50:30/04-Jul-2009       886.9831        26.1995        -999.25        34.4632        23.6590        87.6748        21.5588         2.2668       104.0000        -999.25      3447.2410        78.0000         0.0000        78.0000       152.6248         0.0000        -999.25        -999.25        -999.25        -999.25        -999.25
02:50:40/04-Jul-2009       887.0505        -999.25        -999.25        34.3953        22.6341        88.0321        21.0150         2.2349       104.0000        -999.25      3447.2410        78.0000         0.0000        78.0000       154.1538        -999.25      3125.0000        -999.25         0.0000         0.0000         0.0000
02:50:50/04-Jul-2009       887.1110        25.5947       249.4677        34.3346        24.5903        88.4010        20.9106         2.2241       104.0000        -999.25      3447.2410        78.0000         0.0000        78.0000       156.0565        -999.25        -999.25        -999.25        -999.25        -999.25        -999.25
02:51:00/04-Jul-2009       887.1907        -999.25        -999.25        34.2545        26.9099        87.6826        21.5910         2.2273       104.0000        -999.25      3447.2410        78.0000         0.0000        78.0000       153.8171        -999.25        -999.25        -999.25        -999.25        -999.25        -999.25
02:51:10/04-Jul-2009       887.2513        25.1158        -999.25        34.1940        20.3516        88.2065        21.0270         2.2086       104.0000        -999.25      3447.2410        78.0000         0.0000        78.0000       154.7159        -999.25        -999.25        -999.25        -999.25        -999.25        -999.25
02:51:20/04-Jul-2009       887.3157        -999.25        -999.25        34.1296        22.6124        88.0144        21.3330         2.2540       104.0000        -999.25      3447.2410        78.0000         0.0000        78.0000       154.6635         0.0000      3125.0000        -999.25        -999.25        -999.25        -999.25
02:51:30/04-Jul-2009       887.3823        -999.25       245.4440        34.0634        23.8440        88.3861        20.8374         2.2882       104.0000        -999.25      3447.2410        78.0000         0.0000        78.0000       155.5160        -999.25        -999.25        -999.25         0.0000         0.0000         0.0000
02:51:40/04-Jul-2009       887.4512        24.6039        -999.25        33.9947        24.4619        88.8494        20.3091         2.2189       104.0000         0.0000      3447.2410        78.0000         0.0000        78.0000       155.1577        -999.25        -999.25        -999.25        -999.25        -999.25        -999.25
02:51:50/04-Jul-2009       887.5190        -999.25        -999.25        33.9271        25.3932        88.9762        20.3602         2.2207       104.0000        -999.25      3447.2410        78.0000         0.0000        78.0000       152.3437        -999.25        -999.25        -999.25        -999.25        -999.25        -999.25
