~VERSION INFORMATION 
VERS  .    2.0                                     :CWLS Log ASCII Standard - VERSION2.0
WRAP  .    NO                                      :One Line per Time step
DLM   .    SPACE                                   :Column Data section Delimiter
PROD  .    Schlumberger Technology Corp.           :LAS Producer
PROG  .    Horizon LASWriter 1.1.8606.0            :LAS Program name and version
CREA  .    08/18/2009                              :LAS Creation date {MM/DD/YYYY}
#--------------------------------------------------
~WELL INFORMATION 
#MNEM           .UNIT                      DATA            :DESCRIPTION
#----            ------          --------------            -----------------------------
 STRT           .S               04:00:00/03-Jul-2009  :START TIME                          
 STOP           .S               11:00:00/04-Jul-2009  :STOP TIME                          
 STEP           .S                           0.00000       :STEP
NULL            .                       -999.25            :NULL VALUE
COMP            .                  StatoilHydro            :COMPANY
WELL            .                    15/9-F-9 A            :WELL NAME
FLD             .                         Volve            :FIELD NAME
RIGN            .                Maersk Inspirer           :Rig Name
RIGTYP          .                       Jack-up            :Rig Type
SON             .                     09SCA0196            :Service Order Number
SRVC            .                  Schlumberger            :SERVICE COMPANY
DATE            .                    07/03/2009            :LOG DATE{MM/DD/YYYY} (Composite Date for Composite LAP)
CLAB            .                       County:            :County Label
CNTY            .                       -999.25            :COUNTY
SLAB            .                       -999.25            :State/Province Label
STAT            .                       -999.25            :STATE or PROVINCE
PROV            .                       -999.25            :STATE or PROVINCE
CTRY            .                        Norway            :COUNTRY
CONT_REGION     .                        Europe            :Continent Region
SECT            .                       -999.25            :Section
TOWN            .                       -999.25            :Township
RANG            .                       -999.25            :Range
API             .                       -999.25            :API NUMBER
UWI             .                       -999.25            :UNIQUE WELL ID
LUL             .                  Weather Deck            :Logging Unit Location
LUN             .                Geoservices: 1010567      :Logging Unit Number
LOC             .                Norwegian North Sea       :FIELD LOCATION
FL1             .                Section: 12 1/4 in.       :Field Location Line 1
FL2             .                Job no.: 09SCA0196        :Field Location Line 2
LATI            .                58° 26' 29.74" N          :LATITUDE
LONG            .                  1° 53' 15" E            :LONGITUDE
PDAT            .                           MSL            :Local Permanent Datum
LMF             .                            DF            :Logging Measured From
APD             .M                      54.9000            :Elevation of Depth Reference (LMF) Above Permanent Datum
EPD             .M                       0.0000            :Elevation of Permanent Datum (PDAT) above Mean Sea Level
EKB             .M                      -999.25            :Elevation of Kelly Bushing Above Permanent Datum
EDF             .M                      54.9000            :Elevation of Drill Floor Above Permanent Datum
EGL             .M                     -91.0000            :Elevation of Ground Level Above Permanent Datum
ECF             .M                      -999.25            :Elevation of Casing Flange above Permanent Datum
#--------------------------------------------------
~CURVE INFORMATION
#MNEM           .UNIT                  API CODE            :DESCRIPTION
#----            ------          --------------            ----------------------------------------
 TIME           .S                                         :                                          Time Index(hh:mm  :ss/dd-MMM-yyyy)
DEPTH           .M                                         :(RT)    (DnMWorkflow)           (1)       Depth Index
ROP5            .M/HR                                      :(RT)                            (1)       Rate of penetration averaged over the last 5 ft (1.5 m)
GR              .GAPI                                      :(RT)    (TELE825-IWOB)          (1)       Gamma Ray
BLKP            .M                                         :(RT)                            (1)       Height of block above rig floor
PVEL            .M/HR                                      :(RT)                            (1)       Pipe Velocity
HKLA            .KKGF                                      :(RT)                            (1)       Average Hookload
SWOB            .KKGF                                      :(RT)                            (1)       Surface Weight On Bit
STOR            .kN.m                                      :(RT)                            (1)       Surface Torque
RPM             .RPM                                       :(RT)                            (1)       Rotational Speed
STICK           .RPM                                       :(RM)    (TELE825-IWOB)          (1)       Stick Slip Indicator
TFLO            .LPM                                       :(RT)                            (1)       Total flow rate of all active pumps
SPM1            .SD/M                                      :(RT)                            (1)       Pump 1 Stroke Rate
SPM2            .SD/M                                      :(RT)                            (1)       Pump 2 Stroke Rate
SPM3            .SD/M                                      :(RT)                            (1)       Pump 3 Stroke Rate
SPPA            .BAR                                       :(RT)                            (1)       Standpipe Pressure
AJAM            .                                          :(RT)    (TELE825-IWOB)          (1)       Number of Anti-Jams Detected
TRPM            .RPM                                       :(RT)    (TELE825-IWOB)          (1)       MWD Turbine Rotation Speed
SHKL            .                                          :(RT)    (TELE825-IWOB)          (1)       Tool Shock Level
SHKPK           .M/S2                                      :(RT)    (TELE825-IWOB)          (1)       Shock Peak
SHKR            .CPS                                       :(RT)    (TELE825-IWOB)          (1)       Shock Rate
SHKRSK          .                                          :(RT)    (TELE825-IWOB)          (1)       Shock Risk
#-------------------------------------------------------------
#          TIME          DEPTH           ROP5             GR           BLKP           PVEL           HKLA           SWOB           STOR            RPM          STICK           TFLO           SPM1           SPM2           SPM3           SPPA           AJAM           TRPM           SHKL          SHKPK           SHKR         SHKRSK 
#                 (DnMWorkflow)                 (TELE825-IWO)                                                                                            (TELE825-IWO)                                                                             (TELE825-IWO)  (TELE825-IWO)  (TELE825-IWO)  (TELE825-IWO)  (TELE825-IWO)  (TELE825-IWO)
#                           (1)            (1)            (1)            (1)            (1)            (1)            (1)            (1)            (1)            (1)            (1)            (1)            (1)            (1)            (1)            (1)            (1)            (1)            (1)            (1)            (1)
#                          (RT)           (RT)           (RT)           (RT)           (RT)           (RT)           (RT)           (RT)           (RT)           (RM)           (RT)           (RT)           (RT)           (RT)           (RT)           (RT)           (RT)           (RT)           (RT)           (RT)           (RT)
~ASCII 
# ...
08:04:00/03-Jul-2009       511.0830        50.0901        -999.25        11.3432        49.9292        97.2361         2.6862         4.3009       126.0000        -999.25      2961.0920        67.0000         0.0000        67.0000        98.3975         0.0000        -999.25        -999.25        -999.25        -999.25        -999.25
08:04:10/03-Jul-2009       511.2151        -999.25        -999.25        11.2110        49.7801        97.1718         2.8460         3.5705       126.0000        -999.25      2961.0920        67.0000         0.0000        67.0000        99.7813        -999.25        -999.25        -999.25        -999.25        -999.25        -999.25
08:04:20/03-Jul-2009       511.3610        50.0787        -999.25        11.0650        49.9215        97.2514         2.6858         3.7611       127.0000        -999.25      2961.0920        67.0000         0.0000        67.0000       102.2060        -999.25      2578.1250        -999.25         0.0000         0.0000         0.0000
08:04:30/03-Jul-2009       511.5001        50.0722       203.1955        10.9259        49.7624        97.3186         2.6837         3.4853       126.0000        -999.25      2961.0920        67.0000         0.0000        67.0000       104.0995        -999.25        -999.25        -999.25        -999.25        -999.25        -999.25
08:04:40/03-Jul-2009       511.6325        50.0761        -999.25        10.7938        49.7701        97.0358         2.9383         3.5160       126.0000        -999.25      2961.0920        67.0000         0.0000        67.0000       100.8346         0.0000        -999.25        -999.25        -999.25        -999.25        -999.25
08:04:50/03-Jul-2009       511.7784        50.0796        -999.25        10.6476        50.1951        97.0591         2.8952         3.0943       126.0000        -999.25      2961.0920        67.0000         0.0000        67.0000       101.4771        -999.25        -999.25        -999.25         0.0000         0.0000         0.0000
08:05:00/03-Jul-2009       511.9175        50.0790        -999.25        10.5084        50.1766        97.0872         3.0701         3.6845       126.0000        -999.25      2961.0920        67.0000         0.0000        67.0000       101.5975        -999.25      2578.1250        -999.25        -999.25        -999.25        -999.25
08:05:10/03-Jul-2009       512.0500        50.0786       213.2546        10.3763        49.7885        97.0967         2.8990         4.1187       126.0000        -999.25      2961.0920        67.0000         0.0000        67.0000       103.6763        -999.25        -999.25        -999.25        -999.25        -999.25        -999.25
08:05:20/03-Jul-2009       512.1956        50.0687        -999.25        10.2305        49.8516        97.0898         2.8907         3.8449       126.0000        -999.25      2961.0920        67.0000         0.0000        67.0000        99.6485         0.0000        -999.25        -999.25        -999.25        -999.25        -999.25
08:05:30/03-Jul-2009       512.3344        50.0643        -999.25        10.0918        49.6118        97.0206         2.9894         3.9685       126.0000        -999.25      2961.0920        67.0000         0.0000        67.0000       102.4346        -999.25        -999.25        -999.25         0.0000         0.0000         0.0000
08:05:40/03-Jul-2009       512.4650        -999.25        -999.25         9.9609        48.9049        96.5294         3.4256         3.5375       126.0000        12.0000      2961.0920        67.0000         0.0000        67.0000       102.4717        -999.25      2578.1250        -999.25        -999.25        -999.25        -999.25
08:05:50/03-Jul-2009       512.4900        -999.25       213.2546         9.9330         0.0000        98.2251         1.6712         3.5982       127.0000        -999.25      2961.0920        67.0000         0.0000        67.0000       102.5829        -999.25        -999.25        -999.25        -999.25        -999.25        -999.25
08:06:00/03-Jul-2009       512.4897        -999.25        -999.25         9.9333         0.0000        99.1624         0.7745         2.0184       126.0000        -999.25      2961.0920        67.0000         0.0000        67.0000        97.2670         0.0000        -999.25        -999.25        -999.25        -999.25        -999.25
08:06:10/03-Jul-2009       512.4897        -999.25        -999.25         9.9333         0.0000        99.4166         0.5954         1.7353       127.0000        -999.25      2961.0920        67.0000         0.0000        67.0000        95.8956        -999.25      2539.0630        -999.25         0.0000         0.0000         0.0000
08:06:20/03-Jul-2009       512.4516        -999.25       207.2191         9.9689       -32.1334        99.7096         0.1024         1.2316       126.0000        -999.25      2961.0920        67.0000         0.0000        67.0000        96.3280        -999.25        -999.25        -999.25        -999.25        -999.25        -999.25
08:06:30/03-Jul-2009       512.2619        -999.25        -999.25        10.1559       -69.5462       100.7344        -0.3136         2.2247       126.0000        -999.25      2961.0920        67.0000         0.0000        67.0000        97.6500         0.0000        -999.25        -999.25        -999.25        -999.25        -999.25
08:06:40/03-Jul-2009       512.0419        -999.25        -999.25        10.3759       -82.9958       100.5735        -0.5468         1.6149       127.0000        -999.25      2961.0920        67.0000         0.0000        67.0000        98.3234        -999.25        -999.25        -999.25        -999.25        -999.25        -999.25
08:06:50/03-Jul-2009       511.7973        -999.25        -999.25        10.6204       -83.3830       100.4654        -0.6072         2.0901       126.0000        -999.25      2961.0920        67.0000         0.0000        67.0000        96.6462        -999.25      2578.1250        -999.25         0.0000         0.0000         0.0000
08:07:00/03-Jul-2009       511.5186        -999.25       215.2665        10.8972      -112.4072       100.5342        -0.3338         1.8316       126.0000        -999.25      2961.0920        67.0000         0.0000        67.0000        98.2802        -999.25        -999.25        -999.25        -999.25        -999.25        -999.25
08:07:10/03-Jul-2009       511.1942        -999.25        -999.25        11.2204      -132.9603       100.3847        -0.2734         1.7329       127.0000        -999.25      2961.0920        67.0000         0.0000        67.0000        96.2724         0.0000        -999.25        -999.25        -999.25        -999.25        -999.25
08:07:20/03-Jul-2009       510.8047        -999.25        -999.25        11.6098      -133.3844       100.4534        -0.3116         1.4765       126.0000        -999.25      2961.0920        67.0000         0.0000        67.0000        96.5875        -999.25        -999.25        -999.25         0.0000         0.0000         0.0000
08:07:30/03-Jul-2009       510.4327        -999.25        -999.25        11.9819      -133.7893       100.4383        -0.4762         2.0383       127.0000        -999.25      2961.0920        67.0000         0.0000        67.0000        97.8972        -999.25      2617.1880        -999.25        -999.25        -999.25        -999.25
08:07:40/03-Jul-2009       510.0800        -999.25       203.1955        12.3344      -133.9569       100.3392        -0.4666         1.5559       126.0000        30.0000      2961.0920        67.0000         0.0000        67.0000        98.1134        -999.25        -999.25        -999.25        -999.25        -999.25        -999.25
08:07:50/03-Jul-2009       509.6524        -999.25        -999.25        12.7612      -147.3103       100.4901        -0.4457         1.1059       126.0000        -999.25      2961.0920        67.0000         0.0000        67.0000        95.4385         0.0000        -999.25        -999.25        -999.25        -999.25        -999.25
