~Version Information
VERS.             2.0 : CWLS log ASCII standard - Version 2.0
WRAP.             NO  : One line per depth step
#
~Well Information Block
#MNEM.UNIT                   Data Type:Information
#__________________________________________________________
  STRT.           21-SEP-2007 06:00:00 : START INDEX                   
  STOP.           21-SEP-2007 18:00:00 : STOP INDEX                    
  STEP.SEC           10.0000 : STEP                          
  NULL.              -999.25 : NULL VALUE                    
  COMP.              Statoil : COMPANY                       
  WELL.              15/9-F7 : WELL                          
   FLD.                Volve : FIELD                         
   LOC.                      : LOCATION                      
  PROV.                      : PROVINCE                      
  CNTY.                      : COUNTY                        
  STAT.                      : STATE                         
  CTRY.               Norway : COUNTRY                       
  SRVC.           Schlumberger : SERVICE COMPANY               
  DATE.           21-SEP-2007 04:03:39 : LOG DATE                      
   UWI.                      : UNIQUE WELL ID                
   API.                      : API NUMBER                    
#
~Curve Information Block
#MNEM.UNIT                     : Curve Description
#---------                     --------------------
TIME	    .HHMMSS	       : 
DATE	    .D		       : 
DEPT        .M                 : Bit Depth 2hz                                                   
ROP5        .M/HR              : 5ft ROP 2hz                                                     
BPOS        .M                 : Block Position 2hz                                              
BVEL        .M/S               : Block Velocity 2hz                                              
SWOB        .KKGF              : Surface Weight on Bit 2hz                                       
HKLD        .KKGF              : Measured Hookload 2hz                                           
TQA         .KMN               : SRF STOR 2hz                                                    
RPM         .RPM               : SRF SRPM 2hz                                                    
INCL_CONT_RT.DEG               : MWD Cont Inc 2hz                                                
Stick_RT    .RPM               : MWD PKtoPK RPM 2hz                                              
CRPM_RT     .RPM               : MWD CRPM 2hz                                                    
TFLO        .LPM               : HSPM Total Pump Flow 2hz                                        
TRPM_RT     .RPM               : MWD TUR_RPM 2hz                                                 
SPPA        .BAR               : SRF PUMPRS 2hz                                                  
SHKRSK_RT   .----              : MWD SHKRSK 2hz                                                  
SHKPK_RT    .G                 : MWD SHK_PK 2hz                                                  
GR          .GAPI              : MWD GR(TM) 2hz                                                  
#
~Parameter Information Block
#MNEM.UNIT                       Value:Description
#__________________________________________________________
#
~Other Information Block

#
~A TIME       DATE       DEPT       ROP5       BPOS       BVEL       SWOB       HKLD        TQA        RPM INCL_CONT_RT   Stick_RT    CRPM_RT       TFLO    TRPM_RT       SPPA  SHKRSK_RT   SHKPK_RT       GR
# ...
07:37:39 21-Sep-07    187.693      6.553     39.095     -0.060      3.435     88.178      0.366      0.000      -999.25    -999.25    -999.25      0.000    -999.25      4.036    -999.25    -999.25    -999.25
07:37:49 21-Sep-07    187.067      6.553     39.721     -0.070      3.416     88.197     -0.008      0.000      -999.25    -999.25    -999.25      0.000    -999.25      4.098    -999.25    -999.25    -999.25
07:37:59 21-Sep-07    186.689      6.553     40.114     -0.017      2.115     89.498     -0.004      0.000      -999.25    -999.25    -999.25      0.000    -999.25      4.121    -999.25    -999.25    -999.25
07:38:09 21-Sep-07    186.689      6.553     40.115      0.000      2.174     89.439      0.270      0.000      -999.25    -999.25    -999.25      0.000    -999.25      4.151    -999.25    -999.25    -999.25
07:38:19 21-Sep-07    186.700      6.553     40.105      0.000      7.491     84.122      0.270      0.000      -999.25    -999.25    -999.25      0.000    -999.25      4.142    -999.25    -999.25    -999.25
07:38:29 21-Sep-07    186.710      6.553     40.086      0.000      0.000     66.974      0.005      0.000      -999.25    -999.25    -999.25      0.000    -999.25      4.159    -999.25    -999.25    -999.25
07:38:39 21-Sep-07    186.710      6.553     40.085      0.000      0.000     66.981      0.199      0.000      -999.25    -999.25    -999.25      0.000    -999.25      4.127    -999.25    -999.25    -999.25
07:38:49 21-Sep-07    186.710      6.553     40.085      0.000      0.000     67.111     -0.011      0.000      -999.25    -999.25    -999.25      0.000    -999.25      4.176    -999.25    -999.25    -999.25
07:38:59 21-Sep-07    186.710      6.553     40.085      0.000      0.000     67.115     -0.011      0.000      -999.25    -999.25    -999.25      0.000    -999.25      4.179    -999.25    -999.25    -999.25
07:39:09 21-Sep-07    186.710      6.553     40.085      0.000      0.000     67.105     -0.004      0.000      -999.25    -999.25    -999.25      0.000    -999.25      4.115    -999.25    -999.25    -999.25
07:39:19 21-Sep-07    186.710      6.553     40.085      0.000      0.000     67.178     -0.004      0.000      -999.25    -999.25    -999.25      0.000    -999.25      4.182    -999.25    -999.25    -999.25
07:39:29 21-Sep-07    186.710      6.553     40.085      0.000      0.000     67.090     -0.004      0.000      -999.25    -999.25    -999.25      0.000    -999.25      4.181    -999.25    -999.25    -999.25
07:39:39 21-Sep-07    186.710      6.553     40.085      0.000      0.000     67.043      0.108      0.000      -999.25    -999.25    -999.25      0.000    -999.25      4.120    -999.25    -999.25    -999.25
07:39:49 21-Sep-07    186.710      6.553     40.085      0.000      0.000     66.895      0.108      0.000      -999.25    -999.25    -999.25      0.000    -999.25      4.173    -999.25    -999.25    -999.25
07:39:59 21-Sep-07    186.710      6.553     40.084      0.000      0.000     66.054     -3.298      2.000      -999.25    -999.25    -999.25      0.000    -999.25      4.161    -999.25    -999.25    -999.25
07:40:09 21-Sep-07    186.710      6.553     40.085      0.000      0.000     63.099      0.080      0.000      -999.25    -999.25    -999.25      0.000    -999.25      4.171    -999.25    -999.25    -999.25
07:40:19 21-Sep-07    186.710      6.553     40.084      0.000      0.000     63.139     -0.643     24.000      -999.25    -999.25    -999.25      0.000    -999.25      4.204    -999.25    -999.25    -999.25
07:40:29 21-Sep-07    186.710      6.553     40.084      0.000      0.000     63.200     -0.643     24.000      -999.25    -999.25    -999.25      0.000    -999.25      4.249    -999.25    -999.25    -999.25
07:40:39 21-Sep-07    186.710      6.553     40.120      0.000      0.000     62.197     -2.124     24.000      -999.25    -999.25    -999.25      0.000    -999.25      4.279    -999.25    -999.25    -999.25
07:40:49 21-Sep-07    186.710      6.553     40.370      0.000      0.000     62.111     -2.124     24.000      -999.25    -999.25    -999.25      0.000    -999.25      4.327    -999.25    -999.25    -999.25
07:40:59 21-Sep-07    186.710      6.553     40.901      0.000      0.000     62.805      0.010      0.000      -999.25    -999.25    -999.25      0.000    -999.25      4.461    -999.25    -999.25    -999.25
07:41:09 21-Sep-07    186.710      6.553     40.901      0.000      0.000     63.099      0.043      0.000      -999.25    -999.25    -999.25      0.000    -999.25      4.475    -999.25    -999.25    -999.25
07:41:19 21-Sep-07    186.710      6.553     40.901      0.000      0.000     63.104      0.043      0.000      -999.25    -999.25    -999.25      0.000    -999.25      4.508    -999.25    -999.25    -999.25
07:41:29 21-Sep-07    186.710      6.553     40.901      0.000      0.000     63.117      0.008      0.000      -999.25    -999.25    -999.25      0.000    -999.25      4.530    -999.25    -999.25    -999.25
07:41:39 21-Sep-07    186.710      6.553     40.722      0.000      0.000     64.107      0.032      0.000      -999.25    -999.25    -999.25      0.000    -999.25      4.516    -999.25    -999.25    -999.25
07:41:49 21-Sep-07    186.710      6.553     32.191      0.000      0.000     65.732      0.008      0.000      -999.25    -999.25    -999.25      0.000    -999.25      3.056    -999.25    -999.25    -999.25
07:41:59 21-Sep-07    186.710      6.553     14.550      0.000      0.000     64.692      0.008      0.000      -999.25    -999.25    -999.25      0.000    -999.25      2.461    -999.25    -999.25    -999.25
07:42:09 21-Sep-07    186.710      6.553      8.308      0.000      0.000     66.651      0.009      0.000      -999.25    -999.25    -999.25      0.000    -999.25      2.830    -999.25    -999.25    -999.25
07:42:19 21-Sep-07    186.710      6.553      5.399      0.000      0.000     64.708      0.009      0.000      -999.25    -999.25    -999.25      0.000    -999.25      2.822    -999.25    -999.25    -999.25
07:42:29 21-Sep-07    186.710      6.553      1.455      0.000      0.000     64.696      0.010      0.000      -999.25    -999.25    -999.25      0.000    -999.25      2.837    -999.25    -999.25    -999.25
07:42:39 21-Sep-07    186.710      6.553      0.508      0.000      0.000     63.432      0.007      0.000      -999.25    -999.25    -999.25      0.000    -999.25      2.973    -999.25    -999.25    -999.25
07:42:49 21-Sep-07    186.710      6.553      0.285      0.000      0.000     63.466      0.010      0.000      -999.25    -999.25    -999.25      0.000    -999.25      2.972    -999.25    -999.25    -999.25
07:42:59 21-Sep-07    186.710      6.553      0.285      0.000      0.000     63.408      0.010      0.000      -999.25    -999.25    -999.25      0.000    -999.25      2.972    -999.25    -999.25    -999.25
07:43:09 21-Sep-07    186.710      6.553      0.285      0.000      0.000     63.338      0.010      0.000      -999.25    -999.25    -999.25      0.000    -999.25      2.975    -999.25    -999.25    -999.25
07:43:19 21-Sep-07    186.710      6.553      0.285      0.000      0.000     63.432      0.010      0.000      -999.25    -999.25    -999.25      0.000    -999.25      2.972    -999.25    -999.25    -999.25
07:43:29 21-Sep-07    186.710      6.553      0.285      0.000      0.000     63.435      0.010      0.000      -999.25    -999.25    -999.25      0.000    -999.25      2.973    -999.25    -999.25    -999.25
07:43:39 21-Sep-07    186.710      6.553      0.285      0.000      0.000     63.400      0.007      0.000      -999.25    -999.25    -999.25      0.000    -999.25      2.973    -999.25    -999.25    -999.25
07:43:49 21-Sep-07    186.710      6.553      0.285      0.000      0.000     63.363      0.007      0.000      -999.25    -999.25    -999.25      0.000    -999.25      2.972    -999.25    -999.25    -999.25
07:43:59 21-Sep-07    186.710      6.553      0.285      0.000      0.000     63.435      0.010      0.000      -999.25    -999.25    -999.25      0.000    -999.25      2.973    -999.25    -999.25    -999.25
