~Version Information
VERS.             2.0 : CWLS log ASCII standard - Version 2.0
WRAP.             NO  : One line per depth step
#
~Well Information Block
#MNEM.UNIT                   Data Type:Information
#__________________________________________________________
  STRT.           30-AUG-2008 00:00:00 : START INDEX                   
  STOP.           30-AUG-2008 18:00:00 : STOP INDEX                    
  STEP.SEC           10.0000 : STEP                          
  NULL.              -999.25 : NULL VALUE                    
  COMP.           StatoilHydro : COMPANY                       
  WELL.             15/9-F-9 : WELL                          
   FLD.                Volve : FIELD                         
   LOC.           Norwegian North Sea : LOCATION                      
  PROV.                      : PROVINCE                      
  CNTY.               Norway : COUNTY                        
  STAT.           Maersk Inspirer : RIG                           
  CTRY.                      : COUNTRY                       
  SRVC.           Schlumberger D&M : SERVICE COMPANY               
  DATE.           29-AUG-2008 09:22:08 : LOG DATE                      
   UWI.                      : UNIQUE WELL ID                
   API.                      : API NUMBER                    
#
~Curve Information Block
#MNEM.UNIT                     : Curve Description
#---------                     --------------------
TIME	    .HHMMSS	       : 
DATE	    .D		       : 
GR          .GAPI              : ARC Gamma Ray, Real-Time                                        
INCL_CONT_RT.DEG               : MWD Cont Inc 2hz                                                
HKLD        .KKGF              : Measured Hookload 2hz                                           
SWOB        .KKGF              : Surface Weight on Bit 2hz                                       
TQA         .KMN               : SRF STOR 2hz                                                    
RPM         .RPM               : SRF SRPM 2hz                                                    
SHKRSK_RT   .----              : MWD SHKRSK 2hz                                                  
Stick_RT    .RPM               : MWD PKtoPK RPM 2hz                                              
DEPT        .M                 : Bit Depth 2hz                                                   
TRPM_RT     .RPM               : MWD TUR_RPM 2hz                                                 
ATMP        .DEGC              : ARC Annular Temperature                                         
BPOS        .M                 : Block Position 2hz                                              
BVEL        .M/S               : Block Velocity 2hz                                              
ROP5        .M/HR              : 5ft ROP 2hz                                                     
ECD_ARC     .G/C3              : Equivalent Circulating Density                                  
SPPA        .BAR               : SRF PUMPRS 2hz                                                  
TFLO        .LPM               : HSPM Total Pump Flow 2hz                                        
#
~Parameter Information Block
#MNEM.UNIT                       Value:Description
#__________________________________________________________
#
~Other Information Block

#
~A TIME       DATE     GR    INCL_CONT_RT       HKLD       SWOB        TQA        RPM  SHKRSK_RT   Stick_RT       DEPT    TRPM_RT       ATMP       BPOS       BVEL       ROP5    ECD_ARC       SPPA       TFLO
# ...
14:18:08 30-Aug-08    33.1117       9.6115    89.0381     9.3530    10.5446   139.0000     0.0000    12.0000  1070.4307  2851.5625    38.0000    42.8018     0.0080    27.6195     1.3342   132.6001  3278.9046
14:18:18 30-Aug-08    33.1117       9.6115    89.0195     9.3716     9.2131   139.0000     0.0000    12.0000  1070.4996  2851.5625    38.0000    42.7328     0.0077    27.7724     1.3345   132.3554  3278.9046
14:18:28 30-Aug-08    41.0647       9.6115    88.9875     9.4036     9.2131   139.0000     0.0000     9.0000  1070.5661  2851.5625    38.0000    42.6661     0.0075    27.7724     1.3342   132.3554  3278.9046
14:18:38 30-Aug-08    42.7579       9.6115    89.1405     9.2506    10.1925   140.0000     0.0000     9.0000  1070.6572  2851.5625    38.0000    42.5746     0.0077    27.7875     1.3337   132.7364  3278.9046
14:18:48 30-Aug-08    42.7579       9.6115    89.1234     9.2676    10.2954   139.0000     0.0000     9.0000  1070.7271  2851.5625    38.0000    42.5053     0.0076    27.7875     1.3338   132.1293  3278.9046
14:18:58 30-Aug-08    42.7579       9.6115    89.2183     9.1727     9.9897   139.0000     0.0000     9.0000  1070.7939  2851.5625    38.0000    42.4378     0.0074    27.7729     1.3342   132.3523  3278.9046
14:19:08 30-Aug-08    59.5361       9.6115    89.3081     9.0830     9.6003   140.0000     0.0000     6.0000  1070.8878  2851.5625    38.0000    42.3441     0.0077    27.7729     1.3341   132.9719  3278.9046
14:19:18 30-Aug-08    67.8824       9.6115    89.2242     9.1668     9.6003   140.0000     0.0000     6.0000  1070.9619  2851.5625    38.0000    42.2701     0.0083    27.8901     1.3340   132.9719  3278.9046
14:19:28 30-Aug-08    67.8824       9.7811    89.7992     8.5919     9.9317   139.0000     0.0000     6.0000  1071.0312  2851.5625    38.0000    42.2007     0.0077    27.8901     1.3347   132.2006  3278.9046
14:19:38 30-Aug-08    57.5350       9.7811    91.0066     7.3845    10.4254   139.0000     0.0000    15.0000  1071.1584  2851.5625    38.0000    42.0744     0.0109    27.9991     1.3354   132.3307  3278.9046
14:19:48 30-Aug-08    57.5350       9.7811    91.9396     6.4515    10.4254   139.0000     0.0000    15.0000  1071.2583  2851.5625    38.0000    41.9745     0.0111    28.9392     1.3354   132.3307  3278.9046
14:19:58 30-Aug-08    57.5350       9.7811    91.9634     6.4276     8.9492   140.0000     0.0000    15.0000  1071.3582  2851.5625    38.0000    41.8747     0.0111    28.9392     1.3361   132.5815  3278.9046
14:20:08 30-Aug-08    57.5350       9.7811    91.9183     6.4728     7.9031   140.0000     0.0000    15.0000  1071.4910  2851.5625    38.0000    41.7416     0.0111    29.8796     1.3360   132.9440  3278.9046
14:20:18 30-Aug-08    51.7370       9.7811    91.6422     6.7489     7.6793   139.0000     0.0000     9.0000  1071.5909  2851.5625    38.0000    41.6418     0.0111    30.8140     1.3361   132.7860  3278.9046
14:20:28 30-Aug-08    51.7370       9.7811    91.5221     6.8689     7.6793   139.0000     0.0000     9.0000  1071.6911  2851.5625    38.0000    41.5419     0.0111    31.8333     1.3364   132.7860  3278.9046
14:20:38 30-Aug-08    48.0427       9.7811    91.3519     7.0391     6.1005   140.0000     0.0000     9.0000  1071.8239  2851.5625    38.0000    41.4089     0.0110    31.8333     1.3368   133.5789  3278.9046
14:20:48 30-Aug-08    48.0427       9.7811    91.6317     6.7593     8.1154   140.0000     0.0000     9.0000  1071.9238  2851.5625    38.0000    41.3091     0.0111    32.9842     1.3371   132.7333  3278.9046
14:20:58 30-Aug-08    44.4853       9.7811    91.8547     6.5363     6.8693   139.0000     0.0000    27.0000  1072.0236  2851.5625    38.0000    41.2093     0.0111    34.1093     1.3369   133.0586  3278.9046
14:21:08 30-Aug-08    42.7579       9.7811    91.8722     6.5189     6.8693   139.0000     0.0000    27.0000  1072.1568  2851.5625    38.0000    41.0762     0.0111    35.5687     1.3371   133.0586  3278.9046
14:21:18 30-Aug-08    42.7579       9.6115    91.9645     6.4266     7.5906   139.0000     0.0000    27.0000  1072.2563  2851.5625    38.0000    40.9764     0.0111    35.5687     1.3370   133.4241  3278.9046
14:21:28 30-Aug-08    39.4057       9.6115    92.0682     6.3229     7.2710   140.0000     0.0000    27.0000  1072.3562  2851.5625    38.0000    40.8767     0.0111    37.0908     1.3368   132.9502  3278.9046
14:21:38 30-Aug-08    39.4057       9.6115    91.8992     6.4919     7.4918   139.0000     0.0000     9.0000  1072.4891  2851.5625    38.0000    40.7436     0.0111    38.6393     1.3367   132.8511  3278.9046
14:21:48 30-Aug-08    39.4057       9.6115    91.5423     6.8488     7.4918   139.0000     0.0000     9.0000  1072.5893  2851.5625    38.0000    40.6437     0.0111    38.6393     1.3366   132.8511  3278.9046
14:21:58 30-Aug-08    39.4057       9.6115    90.8796     7.5114     6.8887   140.0000     0.0000     9.0000  1072.6888  2851.5625    38.0000    40.5439     0.0111    39.9300     1.3367   132.9501  3278.9046
14:22:08 30-Aug-08    39.4057       9.6115    89.9303     8.4607     6.7571   140.0000     0.0000     6.0000  1072.8209  2851.5625    38.0000    40.4118     0.0110    39.9346     1.3370   133.6595  3278.9046
14:22:18 30-Aug-08    39.4057       9.6115    89.0410     9.3501     7.4245   139.0000     0.0000     6.0000  1072.9078  2851.5625    38.0000    40.3243     0.0099    39.6471     1.3368   133.8670  3278.9046
14:22:28 30-Aug-08    39.4057       9.7811    88.6224     9.7687     7.4245   139.0000     0.0000     6.0000  1072.9750  2851.5625    38.0000    40.2564     0.0078    39.6471     1.3370   133.8670  3278.9046
14:22:38 30-Aug-08    39.4057       9.7811    88.2513    10.1397     7.4604   139.0000     0.0000     6.0000  1073.0604  2851.5625    38.0000    40.1711     0.0068    37.7630     1.3373   133.4148  3278.9046
14:22:48 30-Aug-08    41.0647       9.7811    87.7522    10.6388     7.5350   139.0000     0.0000     9.0000  1073.1204  2851.5625    38.0000    40.1118     0.0068    37.7630     1.3378   133.7307  3278.9046
14:22:58 30-Aug-08    44.4853       9.7811    87.4444    10.9466     7.4257   141.0000     0.0000     9.0000  1073.1781  2851.5625    38.0000    40.0530     0.0063    37.7630     1.3385   133.8143  3278.9046
14:23:08 30-Aug-08    44.4853       9.7811    87.0176    11.3735     7.8001   139.0000     0.0000     9.0000  1073.2428  2851.5625    38.0000    39.9876     0.0052    35.4412     1.3384   133.3281  3278.9046
14:23:18 30-Aug-08    41.0647       9.7811    87.5136    10.8775     7.8001   139.0000     0.0000     9.0000  1073.2745  2851.5625    38.0000    39.9571     0.0036    35.4412     1.3384   133.3281  3278.9046
14:23:28 30-Aug-08    41.0647       9.7811    87.7785    10.6126     8.1125   139.0000     0.0000    15.0000  1073.3082  2851.5625    38.0000    39.9234     0.0036    35.4412     1.3386   133.9537  3278.9046
14:23:38 30-Aug-08    42.7579       9.7811    88.0755    10.3155     7.7284   139.0000     0.0000    15.0000  1073.3546  2851.5625    38.0000    39.8773     0.0044    35.4412     1.3387   133.7710  3278.9046
14:23:48 30-Aug-08    42.7579       9.7811    88.0164    10.3747     8.1245   139.0000     0.0000    15.0000  1073.3996  2851.5625    38.0000    39.8322     0.0046    30.6162     1.3380   134.2790  3278.9046
14:23:58 30-Aug-08    37.7809       9.7811    88.5698     9.8213     8.1245   139.0000     0.0000     9.0000  1073.4326  2851.5625    38.0000    39.7983     0.0042    30.6162     1.3378   134.2790  3278.9046
14:24:08 30-Aug-08    37.7809       9.7811    89.1184     9.2726     7.7226   139.0000     0.0000     9.0000  1073.4847  2851.5625    38.0000    39.7472     0.0044    30.6162     1.3381   133.8082  3278.9046
14:24:18 30-Aug-08    39.4057       9.7811    88.7260     9.6651     7.9945   140.0000     0.0000     9.0000  1073.5230  2851.5625    38.0000    39.7083     0.0043    27.3396     1.3381   133.5015  3278.9046
14:24:28 30-Aug-08    39.4057       9.7811    88.7758     9.6152     7.9945   140.0000     0.0000     9.0000  1073.5596  2851.5625    38.0000    39.6718     0.0042    27.3396     1.3383   133.5015  3278.9046
