~Version Information
VERS.             2.0 : CWLS log ASCII standard - Version 2.0
WRAP.             NO  : One line per depth step
#
~Well Information Block
#MNEM.UNIT                   Data Type:Information
#__________________________________________________________
  STRT.           30-AUG-2008 00:00:00 : START INDEX                   
  STOP.           30-AUG-2008 18:00:00 : STOP INDEX                    
  STEP.SEC           10.0000 : STEP                          
  NULL.              -999.25 : NULL VALUE                    
  COMP.           StatoilHydro : COMPANY                       
  WELL.             15/9-F-9 : WELL                          
   FLD.                Volve : FIELD                         
   LOC.           Norwegian North Sea : LOCATION                      
  PROV.                      : PROVINCE                      
  CNTY.               Norway : COUNTY                        
  STAT.           Maersk Inspirer : RIG                           
  CTRY.                      : COUNTRY                       
  SRVC.           Schlumberger D&M : SERVICE COMPANY               
  DATE.           29-AUG-2008 09:22:08 : LOG DATE                      
   UWI.                      : UNIQUE WELL ID                
   API.                      : API NUMBER                    
#
~Curve Information Block
#MNEM.UNIT                     : Curve Description
#---------                     --------------------
TIME	    .HHMMSS	       : 
DATE	    .D		       : 
GR          .GAPI              : ARC Gamma Ray, Real-Time                                        
INCL_CONT_RT.DEG               : MWD Cont Inc 2hz                                                
HKLD        .KKGF              : Measured Hookload 2hz                                           
SWOB        .KKGF              : Surface Weight on Bit 2hz                                       
TQA         .KMN               : SRF STOR 2hz                                                    
RPM         .RPM               : SRF SRPM 2hz                                                    
SHKRSK_RT   .----              : MWD SHKRSK 2hz                                                  
Stick_RT    .RPM               : MWD PKtoPK RPM 2hz                                              
DEPT        .M                 : Bit Depth 2hz                                                   
TRPM_RT     .RPM               : MWD TUR_RPM 2hz                                                 
ATMP        .DEGC              : ARC Annular Temperature                                         
BPOS        .M                 : Block Position 2hz                                              
BVEL        .M/S               : Block Velocity 2hz                                              
ROP5        .M/HR              : 5ft ROP 2hz                                                     
ECD_ARC     .G/C3              : Equivalent Circulating Density                                  
SPPA        .BAR               : SRF PUMPRS 2hz                                                  
TFLO        .LPM               : HSPM Total Pump Flow 2hz                                        
#
~Parameter Information Block
#MNEM.UNIT                       Value:Description
#__________________________________________________________
#
~Other Information Block

#
~A TIME       DATE     GR    INCL_CONT_RT       HKLD       SWOB        TQA        RPM  SHKRSK_RT   Stick_RT       DEPT    TRPM_RT       ATMP       BPOS       BVEL       ROP5    ECD_ARC       SPPA       TFLO
# ...
05:57:38 30-Aug-08    16.3942       9.9611    94.1369     0.5613     6.3349    65.0000     0.0000   165.0000   909.7205  2695.3125    20.0000    42.5842     0.0232    11.1444     1.0634    98.7694  3101.6666
05:57:48 30-Aug-08    15.3856       9.9611    94.0310     0.6672     5.9179    65.0000     0.0000   165.0000   909.8657  2695.3125    20.0000    42.4366     0.0177    11.1444     1.0631    97.8588  3101.6666
05:57:58 30-Aug-08    15.3856       9.9611    94.0744     0.6238     5.9179    65.0000     0.0000   165.0000   910.1086  2695.3125    20.0000    42.1970     0.0249    11.1444     1.0632    97.8588  3101.6666
05:58:08 30-Aug-08    11.6713       9.9611    93.6391     1.0591     5.6194    65.0000     0.0000   165.0000   910.3775  2695.3125    20.0000    41.9219     0.0267    11.1444     1.0629    98.3017  3101.6666
05:58:18 30-Aug-08    11.6713       9.9611    94.1273     0.5709     5.4052    64.0000     0.0000    39.0000   910.5217  2695.3125    20.0000    41.7818     0.0128    11.1444     1.0631    98.2800  3101.6666
05:58:28 30-Aug-08    12.5518       9.9611    93.6718     1.0264     5.9675    64.0000     0.0000    39.0000   910.6781  2695.3125    20.0000    41.6256     0.0174    11.1444     1.0634    98.1066  3101.6666
05:58:38 30-Aug-08    12.5518       9.7945    94.1598     0.5384     5.9675    64.0000     0.0000    39.0000   910.7670  2695.3125    20.0000    41.5347     0.0076    11.1444     1.0627    98.1066  3101.6666
05:58:48 30-Aug-08    14.4090       9.7945    93.6987     0.9995     5.9767    64.0000     0.0000    66.0000   910.8187  2695.3125    20.0000    41.4812     0.0071    11.1444     1.0619    98.4721  3101.6666
05:58:58 30-Aug-08    14.4090       9.7945    94.0643     0.6339     5.1671    64.0000     0.0000    66.0000   910.8486  2695.3125    20.0000    41.4519     0.0028    11.1444     1.0624    98.1561  3101.6666
05:59:08 30-Aug-08    14.4090       9.7945    94.2112     0.4871     5.9642    64.0000     0.0000    66.0000   910.8852  2695.3125    20.0000    41.4151     0.0031    11.1444     1.0623    97.7256  3101.6666
05:59:18 30-Aug-08    14.4090       9.7945    94.0184     0.6798     5.9642    64.0000     0.0000    66.0000   910.9126  2695.3125    20.0000    41.3876     0.0031    11.1444     1.0623    97.7256  3101.6666
05:59:28 30-Aug-08    13.4644       9.7945    94.0078     0.6904     5.6437    65.0000     0.0000   381.0000   910.9386  2695.3125    20.0000    41.3616     0.0029    11.1444     1.0620    97.7844  3101.6666
05:59:38 30-Aug-08    13.4644       9.7945    94.0363     0.6619     5.2578    64.0000     0.0000   381.0000   910.9734  2695.3125    20.0000    41.3267     0.0028    11.1444     1.0618    97.8185  3101.6666
05:59:48 30-Aug-08    13.4644       9.7945    93.9724     0.7258     5.7832    64.0000     0.0000   381.0000   910.9998  2695.3125    19.6000    41.3006     0.0030    11.1444     1.0619    98.0694  3101.6666
05:59:58 30-Aug-08    13.4644       9.7945    94.1064     0.5918     5.7832    64.0000     0.0000   381.0000   911.0258  2656.2500    19.4000    41.2745     0.0028    11.1444     1.0617    98.0694  3101.6666
06:00:08 30-Aug-08    13.4644       9.7945    94.2251     0.4731     5.5377    65.0000     0.0000    66.0000   911.0638  2656.2500    19.6000    41.2366     0.0032    11.1444     1.0615    97.4933  3101.6666
06:00:18 30-Aug-08    13.4644       9.7945    94.2711     0.4272     5.7533    65.0000     0.0000    66.0000   911.0922  2656.2500    19.0000    41.2081     0.0031    11.1444     1.0609    97.2888  3101.6666
06:00:28 30-Aug-08    13.4644       9.7945    94.3116     0.3866     6.1886    64.0000     0.0000    66.0000   911.1200  2656.2500    19.0000    41.1803     0.0030    11.1444     1.0610    97.4468  3101.6666
06:00:38 30-Aug-08    14.4090       9.7945    94.2267     0.4716     6.1886    64.0000     0.0000   381.0000   911.1569  2695.3125    19.0000    41.1434     0.0030    11.1444     1.0608    97.4468  3101.6666
06:00:48 30-Aug-08    14.4090       9.7945    94.1785     0.5197     6.3016    65.0000     0.0000   381.0000   911.1854  2695.3125    19.0000    41.1151     0.0032    11.1444     1.0609    97.9858  3101.6666
06:00:58 30-Aug-08    14.4090       9.7945    94.1616     0.5367     5.4261    64.0000     0.0000   381.0000   911.2146  2695.3125    19.0000    41.0859     0.0032    11.1444     1.0601    98.0663  3101.6666
06:01:08 30-Aug-08    14.4090       9.7945    94.3010     0.3972     5.8917    64.0000     0.0000   381.0000   911.2525  2695.3125    19.0000    41.0479     0.0031    11.1444     1.0596    96.8304  3101.6666
06:01:18 30-Aug-08    16.3942       9.7945    94.1567     0.5415     5.8917    64.0000     0.0000   288.0000   911.2792  2695.3125    19.0000    41.0207     0.0031    11.1444     1.0599    96.8304  3101.6666
06:01:28 30-Aug-08    16.3942       9.7945    94.2903     0.4079     5.5008    65.0000     0.0000   288.0000   911.3053  2695.3125    19.0000    40.9949     0.0028    11.1444     1.0600    97.2826  3101.6666
06:01:38 30-Aug-08    15.3856       9.7945    94.1473     0.5509     5.6836    64.0000     0.0000   288.0000   911.3436  2695.3125    19.0000    40.9568     0.0032    11.1444     1.0595    97.6760  3101.6666
06:01:48 30-Aug-08    15.3856       9.7945    94.1438     0.5544     6.4023    64.0000     0.0000   288.0000   911.3724  2695.3125    19.0000    40.9281     0.0032    11.1444     1.0594    98.4876  3101.6666
06:01:58 30-Aug-08    10.8227       9.7945    94.1504     0.5478     6.4023    64.0000     0.0000    81.0000   911.4009  2695.3125    19.0000    40.8996     0.0032    11.1444     1.0591    98.4876  3101.6666
06:02:08 30-Aug-08    11.6713       9.7945    94.2725     0.4257     5.6896    65.0000     0.0000    81.0000   911.4392  2695.3125    19.0000    40.8611     0.0032    11.1444     1.0586    96.9946  3101.6666
06:02:18 30-Aug-08    11.6713       9.7945    94.1558     0.5424     5.9371    65.0000     0.0000    81.0000   911.4810  2695.3125    19.0000    40.8202     0.0042    11.1444     1.0585    97.4995  3101.6666
06:02:28 30-Aug-08    17.4349       9.7945    94.1845     0.5137     5.9371    65.0000     0.0000    81.0000   911.5334  2695.3125    19.0000    40.7674     0.0060    11.1444     1.0585    97.4995  3101.6666
06:02:38 30-Aug-08    17.4349       9.7945    94.2966     0.4016     6.2458    65.0000     0.0000    48.0000   911.6097  2695.3125    19.0000    40.6911     0.0067    11.1444     1.0581    97.6636  3101.6666
06:02:48 30-Aug-08    15.3856       9.7945    93.9674     0.7308     6.0060    65.0000     0.0000    48.0000   911.6692  2695.3125    19.0000    40.6314     0.0066    11.1444     1.0575    97.3725  3101.6666
06:02:58 30-Aug-08    15.3856       9.7945    94.1565     0.5417     5.0062    64.0000     0.0000    48.0000   911.7204  2695.3125    19.0000    40.5806     0.0058    11.1444     1.0575    96.7684  3101.6666
06:03:08 30-Aug-08    14.4090       9.7945    93.9609     0.7373     5.8714    64.0000     0.0000    27.0000   911.7907  2656.2500    19.0000    40.5104     0.0059    11.1444     1.0571    97.5087  3101.6666
06:03:18 30-Aug-08    14.4090       9.7945    94.2411     0.4571     5.8714    64.0000     0.0000    27.0000   911.8428  2656.2500    19.0000    40.4582     0.0058    11.1444     1.0566    97.5087  3101.6666
06:03:28 30-Aug-08    12.5518       9.7945    93.9349     0.7633     6.3876    64.0000     0.0000    27.0000   911.9008  2656.2500    19.0000    40.4004     0.0064    11.1444     1.0565    97.3167  3101.6666
06:03:38 30-Aug-08    12.5518       9.7945    94.0436     0.6546     6.0097    64.0000     0.0000    27.0000   911.9683  2656.2500    19.0000    40.3325     0.0058    11.1444     1.0564    97.4778  3101.6666
06:03:48 30-Aug-08    15.3856       9.7945    94.3713     0.3269     6.0097    64.0000     0.0000    72.0000   912.0263  2656.2500    19.0000    40.2747     0.0062    11.1444     1.0560    97.4778  3101.6666
06:03:58 30-Aug-08    15.3856       9.7945    94.3585     0.3397     5.7535    65.0000     0.0000    72.0000   912.0871  2656.2500    19.0000    40.2141     0.0067    11.1444     1.0555    97.4716  3101.6666
