~Version Information
VERS.             2.0 : CWLS log ASCII standard - Version 2.0
WRAP.             NO  : One line per depth step
#
~Well Information Block
#MNEM.UNIT                   Data Type:Information
#__________________________________________________________
  STRT.           21-SEP-2007 06:00:00 : START INDEX                   
  STOP.           21-SEP-2007 18:00:00 : STOP INDEX                    
  STEP.SEC           10.0000 : STEP                          
  NULL.              -999.25 : NULL VALUE                    
  COMP.              Statoil : COMPANY                       
  WELL.              15/9-F7 : WELL                          
   FLD.                Volve : FIELD                         
   LOC.                      : LOCATION                      
  PROV.                      : PROVINCE                      
  CNTY.                      : COUNTY                        
  STAT.                      : STATE                         
  CTRY.               Norway : COUNTRY                       
  SRVC.           Schlumberger : SERVICE COMPANY               
  DATE.           21-SEP-2007 04:03:39 : LOG DATE                      
   UWI.                      : UNIQUE WELL ID                
   API.                      : API NUMBER                    
#
~Curve Information Block
#MNEM.UNIT                     : Curve Description
#---------                     --------------------
TIME	    .HHMMSS	       : 
DATE	    .D		       : 
DEPT        .M                 : Bit Depth 2hz                                                   
ROP5        .M/HR              : 5ft ROP 2hz                                                     
BPOS        .M                 : Block Position 2hz                                              
BVEL        .M/S               : Block Velocity 2hz                                              
SWOB        .KKGF              : Surface Weight on Bit 2hz                                       
HKLD        .KKGF              : Measured Hookload 2hz                                           
TQA         .KMN               : SRF STOR 2hz                                                    
RPM         .RPM               : SRF SRPM 2hz                                                    
INCL_CONT_RT.DEG               : MWD Cont Inc 2hz                                                
Stick_RT    .RPM               : MWD PKtoPK RPM 2hz                                              
CRPM_RT     .RPM               : MWD CRPM 2hz                                                    
TFLO        .LPM               : HSPM Total Pump Flow 2hz                                        
TRPM_RT     .RPM               : MWD TUR_RPM 2hz                                                 
SPPA        .BAR               : SRF PUMPRS 2hz                                                  
SHKRSK_RT   .----              : MWD SHKRSK 2hz                                                  
SHKPK_RT    .G                 : MWD SHK_PK 2hz                                                  
GR          .GAPI              : MWD GR(TM) 2hz                                                  
#
~Parameter Information Block
#MNEM.UNIT                       Value:Description
#__________________________________________________________
#
~Other Information Block

#
~A TIME       DATE       DEPT       ROP5       BPOS       BVEL       SWOB       HKLD        TQA        RPM INCL_CONT_RT   Stick_RT    CRPM_RT       TFLO    TRPM_RT       SPPA  SHKRSK_RT   SHKPK_RT       GR
# ...
16:17:39 21-Sep-07    186.398     21.419      1.826      0.000      0.000     63.166      0.008      0.000      -999.25    -999.25    -999.25      0.000    -999.25      3.062    -999.25    -999.25    -999.25
16:17:49 21-Sep-07    186.398     21.419      1.826      0.000      0.000     63.131      0.008      0.000      -999.25    -999.25    -999.25      0.000    -999.25      3.065    -999.25    -999.25    -999.25
16:17:59 21-Sep-07    186.398     21.419      1.826      0.000      0.000     63.154      0.010      0.000      -999.25    -999.25    -999.25      0.000    -999.25      3.065    -999.25    -999.25    -999.25
16:18:09 21-Sep-07    186.398     21.419      1.826      0.000      0.000     63.108      0.007      0.000      -999.25    -999.25    -999.25      0.000    -999.25      3.065    -999.25    -999.25    -999.25
16:18:19 21-Sep-07    186.398     21.419      1.826      0.000      0.000     63.177      0.008      0.000      -999.25    -999.25    -999.25      0.000    -999.25      3.063    -999.25    -999.25    -999.25
16:18:29 21-Sep-07    186.398     21.419      1.826      0.000      0.000     63.137      0.008      0.000      -999.25    -999.25    -999.25      0.000    -999.25      3.063    -999.25    -999.25    -999.25
16:18:39 21-Sep-07    186.398     21.419      1.826      0.000      0.000     63.153      0.010      0.000      -999.25    -999.25    -999.25      0.000    -999.25      3.065    -999.25    -999.25    -999.25
16:18:49 21-Sep-07    186.398     21.419      1.826      0.000      0.000     63.129      0.010      0.000      -999.25    -999.25    -999.25      0.000    -999.25      3.065    -999.25    -999.25    -999.25
16:18:59 21-Sep-07    186.398     21.419      1.826      0.000      0.000     63.112      0.008      0.000      -999.25    -999.25    -999.25      0.000    -999.25      3.064    -999.25    -999.25    -999.25
16:19:09 21-Sep-07    186.398     21.419      1.826      0.000      0.000     63.119      0.007      0.000      -999.25    -999.25    -999.25      0.000    -999.25      3.062    -999.25    -999.25    -999.25
16:19:19 21-Sep-07    186.398     21.419      1.826      0.000      0.000     63.098      0.007      0.000      -999.25    -999.25    -999.25      0.000    -999.25      3.065    -999.25    -999.25    -999.25
16:19:29 21-Sep-07    186.398     21.419      1.826      0.000      0.000     63.108      0.007      0.000      -999.25    -999.25    -999.25      0.000    -999.25      3.067    -999.25    -999.25    -999.25
16:19:39 21-Sep-07    186.398     21.419      1.826      0.000      0.000     63.192      0.006      0.000      -999.25    -999.25    -999.25      0.000    -999.25      3.060    -999.25    -999.25    -999.25
16:19:49 21-Sep-07    186.398     21.419      1.826      0.000      0.000     63.155      0.008      0.000      -999.25    -999.25    -999.25      0.000    -999.25      3.065    -999.25    -999.25    -999.25
16:19:59 21-Sep-07    186.398     21.419      1.826      0.000      0.000     63.161      0.008      0.000      -999.25    -999.25    -999.25      0.000    -999.25      3.063    -999.25    -999.25    -999.25
16:20:09 21-Sep-07    186.398     21.419      1.826      0.000      0.000     63.191      0.005      0.000      -999.25    -999.25    -999.25      0.000    -999.25      3.062    -999.25    -999.25    -999.25
16:20:19 21-Sep-07    186.398     21.419      1.826      0.000      0.000     63.177      0.005      0.000      -999.25    -999.25    -999.25      0.000    -999.25      3.061    -999.25    -999.25    -999.25
16:20:29 21-Sep-07    186.398     21.419      1.826      0.000      0.000     63.179      0.008      0.000      -999.25    -999.25    -999.25      0.000    -999.25      3.063    -999.25    -999.25    -999.25
16:20:39 21-Sep-07    186.398     21.419      1.826      0.000      0.000     63.183      0.004      0.000      -999.25    -999.25    -999.25      0.000    -999.25      3.060    -999.25    -999.25    -999.25
16:20:49 21-Sep-07    186.398     21.419      1.826      0.000      0.000     63.156      0.004      0.000      -999.25    -999.25    -999.25      0.000    -999.25      3.062    -999.25    -999.25    -999.25
16:20:59 21-Sep-07    186.398     21.419      1.826      0.000      0.000     63.136      0.010      0.000      -999.25    -999.25    -999.25      0.000    -999.25      3.063    -999.25    -999.25    -999.25
16:21:09 21-Sep-07    186.398     21.419      1.826      0.000      0.000     63.187      0.005      0.000      -999.25    -999.25    -999.25      0.000    -999.25      3.063    -999.25    -999.25    -999.25
16:21:19 21-Sep-07    186.398     21.419      1.826      0.000      0.000     63.157      0.012      0.000      -999.25    -999.25    -999.25      0.000    -999.25      3.059    -999.25    -999.25    -999.25
16:21:29 21-Sep-07    186.398     21.419      1.826      0.000      0.000     63.156      0.012      0.000      -999.25    -999.25    -999.25      0.000    -999.25      3.061    -999.25    -999.25    -999.25
16:21:39 21-Sep-07    186.398     21.419      1.826      0.000      0.000     63.167      0.012      0.000      -999.25    -999.25    -999.25      0.000    -999.25      3.061    -999.25    -999.25    -999.25
16:21:49 21-Sep-07    186.398     21.419      1.826      0.000      0.000     63.187      0.012      0.000      -999.25    -999.25    -999.25      0.000    -999.25      3.060    -999.25    -999.25    -999.25
16:21:59 21-Sep-07    186.398     21.419      1.826      0.000      0.000     63.180      0.008      0.000      -999.25    -999.25    -999.25      0.000    -999.25      3.061    -999.25    -999.25    -999.25
16:22:09 21-Sep-07    186.398     21.419      1.826      0.000      0.000     63.101      0.009      0.000      -999.25    -999.25    -999.25      0.000    -999.25      3.062    -999.25    -999.25    -999.25
16:22:19 21-Sep-07    186.398     21.419      1.826      0.000      0.000     63.173      0.009      0.000      -999.25    -999.25    -999.25      0.000    -999.25      3.059    -999.25    -999.25    -999.25
16:22:29 21-Sep-07    186.398     21.419      1.826      0.000      0.000     63.255      0.005      0.000      -999.25    -999.25    -999.25      0.000    -999.25      3.059    -999.25    -999.25    -999.25
16:22:39 21-Sep-07    186.398     21.419      1.826      0.000      0.000     63.267      0.007      0.000      -999.25    -999.25    -999.25      0.000    -999.25      3.058    -999.25    -999.25    -999.25
16:22:49 21-Sep-07    186.398     21.419      1.826      0.000      0.000     63.174      0.010      0.000      -999.25    -999.25    -999.25      0.000    -999.25      3.063    -999.25    -999.25    -999.25
16:22:59 21-Sep-07    186.398     21.419      1.826      0.000      0.000     63.185      0.010      0.000      -999.25    -999.25    -999.25      0.000    -999.25      3.062    -999.25    -999.25    -999.25
16:23:09 21-Sep-07    186.398     21.419      1.826      0.000      0.000     63.245      0.006      0.000      -999.25    -999.25    -999.25      0.000    -999.25      3.058    -999.25    -999.25    -999.25
16:23:19 21-Sep-07    186.398     21.419      1.826      0.000      0.000     63.221      0.006      0.000      -999.25    -999.25    -999.25      0.000    -999.25      3.062    -999.25    -999.25    -999.25
16:23:29 21-Sep-07    186.398     21.419      1.826      0.000      0.000     63.221      0.009      0.000      -999.25    -999.25    -999.25      0.000    -999.25      3.058    -999.25    -999.25    -999.25
16:23:39 21-Sep-07    186.398     21.419      1.826      0.000      0.000     63.169      0.007      0.000      -999.25    -999.25    -999.25      0.000    -999.25      3.061    -999.25    -999.25    -999.25
16:23:49 21-Sep-07    186.398     21.419      1.826      0.000      0.000     63.206      0.007      0.000      -999.25    -999.25    -999.25      0.000    -999.25      3.059    -999.25    -999.25    -999.25
16:23:59 21-Sep-07    186.398     21.419      1.826      0.000      0.000     63.260      0.007      0.000      -999.25    -999.25    -999.25      0.000    -999.25      3.061    -999.25    -999.25    -999.25
