~Version Information
VERS.             2.0 : CWLS log ASCII standard - Version 2.0
WRAP.             NO  : One line per depth step
#
~Well Information Block
#MNEM.UNIT                   Data Type:Information
#__________________________________________________________
  STRT.           30-AUG-2008 00:00:00 : START INDEX                   
  STOP.           30-AUG-2008 18:00:00 : STOP INDEX                    
  STEP.SEC           10.0000 : STEP                          
  NULL.              -999.25 : NULL VALUE                    
  COMP.           StatoilHydro : COMPANY                       
  WELL.             15/9-F-9 : WELL                          
   FLD.                Volve : FIELD                         
   LOC.           Norwegian North Sea : LOCATION                      
  PROV.                      : PROVINCE                      
  CNTY.               Norway : COUNTY                        
  STAT.           Maersk Inspirer : RIG                           
  CTRY.                      : COUNTRY                       
  SRVC.           Schlumberger D&M : SERVICE COMPANY               
  DATE.           29-AUG-2008 09:22:08 : LOG DATE                      
   UWI.                      : UNIQUE WELL ID                
   API.                      : API NUMBER                    
#
~Curve Information Block
#MNEM.UNIT                     : Curve Description
#---------                     --------------------
TIME	    .HHMMSS	       : 
DATE	    .D		       : 
GR          .GAPI              : ARC Gamma Ray, Real-Time                                        
INCL_CONT_RT.DEG               : MWD Cont Inc 2hz                                                
HKLD        .KKGF              : Measured Hookload 2hz                                           
SWOB        .KKGF              : Surface Weight on Bit 2hz                                       
TQA         .KMN               : SRF STOR 2hz                                                    
RPM         .RPM               : SRF SRPM 2hz                                                    
SHKRSK_RT   .----              : MWD SHKRSK 2hz                                                  
Stick_RT    .RPM               : MWD PKtoPK RPM 2hz                                              
DEPT        .M                 : Bit Depth 2hz                                                   
TRPM_RT     .RPM               : MWD TUR_RPM 2hz                                                 
ATMP        .DEGC              : ARC Annular Temperature                                         
BPOS        .M                 : Block Position 2hz                                              
BVEL        .M/S               : Block Velocity 2hz                                              
ROP5        .M/HR              : 5ft ROP 2hz                                                     
ECD_ARC     .G/C3              : Equivalent Circulating Density                                  
SPPA        .BAR               : SRF PUMPRS 2hz                                                  
TFLO        .LPM               : HSPM Total Pump Flow 2hz                                        
#
~Parameter Information Block
#MNEM.UNIT                       Value:Description
#__________________________________________________________
#
~Other Information Block

#
~A TIME       DATE     GR    INCL_CONT_RT       HKLD       SWOB        TQA        RPM  SHKRSK_RT   Stick_RT       DEPT    TRPM_RT       ATMP       BPOS       BVEL       ROP5    ECD_ARC       SPPA       TFLO
# ...
15:29:38 30-Aug-08    86.2170       9.7811    93.1367     5.2544     4.9695   119.0000     0.0000     3.0000  1080.4955  2851.5625    39.0000    32.1339    -0.0135    20.4969     1.3284   127.0773  3278.9046
15:29:48 30-Aug-08    86.2170       9.7811    93.0873     5.3037     4.9695   119.0000     0.0000     3.0000  1080.3876  2851.5625    39.0000    32.2425    -0.0126    20.4969     1.3289   127.0773  3278.9046
15:29:58 30-Aug-08    91.1427       9.7811    93.1110     5.2800     2.9611   120.0000     0.0000     3.0000  1080.2887  2812.5000    39.0000    32.3417    -0.0111    20.4969     1.3293   131.6833  3278.9046
15:30:08 30-Aug-08    91.1427       9.7811    93.1398     5.2512     2.9189   119.0000     0.0000     3.0000  1080.1573  2812.5000    39.0000    32.4730    -0.0110    20.4969     1.3296   131.7855  3278.9046
15:30:18 30-Aug-08    93.6568       9.7811    93.1640     5.2271     2.9189   119.0000     0.0000     3.0000  1080.0603  2812.5000    39.0000    32.5698    -0.0107    20.4969     1.3291   131.7855  3278.9046
15:30:28 30-Aug-08    93.6568       9.7811    93.0991     5.2920     4.6534   120.0000     0.0000     3.0000  1079.9615  2812.5000    39.0000    32.6689    -0.0111    20.4969     1.3291   131.5532  3278.9046
15:30:38 30-Aug-08    96.2052       9.7811    93.1193     5.2717     5.5582   120.0000     0.0000    12.0000  1079.8120  2851.5625    39.0000    32.8178    -0.0127    20.4969     1.3299   131.7081  3278.9046
15:30:48 30-Aug-08    98.7878       9.7811    93.2515     5.1396     5.8333   119.0000     0.0000    12.0000  1079.6954  2851.5625    39.0000    32.9347    -0.0130    20.4969     1.3291   131.3581  3278.9046
15:30:58 30-Aug-08    98.7878       9.7811    93.2518     5.1392     5.8333   119.0000     0.0000    12.0000  1079.5790  2851.5625    39.0000    33.0508    -0.0130    20.4969     1.3278   131.3581  3278.9046
15:31:08 30-Aug-08    98.7878       9.7811    93.2216     5.1694     6.3077   120.0000     0.0000    12.0000  1079.4229  2851.5625    39.0000    33.2068    -0.0129    20.4969     1.3288   131.4695  3278.9046
15:31:18 30-Aug-08    98.7878       9.7811    93.1667     5.2243     6.8911   120.0000     0.0000     9.0000  1079.2862  2851.5625    39.0000    33.3433    -0.0147    20.4969     1.3285   131.5439  3278.9046
15:31:28 30-Aug-08    96.2052       9.7811    93.2690     5.1221     5.8294   120.0000     0.0000     9.0000  1079.1501  2851.5625    39.0000    33.4796    -0.0152    20.4969     1.3284   131.7483  3278.9046
15:31:38 30-Aug-08    96.2052       9.7811    93.2711     5.1200     5.8294   120.0000     0.0000     9.0000  1078.9926  2851.5625    39.0000    33.6371    -0.0130    20.4969     1.3291   131.7483  3278.9046
15:31:48 30-Aug-08   104.0555       9.7811    93.1452     5.2459     5.4777   119.0000     0.0000     0.0000  1078.8748  2812.5000    39.0000    33.7550    -0.0131    20.4969     1.3286   129.6358  3278.9046
15:31:58 30-Aug-08   104.0555       9.7811    93.2264     5.1646     4.6398   120.0000     0.0000     0.0000  1078.7377  2812.5000    39.0000    33.8917    -0.0149    20.4969     1.3283   131.2434  3278.9046
15:32:08 30-Aug-08   101.4046       9.6115    93.1500     5.2410     2.3675   120.0000     0.0000     0.0000  1078.5243  2812.5000    39.0000    34.1044    -0.0181    20.4969     1.3286   131.6895  3278.9046
15:32:18 30-Aug-08   101.4046       9.6115    93.1822     5.2089     2.3675   120.0000     0.0000     0.0000  1078.3605  2812.5000    39.0000    34.2681    -0.0182    20.4969     1.3288   131.6895  3278.9046
15:32:28 30-Aug-08    96.2052       9.6115    93.2179     5.1731     4.1640   119.0000     0.0000     3.0000  1078.2030  2851.5625    39.0000    34.4263    -0.0179    20.4969     1.3290   131.6368  3278.9046
15:32:38 30-Aug-08   101.4046       9.6115    93.1117     5.2794     4.9935   119.0000     0.0000     3.0000  1077.9977  2851.5625    39.0000    34.6295    -0.0165    20.4969     1.3292   131.6028  3278.9046
15:32:48 30-Aug-08   101.4046       9.7811    93.1631     5.2280     6.0206   119.0000     0.0000     3.0000  1077.7660  2851.5625    39.0000    34.8609    -0.0246    20.4969     1.3290   131.7793  3278.9046
15:32:58 30-Aug-08   101.4046       9.7811    92.9866     5.4045     6.0206   119.0000     0.0000     3.0000  1077.5330  2851.5625    39.0000    35.0939    -0.0259    20.4969     1.3288   131.7793  3278.9046
15:33:08 30-Aug-08    88.6627       9.7811    93.1767     5.2143     5.9679   119.0000     0.0000     3.0000  1077.2233  2851.5625    39.0000    35.4038    -0.0258    20.4969     1.3292   130.6673  3278.9046
15:33:18 30-Aug-08    63.6408       9.7811    93.0970     5.2940     7.1674   120.0000     0.0000     3.0000  1076.9898  2851.5625    39.0000    35.6372    -0.0258    20.4969     1.3297   123.5648  3278.9046
15:33:28 30-Aug-08    63.6408       9.7811    93.1468     5.2442     7.1674   120.0000     0.0000     3.0000  1076.7571  2851.5625    39.0000    35.8696    -0.0259    20.4969     1.3305   123.5648  3278.9046
15:33:38 30-Aug-08    65.7445       9.7811    93.0898     5.3012     6.9012   119.0000     0.0000     3.0000  1076.4474  2851.5625    39.0000    36.1796    -0.0258    20.4969     1.3297   130.3886  3278.9046
15:33:48 30-Aug-08    65.7445       9.7811    93.0776     5.3135     7.1298   119.0000     0.0000     3.0000  1076.2150  2851.5625    39.0000    36.4121    -0.0258    20.4969     1.3288   128.9265  3278.9046
15:33:58 30-Aug-08    67.8824       9.7811    93.0540     5.3370     5.0361   118.0000     0.0000     3.0000  1075.9820  2851.5625    39.0000    36.6452    -0.0259    20.4969     1.3291   132.2408  3278.9046
15:34:08 30-Aug-08    67.8824       9.7811    93.0678     5.3233     4.0102   120.0000     0.0000     3.0000  1075.6564  2851.5625    39.0000    36.9699    -0.0275    20.4969     1.3294   131.4727  3278.9046
15:34:18 30-Aug-08    55.5681       9.7811    93.1519     5.2391     4.0102   120.0000     0.0000     3.0000  1075.3966  2851.5625    39.0000    37.2296    -0.0288    20.4969     1.3290   131.4727  3278.9046
15:34:28 30-Aug-08    55.5681       9.7811    93.1109     5.2802     2.3615   119.0000     0.0000     3.0000  1075.2054  2851.5625    39.0000    37.4227    -0.0244    20.4969     1.3283   132.0612  3278.9046
15:34:38 30-Aug-08    44.4853       9.7811    93.0145     5.3766     3.5974   119.0000     0.0000     3.0000  1074.9603  2851.5625    39.0000    37.6678    -0.0205    20.4969     1.3290   132.1231  3278.9046
15:34:48 30-Aug-08    44.4853       9.7811    93.0213     5.3697     3.5974   119.0000     0.0000     3.0000  1074.7701  2851.5625    39.0000    37.8573    -0.0207    20.4969     1.3290   132.1231  3278.9046
15:34:58 30-Aug-08    49.8728       9.7811    93.1488     5.2423     4.3902   120.0000     0.0000     9.0000  1074.5409  2851.5625    39.0000    38.0831    -0.0243    20.4969     1.3278   131.8908  3278.9046
15:35:08 30-Aug-08    49.8728       9.7811    93.6964     4.6947     6.1202   120.0000     0.0000     9.0000  1074.4115  2851.5625    39.0000    38.2212    -0.0043    20.4969     1.3271   131.4262  3278.9046
15:35:18 30-Aug-08    49.8728       9.7811    94.5136     3.8774     5.9213   119.0000     0.0000     9.0000  1074.6435  2851.5625    39.0000    37.9955     0.0204    20.4969     1.3286   128.9048  3278.9046
15:35:28 30-Aug-08    49.8728       9.7811    94.4414     3.9497     5.9213   119.0000     0.0000     9.0000  1074.8928  2851.5625    39.0000    37.7462     0.0278    20.4969     1.3296   128.9048  3278.9046
15:35:38 30-Aug-08    49.8728       9.7811    94.5270     3.8640     6.1003   119.0000     0.0000     3.0000  1075.2250  2851.5625    39.0000    37.4140     0.0277    20.4969     1.3300   132.0798  3278.9046
15:35:48 30-Aug-08    42.7579       9.7811    94.5659     3.8251     5.3716   120.0000     0.0000     3.0000  1075.4743  2851.5625    39.0000    37.1648     0.0277    20.4969     1.3300   131.0483  3278.9046
15:35:58 30-Aug-08    42.7579       9.7811    94.3646     4.0264     5.8370   119.0000     0.0000     3.0000  1075.7232  2851.5625    39.0000    36.9157     0.0277    20.4969     1.3303   122.1864  3278.9046
