~Version Information
VERS.             2.0 : CWLS log ASCII standard - Version 2.0
WRAP.             NO  : One line per depth step
#
~Well Information Block
#MNEM.UNIT                   Data Type:Information
#__________________________________________________________
  STRT.           30-AUG-2008 00:00:00 : START INDEX                   
  STOP.           30-AUG-2008 18:00:00 : STOP INDEX                    
  STEP.SEC           10.0000 : STEP                          
  NULL.              -999.25 : NULL VALUE                    
  COMP.           StatoilHydro : COMPANY                       
  WELL.             15/9-F-9 : WELL                          
   FLD.                Volve : FIELD                         
   LOC.           Norwegian North Sea : LOCATION                      
  PROV.                      : PROVINCE                      
  CNTY.               Norway : COUNTY                        
  STAT.           Maersk Inspirer : RIG                           
  CTRY.                      : COUNTRY                       
  SRVC.           Schlumberger D&M : SERVICE COMPANY               
  DATE.           29-AUG-2008 09:22:08 : LOG DATE                      
   UWI.                      : UNIQUE WELL ID                
   API.                      : API NUMBER                    
#
~Curve Information Block
#MNEM.UNIT                     : Curve Description
#---------                     --------------------
TIME	    .HHMMSS	       : 
DATE	    .D		       : 
GR          .GAPI              : ARC Gamma Ray, Real-Time                                        
INCL_CONT_RT.DEG               : MWD Cont Inc 2hz                                                
HKLD        .KKGF              : Measured Hookload 2hz                                           
SWOB        .KKGF              : Surface Weight on Bit 2hz                                       
TQA         .KMN               : SRF STOR 2hz                                                    
RPM         .RPM               : SRF SRPM 2hz                                                    
SHKRSK_RT   .----              : MWD SHKRSK 2hz                                                  
Stick_RT    .RPM               : MWD PKtoPK RPM 2hz                                              
DEPT        .M                 : Bit Depth 2hz                                                   
TRPM_RT     .RPM               : MWD TUR_RPM 2hz                                                 
ATMP        .DEGC              : ARC Annular Temperature                                         
BPOS        .M                 : Block Position 2hz                                              
BVEL        .M/S               : Block Velocity 2hz                                              
ROP5        .M/HR              : 5ft ROP 2hz                                                     
ECD_ARC     .G/C3              : Equivalent Circulating Density                                  
SPPA        .BAR               : SRF PUMPRS 2hz                                                  
TFLO        .LPM               : HSPM Total Pump Flow 2hz                                        
#
~Parameter Information Block
#MNEM.UNIT                       Value:Description
#__________________________________________________________
#
~Other Information Block

#
~A TIME       DATE     GR    INCL_CONT_RT       HKLD       SWOB        TQA        RPM  SHKRSK_RT   Stick_RT       DEPT    TRPM_RT       ATMP       BPOS       BVEL       ROP5    ECD_ARC       SPPA       TFLO
# ...
09:32:08 30-Aug-08    33.1117       9.0977    93.0209     2.6014     4.5439   139.0000     0.0000     9.0000   941.9086  2851.5625    28.0000    50.8808     0.0125    26.0554     1.3096   130.5062  3278.9046
09:32:18 30-Aug-08    33.1117       9.0977    93.0483     2.5741     4.5439   139.0000     0.0000     9.0000   942.0503  2851.5625    28.0000    50.7398     0.0153    26.0554     1.3096   130.5062  3278.9046
09:32:28 30-Aug-08    30.1700       9.0977    92.9722     2.6501     4.7187   139.0000     0.0000     9.0000   942.0875  2851.5625    28.0000    50.6996     0.0061    26.0554     1.3088   130.9399  3278.9046
09:32:38 30-Aug-08    30.1700       9.0977    93.0173     2.6050     5.7284   140.0000     0.0000     9.0000   942.1533  2851.5625    28.0000    50.6337     0.0055    26.0554     1.3085   130.7479  3278.9046
09:32:48 30-Aug-08    34.6339       9.0977    93.0079     2.6145     5.4149   140.0000     0.0000     9.0000   942.2029  2851.5625    28.0000    50.5845     0.0055    26.0554     1.3089   131.9063  3278.9046
09:32:58 30-Aug-08    34.6339       9.0977    93.0286     2.5938     5.4149   140.0000     0.0000     9.0000   942.2521  2851.5625    28.0000    50.5351     0.0055    26.0554     1.3085   131.9063  3278.9046
09:33:08 30-Aug-08    37.7809       9.0977    93.0031     2.6192     5.5359   139.0000     0.0000     9.0000   942.3178  2851.5625    28.0000    50.4695     0.0054    26.0554     1.3080   132.0890  3278.9046
09:33:18 30-Aug-08    37.7809       9.0977    93.0473     2.5751     5.3980   140.0000     0.0000     9.0000   942.3667  2851.5625    28.0000    50.4204     0.0055    26.0554     1.3079   131.4076  3278.9046
09:33:28 30-Aug-08    33.1117       9.0977    92.8183     2.8041     5.3980   140.0000     0.0000     9.0000   942.4163  2851.5625    28.0000    50.3709     0.0055    26.0554     1.3079   131.4076  3278.9046
09:33:38 30-Aug-08    36.1903       9.0977    91.0065     4.6158     4.5158   140.0000     0.0000     9.0000   942.4810  2851.5625    28.0000    50.3063     0.0054    26.0554     1.3075   130.5279  3278.9046
09:33:48 30-Aug-08    36.1903       9.0977    90.8626     4.7598     5.3625   140.0000     0.0000     9.0000   942.5270  2851.5625    28.0000    50.2602     0.0051    26.0554     1.3073   130.7076  3278.9046
09:33:58 30-Aug-08    31.6237       9.0977    90.7127     4.9096     6.0131   140.0000     0.0000     9.0000   942.5738  2851.5625    28.0000    50.2132     0.0052    26.0554     1.3076   131.5873  3278.9046
09:34:08 30-Aug-08    31.6237       9.0977    90.7247     4.8976     6.8106   139.0000     0.0000     6.0000   942.6328  2851.5625    28.0000    50.1539     0.0050    13.1198     1.3076   131.2775  3278.9046
09:34:18 30-Aug-08    31.6237       9.0977    90.7781     4.8443     6.5622   141.0000     0.0000     6.0000   942.6771  2851.5625    28.0000    50.1098     0.0049    13.1198     1.3075   130.9925  3278.9046
09:34:28 30-Aug-08    31.6237       9.0977    90.7758     4.8465     6.5622   141.0000     0.0000     6.0000   942.7218  2851.5625    28.0000    50.0654     0.0049    13.1198     1.3077   130.9925  3278.9046
09:34:38 30-Aug-08    33.1117       9.0977    90.6346     4.9877     6.8119   139.0000     0.0000     6.0000   942.7840  2851.5625    28.0000    50.0032     0.0052    12.6193     1.3078   130.7386  3278.9046
09:34:48 30-Aug-08    33.1117       9.0977    90.6613     4.9611     5.5714   140.0000     0.0000     6.0000   942.8294  2851.5625    28.0000    49.9577     0.0051    12.6193     1.3073   130.7881  3278.9046
09:34:58 30-Aug-08    33.1117       9.0977    90.6983     4.9240     5.5714   140.0000     0.0000     6.0000   942.8757  2851.5625    28.0000    49.9113     0.0050    12.6193     1.3072   130.7881  3278.9046
09:35:08 30-Aug-08    33.1117       9.0977    90.6883     4.9340     5.3456   139.0000     0.0000     6.0000   942.9369  2851.5625    28.0000    49.8502     0.0051    12.1780     1.3068   130.8594  3278.9046
09:35:18 30-Aug-08    33.1117       9.0977    90.7593     4.8630     5.2460   140.0000     0.0000     9.0000   942.9819  2851.5625    28.0000    49.8052     0.0050    12.1780     1.3069   130.0261  3278.9046
09:35:28 30-Aug-08    28.7504       9.0977    90.5623     5.0601     6.2641   139.0000     0.0000     9.0000   943.0283  2851.5625    28.0000    49.7591     0.0051    12.1780     1.3075   131.2404  3278.9046
09:35:38 30-Aug-08    28.7504       9.0977    90.7254     4.8969     7.8555   139.0000     0.0000     9.0000   943.0849  2851.5625    28.0000    49.7019     0.0047    11.7570     1.3066   131.7452  3278.9046
09:35:48 30-Aug-08    30.1700       9.0977    90.6267     4.9957     7.8555   139.0000     0.0000     9.0000   943.1306  2851.5625    28.0000    49.6566     0.0050    11.7570     1.3064   131.7452  3278.9046
09:35:58 30-Aug-08    30.1700       9.0977    90.6162     5.0061     7.1143   140.0000     0.0000     9.0000   943.1738  2851.5625    28.0000    49.6128     0.0049    11.7570     1.3068   131.1350  3278.9046
09:36:08 30-Aug-08    31.6237       9.0977    90.5943     5.0280     6.4997   139.0000     0.0000     9.0000   943.2340  2851.5625    28.0000    49.5529     0.0051    11.3420     1.3064   130.9709  3278.9046
09:36:18 30-Aug-08    31.6237       9.0977    90.4852     5.1371     6.4997   139.0000     0.0000     9.0000   943.2860  2851.5625    28.0000    49.5015     0.0055    11.3420     1.3065   130.9709  3278.9046
09:36:28 30-Aug-08    42.7579       9.0977    90.5115     5.1109     5.7416   139.0000     0.0000     6.0000   943.3352  2851.5625    28.0000    49.4523     0.0056    11.3420     1.3073   130.6363  3278.9046
09:36:38 30-Aug-08    42.7579       9.0977    90.3725     5.2499     6.1547   140.0000     0.0000     6.0000   943.4027  2851.5625    28.0000    49.3840     0.0056    11.1793     1.3073   130.4226  3278.9046
09:36:48 30-Aug-08    48.0427       8.9151    90.2354     5.3870     7.1623   140.0000     0.0000     6.0000   943.4558  2851.5625    28.0000    49.3316     0.0058    11.1793     1.3069   131.5780  3278.9046
09:36:58 30-Aug-08    48.0427       8.9151    90.4426     5.1797     7.1623   140.0000     0.0000     6.0000   943.5051  2851.5625    28.4000    49.2825     0.0054    11.1793     1.3064   131.5780  3278.9046
09:37:08 30-Aug-08    44.4853       8.9151    90.3555     5.2669     6.1441   139.0000     0.0000     9.0000   943.5725  2851.5625    29.0000    49.2145     0.0054    11.1880     1.3066   130.3575  3278.9046
09:37:18 30-Aug-08    46.2469       8.9151    90.5254     5.0969     7.0221   139.0000     0.0000     9.0000   943.6207  2851.5625    29.0000    49.1664     0.0054    11.1880     1.3070   129.8558  3278.9046
09:37:28 30-Aug-08    46.2469       8.9151    90.4422     5.1802     7.4110   140.0000     0.0000     9.0000   943.6741  2851.5625    29.0000    49.1133     0.0060    11.2206     1.3066   130.3947  3278.9046
09:37:38 30-Aug-08    63.6408       8.9151    90.2834     5.3389     7.4110   140.0000     0.0000     9.0000   943.7427  2851.5625    29.0000    49.0448     0.0056    11.2206     1.3063   130.3947  3278.9046
09:37:48 30-Aug-08    63.6408       8.9151    90.4775     5.1449     5.9668   139.0000     0.0000     9.0000   943.7922  2851.5625    29.0000    48.9948     0.0056    11.2206     1.3064   131.1443  3278.9046
09:37:58 30-Aug-08    72.2608       8.9151    90.3982     5.2241     6.7452   141.0000     0.0000     9.0000   943.8432  2851.5625    29.0000    48.9439     0.0058    11.2739     1.3062   130.9058  3278.9046
09:38:08 30-Aug-08    72.2608       8.9151    90.4015     5.2209     6.0099   140.0000     0.0000     9.0000   943.9093  2851.5625    29.0000    48.8780     0.0054    11.2739     1.3063   130.7757  3278.9046
09:38:18 30-Aug-08    74.5013       8.9151    90.5062     5.1162     6.0099   140.0000     0.0000     9.0000   943.9602  2851.5625    29.0000    48.8271     0.0057    11.2739     1.3063   130.7757  3278.9046
09:38:28 30-Aug-08    74.5013       8.9151    90.4737     5.1486     5.8361   139.0000     0.0000     9.0000   944.0085  2851.5625    29.0000    48.7784     0.0057    11.4381     1.3072   130.5744  3278.9046
