~VERSION INFORMATION 
VERS  .    2.0                                     :CWLS Log ASCII Standard - VERSION2.0
WRAP  .    NO                                      :One Line per Time step
DLM   .    SPACE                                   :Column Data section Delimiter
PROD  .    Schlumberger Technology Corp.           :LAS Producer
PROG  .    Horizon LASWriter 1.1.8606.0            :LAS Program name and version
CREA  .    08/18/2009                              :LAS Creation date {MM/DD/YYYY}
#--------------------------------------------------
~WELL INFORMATION 
#MNEM           .UNIT                      DATA            :DESCRIPTION
#----            ------          --------------            -----------------------------
 STRT           .S               04:00:00/03-Jul-2009  :START TIME                          
 STOP           .S               11:00:00/04-Jul-2009  :STOP TIME                          
 STEP           .S                           0.00000       :STEP
NULL            .                       -999.25            :NULL VALUE
COMP            .                  StatoilHydro            :COMPANY
WELL            .                    15/9-F-9 A            :WELL NAME
FLD             .                         Volve            :FIELD NAME
RIGN            .                Maersk Inspirer           :Rig Name
RIGTYP          .                       Jack-up            :Rig Type
SON             .                     09SCA0196            :Service Order Number
SRVC            .                  Schlumberger            :SERVICE COMPANY
DATE            .                    07/03/2009            :LOG DATE{MM/DD/YYYY} (Composite Date for Composite LAP)
CLAB            .                       County:            :County Label
CNTY            .                       -999.25            :COUNTY
SLAB            .                       -999.25            :State/Province Label
STAT            .                       -999.25            :STATE or PROVINCE
PROV            .                       -999.25            :STATE or PROVINCE
CTRY            .                        Norway            :COUNTRY
CONT_REGION     .                        Europe            :Continent Region
SECT            .                       -999.25            :Section
TOWN            .                       -999.25            :Township
RANG            .                       -999.25            :Range
API             .                       -999.25            :API NUMBER
UWI             .                       -999.25            :UNIQUE WELL ID
LUL             .                  Weather Deck            :Logging Unit Location
LUN             .                Geoservices: 1010567      :Logging Unit Number
LOC             .                Norwegian North Sea       :FIELD LOCATION
FL1             .                Section: 12 1/4 in.       :Field Location Line 1
FL2             .                Job no.: 09SCA0196        :Field Location Line 2
LATI            .                58° 26' 29.74" N          :LATITUDE
LONG            .                  1° 53' 15" E            :LONGITUDE
PDAT            .                           MSL            :Local Permanent Datum
LMF             .                            DF            :Logging Measured From
APD             .M                      54.9000            :Elevation of Depth Reference (LMF) Above Permanent Datum
EPD             .M                       0.0000            :Elevation of Permanent Datum (PDAT) above Mean Sea Level
EKB             .M                      -999.25            :Elevation of Kelly Bushing Above Permanent Datum
EDF             .M                      54.9000            :Elevation of Drill Floor Above Permanent Datum
EGL             .M                     -91.0000            :Elevation of Ground Level Above Permanent Datum
ECF             .M                      -999.25            :Elevation of Casing Flange above Permanent Datum
#--------------------------------------------------
~CURVE INFORMATION
#MNEM           .UNIT                  API CODE            :DESCRIPTION
#----            ------          --------------            ----------------------------------------
 TIME           .S                                         :                                          Time Index(hh:mm  :ss/dd-MMM-yyyy)
DEPTH           .M                                         :(RT)    (DnMWorkflow)           (1)       Depth Index
ROP5            .M/HR                                      :(RT)                            (1)       Rate of penetration averaged over the last 5 ft (1.5 m)
GR              .GAPI                                      :(RT)    (TELE825-IWOB)          (1)       Gamma Ray
BLKP            .M                                         :(RT)                            (1)       Height of block above rig floor
PVEL            .M/HR                                      :(RT)                            (1)       Pipe Velocity
HKLA            .KKGF                                      :(RT)                            (1)       Average Hookload
SWOB            .KKGF                                      :(RT)                            (1)       Surface Weight On Bit
STOR            .kN.m                                      :(RT)                            (1)       Surface Torque
RPM             .RPM                                       :(RT)                            (1)       Rotational Speed
STICK           .RPM                                       :(RM)    (TELE825-IWOB)          (1)       Stick Slip Indicator
TFLO            .LPM                                       :(RT)                            (1)       Total flow rate of all active pumps
SPM1            .SD/M                                      :(RT)                            (1)       Pump 1 Stroke Rate
SPM2            .SD/M                                      :(RT)                            (1)       Pump 2 Stroke Rate
SPM3            .SD/M                                      :(RT)                            (1)       Pump 3 Stroke Rate
SPPA            .BAR                                       :(RT)                            (1)       Standpipe Pressure
AJAM            .                                          :(RT)    (TELE825-IWOB)          (1)       Number of Anti-Jams Detected
TRPM            .RPM                                       :(RT)    (TELE825-IWOB)          (1)       MWD Turbine Rotation Speed
SHKL            .                                          :(RT)    (TELE825-IWOB)          (1)       Tool Shock Level
SHKPK           .M/S2                                      :(RT)    (TELE825-IWOB)          (1)       Shock Peak
SHKR            .CPS                                       :(RT)    (TELE825-IWOB)          (1)       Shock Rate
SHKRSK          .                                          :(RT)    (TELE825-IWOB)          (1)       Shock Risk
#-------------------------------------------------------------
#          TIME          DEPTH           ROP5             GR           BLKP           PVEL           HKLA           SWOB           STOR            RPM          STICK           TFLO           SPM1           SPM2           SPM3           SPPA           AJAM           TRPM           SHKL          SHKPK           SHKR         SHKRSK 
#                 (DnMWorkflow)                 (TELE825-IWO)                                                                                            (TELE825-IWO)                                                                             (TELE825-IWO)  (TELE825-IWO)  (TELE825-IWO)  (TELE825-IWO)  (TELE825-IWO)  (TELE825-IWO)
#                           (1)            (1)            (1)            (1)            (1)            (1)            (1)            (1)            (1)            (1)            (1)            (1)            (1)            (1)            (1)            (1)            (1)            (1)            (1)            (1)            (1)
#                          (RT)           (RT)           (RT)           (RT)           (RT)           (RT)           (RT)           (RT)           (RT)           (RM)           (RT)           (RT)           (RT)           (RT)           (RT)           (RT)           (RT)           (RT)           (RT)           (RT)           (RT)
~ASCII 
# ...
10:08:00/03-Jul-2009       521.4312        -999.25       195.1481        41.3824        29.8142        96.1491         4.6952         0.1952        89.0000        -999.25      2961.0920        67.0000         0.0000        67.0000       103.0987        -999.25        -999.25        -999.25        -999.25        -999.25        -999.25
10:08:10/03-Jul-2009       521.5095        29.7720        -999.25        41.3044        29.6374        96.2359         4.7333         0.2056        89.0000        -999.25      2961.0920        67.0000         0.0000        67.0000       101.5203        -999.25        -999.25        -999.25        -999.25        -999.25        -999.25
10:08:20/03-Jul-2009       521.5959        -999.25        -999.25        41.2178        29.4161        96.1554         4.8123         0.1874        89.0000        -999.25      2961.0920        67.0000         0.0000        67.0000       102.1535        -999.25        -999.25        -999.25        -999.25        -999.25        -999.25
10:08:30/03-Jul-2009       521.6788        29.7607        -999.25        41.1348        29.8142        96.1519         4.5949         0.2058        89.0000        -999.25      2961.0920        67.0000         0.0000        67.0000       102.2555         0.0000      2617.1880        -999.25        -999.25        -999.25        -999.25
10:08:40/03-Jul-2009       521.7574        -999.25        -999.25        41.0563        29.7773        96.3373         4.5672         0.1979        89.0000        -999.25      2961.0920        67.0000         0.0000        67.0000       102.0300        -999.25        -999.25        -999.25         0.0000         0.0000         0.0000
10:08:50/03-Jul-2009       521.8445        29.7640       199.1718        40.9691        29.6020        96.5325         4.3801         0.1932        89.0000        -999.25      2961.0920        67.0000         0.0000        67.0000       100.1921        -999.25        -999.25        -999.25        -999.25        -999.25        -999.25
10:09:00/03-Jul-2009       521.9274        -999.25        -999.25        40.8865        30.0001        96.2075         4.5729         0.2037        89.0000        -999.25      2961.0920        67.0000         0.0000        67.0000       103.1821        -999.25        -999.25        -999.25        -999.25        -999.25        -999.25
10:09:10/03-Jul-2009       522.0060        29.7597        -999.25        40.8078        29.6743        96.1455         4.8140         0.2003        89.0000        -999.25      2961.0920        67.0000         0.0000        67.0000       103.0740        -999.25        -999.25        -999.25        -999.25        -999.25        -999.25
10:09:20/03-Jul-2009       522.0927        29.7548        -999.25        40.7211        29.9985        96.0048         4.9181         0.2003        89.0000        -999.25      2961.0920        67.0000         0.0000        67.0000       101.9960         0.0000      2578.1250        -999.25        -999.25        -999.25        -999.25
10:09:30/03-Jul-2009       522.1752        -999.25       185.0889        40.6386        29.6020        96.2661         4.5640         0.2148        89.0000        -999.25      2961.0920        67.0000         0.0000        67.0000       101.9095        -999.25        -999.25        -999.25         0.0000         0.0000         0.0000
10:09:40/03-Jul-2009       522.2539        29.7416        -999.25        40.5598        29.8141        96.0109         4.9464         0.1943        89.0000         0.0000      2961.0920        67.0000         0.0000        67.0000       101.4307        -999.25        -999.25        -999.25        -999.25        -999.25        -999.25
10:09:50/03-Jul-2009       522.3406        -999.25        -999.25        40.4731        29.8495        96.1392         4.7981         0.2160        89.0000        -999.25      2961.0920        67.0000         0.0000        67.0000       102.6107        -999.25        -999.25        -999.25        -999.25        -999.25        -999.25
10:10:00/03-Jul-2009       522.4221        29.7417        -999.25        40.3917        28.5493        96.1263         4.6621         0.2255        89.0000        -999.25      2961.0920        67.0000         0.0000        67.0000       101.7891        -999.25        -999.25        -999.25        -999.25        -999.25        -999.25
10:10:10/03-Jul-2009       522.4997        -999.25        -999.25        40.3139        29.1948        96.0370         4.8952         0.2366        89.0000        -999.25      2961.0920        67.0000         0.0000        67.0000       102.5365         0.0000      2617.1880        -999.25         0.0000         0.0000         0.0000
10:10:20/03-Jul-2009       522.5854        29.7161       189.1126        40.2282        29.0104        95.9656         4.9087         0.2268        89.0000        -999.25      2961.0920        67.0000         0.0000        67.0000       104.1489        -999.25        -999.25        -999.25        -999.25        -999.25        -999.25
10:10:30/03-Jul-2009       522.6609        -999.25        -999.25        40.1529        25.8294        96.2584         4.7291         0.2289        89.0000        -999.25      2961.0920        67.0000         0.0000        67.0000       100.6863        -999.25        -999.25        -999.25        -999.25        -999.25        -999.25
10:10:40/03-Jul-2009       522.7335        29.4595        -999.25        40.0799        26.8267        96.2502         4.6892         0.2348        89.0000        -999.25      2961.0920        67.0000         0.0000        67.0000       102.2369        -999.25        -999.25        -999.25        -999.25        -999.25        -999.25
10:10:50/03-Jul-2009       522.8125        -999.25        -999.25        40.0013        28.0992        96.2408         4.6432         0.2519        89.0000        -999.25      2961.0920        67.0000         0.0000        67.0000       102.8362        -999.25        -999.25        -999.25        -999.25        -999.25        -999.25
10:11:00/03-Jul-2009       522.8940        29.2708        -999.25        39.9198        29.6727        96.1134         4.7731         0.2768        89.0000        -999.25      2961.0920        67.0000         0.0000        67.0000       103.1821         0.0000      2617.1880        -999.25         0.0000         0.0000         0.0000
10:11:10/03-Jul-2009       522.9691        -999.25       205.2073        39.8445        28.3113        95.8742         5.1053         0.2116        89.0000        -999.25      2961.0920        67.0000         0.0000        67.0000       102.7929        -999.25        -999.25        -999.25        -999.25        -999.25        -999.25
10:11:20/03-Jul-2009       523.0485        29.0866        -999.25        39.7651        28.5417        96.0803         4.8011         0.2331        89.0000        -999.25      2961.0920        67.0000         0.0000        67.0000       103.0431        -999.25        -999.25        -999.25        -999.25        -999.25        -999.25
10:11:30/03-Jul-2009       523.1226        -999.25        -999.25        39.6910        25.8017        96.1130         4.7258         0.2622        89.0000        -999.25      2961.0920        67.0000         0.0000        67.0000       102.0979        -999.25        -999.25        -999.25        -999.25        -999.25        -999.25
10:11:40/03-Jul-2009       523.1858        28.6253        -999.25        39.6275        23.4967        96.1296         4.7218         0.2265        89.0000         0.0000      2961.0920        67.0000         0.0000        67.0000       101.6501         0.0000        -999.25        -999.25        -999.25        -999.25        -999.25
10:11:50/03-Jul-2009       523.2553        -999.25        -999.25        39.5581        23.5750        96.2838         4.5622         0.2157        89.0000        -999.25      2961.0920        67.0000         0.0000        67.0000       100.5906        -999.25      2617.1880        -999.25         0.0000         0.0000         0.0000
