~Version Information
VERS.             2.0 : CWLS log ASCII standard - Version 2.0
WRAP.             NO  : One line per depth step
#
~Well Information Block
#MNEM.UNIT                   Data Type:Information
#__________________________________________________________
  STRT.           21-SEP-2007 06:00:00 : START INDEX                   
  STOP.           21-SEP-2007 18:00:00 : STOP INDEX                    
  STEP.SEC           10.0000 : STEP                          
  NULL.              -999.25 : NULL VALUE                    
  COMP.              Statoil : COMPANY                       
  WELL.              15/9-F7 : WELL                          
   FLD.                Volve : FIELD                         
   LOC.                      : LOCATION                      
  PROV.                      : PROVINCE                      
  CNTY.                      : COUNTY                        
  STAT.                      : STATE                         
  CTRY.               Norway : COUNTRY                       
  SRVC.           Schlumberger : SERVICE COMPANY               
  DATE.           21-SEP-2007 04:03:39 : LOG DATE                      
   UWI.                      : UNIQUE WELL ID                
   API.                      : API NUMBER                    
#
~Curve Information Block
#MNEM.UNIT                     : Curve Description
#---------                     --------------------
TIME	    .HHMMSS	       : 
DATE	    .D		       : 
DEPT        .M                 : Bit Depth 2hz                                                   
ROP5        .M/HR              : 5ft ROP 2hz                                                     
BPOS        .M                 : Block Position 2hz                                              
BVEL        .M/S               : Block Velocity 2hz                                              
SWOB        .KKGF              : Surface Weight on Bit 2hz                                       
HKLD        .KKGF              : Measured Hookload 2hz                                           
TQA         .KMN               : SRF STOR 2hz                                                    
RPM         .RPM               : SRF SRPM 2hz                                                    
INCL_CONT_RT.DEG               : MWD Cont Inc 2hz                                                
Stick_RT    .RPM               : MWD PKtoPK RPM 2hz                                              
CRPM_RT     .RPM               : MWD CRPM 2hz                                                    
TFLO        .LPM               : HSPM Total Pump Flow 2hz                                        
TRPM_RT     .RPM               : MWD TUR_RPM 2hz                                                 
SPPA        .BAR               : SRF PUMPRS 2hz                                                  
SHKRSK_RT   .----              : MWD SHKRSK 2hz                                                  
SHKPK_RT    .G                 : MWD SHK_PK 2hz                                                  
GR          .GAPI              : MWD GR(TM) 2hz                                                  
#
~Parameter Information Block
#MNEM.UNIT                       Value:Description
#__________________________________________________________
#
~Other Information Block

#
~A TIME       DATE       DEPT       ROP5       BPOS       BVEL       SWOB       HKLD        TQA        RPM INCL_CONT_RT   Stick_RT    CRPM_RT       TFLO    TRPM_RT       SPPA  SHKRSK_RT   SHKPK_RT       GR
# ...
13:09:09 21-Sep-07    206.841    -999.25     20.810      0.003     -0.613     90.326      0.135    162.000        1.874     66.000     60.000   3500.452   2539.063     94.876      0.000     48.000      7.209
13:09:19 21-Sep-07    206.871    -999.25     20.780      0.003     -0.549     90.262      0.135    162.000        1.874     66.000     60.000   3500.452   2539.063     95.174      0.000     48.000      7.209
13:09:29 21-Sep-07    206.914    -999.25     20.738      0.004     -0.316     90.028      0.135    162.000        1.874     66.000     60.000   3500.452   2500.000     94.629      0.000     40.000      7.209
13:09:39 21-Sep-07    206.949    -999.25     20.702      0.004     -0.269     89.981      3.036    162.000        1.874     66.000     59.000   3500.452   2500.000     94.793      0.000     40.000      7.209
13:09:49 21-Sep-07    206.985     12.766     20.666      0.004     -0.253     89.965      3.036    162.000        1.874     63.000     59.000   3500.452   2500.000     94.983      0.000     40.000      7.209
13:09:59 21-Sep-07    207.033     12.766     20.618      0.004     -0.347     90.059      1.865    162.000        1.874     63.000     59.000   3500.452   2500.000     94.761      0.000     40.000      7.209
13:10:09 21-Sep-07    207.071     12.766     20.581      0.004     -0.435     90.147      1.865    162.000        1.874     63.000     59.000   3500.452   2539.063     94.618      0.000     40.000      7.209
13:10:19 21-Sep-07    207.108     12.766     20.544      0.004     -0.449     90.161      1.399    162.000        1.874     63.000     59.000   3500.452   2539.063     94.442      0.000     40.000      7.209
13:10:29 21-Sep-07    207.156     13.639     20.496      0.004     -0.377     90.089      1.399    162.000        1.874     63.000     58.000   3500.452   2539.063     94.694      0.000     40.000      7.209
13:10:39 21-Sep-07    207.192     13.639     20.459      0.004     -0.498     90.210      1.032    162.000        1.874     63.000     58.000   3500.452   2539.063     94.583      0.000     40.000      7.209
13:10:49 21-Sep-07    207.229     13.639     20.422      0.004     -0.355     90.067      1.032    162.000        1.874     63.000     58.000   3500.452   2539.063     94.533      0.000     40.000      7.209
13:10:59 21-Sep-07    207.278     14.597     20.374      0.004     -0.218     89.930      1.868    162.000        1.874     63.000     58.000   3500.452   2500.000     94.605      0.000     56.000      7.209
13:11:09 21-Sep-07    207.315     14.597     20.337      0.004     -0.556     90.268      0.891    161.000        1.874     63.000     58.000   3500.452   2500.000     94.766      0.000     56.000      4.806
13:11:19 21-Sep-07    207.352     14.597     20.299      0.004     -0.571     90.284      0.891    161.000        1.874     39.000     58.000   3500.452   2500.000     94.700      0.000     56.000      7.209
13:11:29 21-Sep-07    207.401     14.597     20.251      0.004     -0.596     90.309      1.951    162.000        1.874     39.000     58.000   3500.452   2500.000     94.519      0.000     56.000      7.209
13:11:39 21-Sep-07    207.437     14.615     20.214      0.004     -0.605     90.318      1.439    161.000        1.874     39.000     58.000   3500.452   2539.063     94.557      0.000     56.000      7.209
13:11:49 21-Sep-07    207.474     14.615     20.177      0.004     -0.631     90.344      1.919    161.000        1.874     39.000     58.000   3500.452   2539.063     94.440      0.000     56.000      7.209
13:11:59 21-Sep-07    207.524     14.615     20.128      0.004     -0.523     90.235      1.919    161.000        1.874     39.000     58.000   3500.452   2539.063     94.446      0.000     56.000      7.209
13:12:09 21-Sep-07    207.560     14.615     20.091      0.004     -0.351     90.063      1.672    162.000        1.874     48.000     58.000   3500.452   2539.063     94.520      0.000     56.000      7.209
13:12:19 21-Sep-07    207.597     14.676     20.055      0.004     -0.429     90.141      1.672    162.000        1.874     48.000     58.000   3500.452   2539.063     94.518      0.000     56.000      7.209
13:12:29 21-Sep-07    207.660     14.676     19.992      0.005     -0.724     90.437      2.022    162.000        1.874     48.000     58.000   3500.452   2539.063     94.663      0.000     56.000      7.209
13:12:39 21-Sep-07    207.708     14.676     19.944      0.005     -0.484     90.197      1.269    161.000        1.874     48.000     59.000   3500.452   2539.063     94.625      0.000     56.000      7.209
13:12:49 21-Sep-07    207.752     16.203     19.899      0.005     -0.561     90.274      1.269    161.000        1.874     48.000     59.000   3500.452   2539.063     94.340      0.000     56.000      7.209
13:12:59 21-Sep-07    207.813     16.203     19.839      0.005     -0.506     90.218      0.861    163.000        1.874     33.000     59.000   3500.452   2539.063     94.451      0.000     56.000      7.209
13:13:09 21-Sep-07    207.859     16.203     19.793      0.005     -0.462     90.174      1.491    161.000        1.874     33.000     59.000   3500.452   2539.063     94.430      0.000     56.000      7.209
13:13:19 21-Sep-07    207.907     18.152     19.745      0.005     -0.531     90.244      2.339    162.000        1.874     33.000     59.000   3500.452   2539.063     94.425      0.000     72.000      7.209
13:13:29 21-Sep-07    207.968     18.152     19.684      0.005     -0.503     90.216      2.339    162.000        1.874     33.000     58.000   3500.452   2539.063     94.314      0.000     72.000      9.612
13:13:39 21-Sep-07    208.012     18.152     19.639      0.005     -0.528     90.240      1.457    161.000        1.874     33.000     58.000   3500.452   2539.063     94.412      0.000     72.000      7.209
13:13:49 21-Sep-07    208.059     18.294     19.593      0.005     -0.440     90.152      1.457    161.000        1.874     33.000     58.000   3500.452   2539.063     94.524      0.000     72.000      7.209
13:13:59 21-Sep-07    208.122     18.294     19.530      0.005     -0.496     90.209      3.134    162.000        1.874     33.000     58.000   3500.452   2539.063     94.608      0.000     56.000      2.403
13:14:09 21-Sep-07    208.169     18.294     19.483      0.005     -0.629     90.341      1.253    161.000        1.874     33.000     58.000   3500.452   2539.063     94.277      0.000     56.000      4.806
13:14:19 21-Sep-07    208.215     18.530     19.437      0.005     -0.344     90.057      1.253    161.000        1.874     33.000     58.000   3500.452   2539.063     94.264      0.000     56.000      4.806
13:14:29 21-Sep-07    208.273     18.530     19.379      0.005     -0.515     90.228      2.571    162.000        1.874     30.000     58.000   3500.452   2539.063     94.374      0.000     56.000      7.209
13:14:39 21-Sep-07    208.320     18.530     19.332      0.005     -0.544     90.257      1.348    161.000        1.874     30.000     58.000   3500.452   2539.063     94.577      0.000     56.000      7.209
13:14:49 21-Sep-07    208.366     16.016     19.286      0.005     -0.306     90.018      1.528    162.000        1.874     30.000     58.000   3500.452   2500.000     94.411      0.000     48.000      7.209
13:14:59 21-Sep-07    208.429     16.016     19.223      0.005     -0.638     90.351      1.528    162.000        1.874     30.000     58.000   3500.452   2500.000     94.655      0.000     48.000      7.209
13:15:09 21-Sep-07    208.478     16.016     19.174      0.005     -0.515     90.227      2.613    162.000        1.874     48.000     58.000   3500.452   2500.000     94.592      0.000     48.000      7.209
13:15:19 21-Sep-07    208.526     16.700     19.126      0.005     -0.382     90.094      2.613    162.000        1.874     48.000     58.000   3500.452   2500.000     95.124      0.000     48.000      7.209
13:15:29 21-Sep-07    208.592     16.700     19.060      0.005      0.008     89.705      0.793    162.000        1.874     48.000     58.000   3500.452   2500.000     95.673      0.000     48.000      7.209
