~Version Information
VERS.             2.0 : CWLS log ASCII standard - Version 2.0
WRAP.             NO  : One line per depth step
#
~Well Information Block
#MNEM.UNIT                   Data Type:Information
#__________________________________________________________
  STRT.           21-SEP-2007 06:00:00 : START INDEX                   
  STOP.           21-SEP-2007 18:00:00 : STOP INDEX                    
  STEP.SEC           10.0000 : STEP                          
  NULL.              -999.25 : NULL VALUE                    
  COMP.              Statoil : COMPANY                       
  WELL.              15/9-F7 : WELL                          
   FLD.                Volve : FIELD                         
   LOC.                      : LOCATION                      
  PROV.                      : PROVINCE                      
  CNTY.                      : COUNTY                        
  STAT.                      : STATE                         
  CTRY.               Norway : COUNTRY                       
  SRVC.           Schlumberger : SERVICE COMPANY               
  DATE.           21-SEP-2007 04:03:39 : LOG DATE                      
   UWI.                      : UNIQUE WELL ID                
   API.                      : API NUMBER                    
#
~Curve Information Block
#MNEM.UNIT                     : Curve Description
#---------                     --------------------
TIME	    .HHMMSS	       : 
DATE	    .D		       : 
DEPT        .M                 : Bit Depth 2hz                                                   
ROP5        .M/HR              : 5ft ROP 2hz                                                     
BPOS        .M                 : Block Position 2hz                                              
BVEL        .M/S               : Block Velocity 2hz                                              
SWOB        .KKGF              : Surface Weight on Bit 2hz                                       
HKLD        .KKGF              : Measured Hookload 2hz                                           
TQA         .KMN               : SRF STOR 2hz                                                    
RPM         .RPM               : SRF SRPM 2hz                                                    
INCL_CONT_RT.DEG               : MWD Cont Inc 2hz                                                
Stick_RT    .RPM               : MWD PKtoPK RPM 2hz                                              
CRPM_RT     .RPM               : MWD CRPM 2hz                                                    
TFLO        .LPM               : HSPM Total Pump Flow 2hz                                        
TRPM_RT     .RPM               : MWD TUR_RPM 2hz                                                 
SPPA        .BAR               : SRF PUMPRS 2hz                                                  
SHKRSK_RT   .----              : MWD SHKRSK 2hz                                                  
SHKPK_RT    .G                 : MWD SHK_PK 2hz                                                  
GR          .GAPI              : MWD GR(TM) 2hz                                                  
#
~Parameter Information Block
#MNEM.UNIT                       Value:Description
#__________________________________________________________
#
~Other Information Block

#
~A TIME       DATE       DEPT       ROP5       BPOS       BVEL       SWOB       HKLD        TQA        RPM INCL_CONT_RT   Stick_RT    CRPM_RT       TFLO    TRPM_RT       SPPA  SHKRSK_RT   SHKPK_RT       GR
# ...
14:46:39 21-Sep-07    214.414     23.955     13.237      0.000     -0.082     89.794     -3.430      2.000      -999.25    -999.25    -999.25     88.619    -999.25      4.311    -999.25    -999.25    -999.25
14:46:49 21-Sep-07    214.414     23.955     13.237      0.000     -0.052     89.765     -3.430      2.000      -999.25    -999.25    -999.25     88.619    -999.25      3.667    -999.25    -999.25    -999.25
14:46:59 21-Sep-07    214.414     23.955     13.237      0.000     -0.014     89.726     -3.389      2.000      -999.25    -999.25    -999.25     88.619    -999.25      3.037    -999.25    -999.25    -999.25
14:47:09 21-Sep-07    214.414     23.955     13.237      0.000     -0.059     89.771     -2.390      2.000      -999.25    -999.25    -999.25     88.619    -999.25      2.937    -999.25    -999.25    -999.25
14:47:19 21-Sep-07    214.414     23.955     13.237      0.000     -0.129     89.841     -2.390      2.000      -999.25    -999.25    -999.25     88.619    -999.25      2.887    -999.25    -999.25    -999.25
14:47:29 21-Sep-07    214.414     23.955     13.237      0.000     -0.082     89.795     -3.496      0.000      -999.25    -999.25    -999.25      0.000    -999.25      2.853    -999.25    -999.25    -999.25
14:47:39 21-Sep-07    214.414     23.955     13.237      0.000     -0.056     89.768     -2.100      0.000      -999.25    -999.25    -999.25      0.000    -999.25      2.839    -999.25    -999.25    -999.25
14:47:49 21-Sep-07    214.414     23.955     13.237      0.000     -0.066     89.779     -3.462      0.000      -999.25    -999.25    -999.25      0.000    -999.25      2.828    -999.25    -999.25    -999.25
14:47:59 21-Sep-07    214.414     23.955     13.237      0.000     -0.061     89.774     -3.462      0.000      -999.25    -999.25    -999.25      0.000    -999.25      2.817    -999.25    -999.25    -999.25
14:48:09 21-Sep-07    214.414     23.955     13.237      0.000     -0.035     89.747     -3.428      0.000      -999.25    -999.25    -999.25      0.000    -999.25      2.811    -999.25    -999.25    -999.25
14:48:19 21-Sep-07    214.414     23.955     13.237      0.000     -0.126     89.838     -3.428      0.000      -999.25    -999.25    -999.25      0.000    -999.25      2.808    -999.25    -999.25    -999.25
14:48:29 21-Sep-07    214.414     23.955     13.237      0.000     -0.073     89.785     -3.458      0.000      -999.25    -999.25    -999.25      0.000    -999.25      3.160    -999.25    -999.25    -999.25
14:48:39 21-Sep-07    214.414     23.955     13.237      0.000     -0.136     89.848     -1.649      0.000      -999.25    -999.25    -999.25      0.000    -999.25     12.732    -999.25    -999.25    -999.25
14:48:49 21-Sep-07    214.414     23.955     13.237      0.000     -0.025     89.737     -1.649      0.000      -999.25    -999.25    -999.25      0.000    -999.25     12.475    -999.25    -999.25    -999.25
14:48:59 21-Sep-07    214.414     23.955     13.237      0.000      0.018     89.694     -3.508     38.000      -999.25    -999.25    -999.25      0.000    -999.25     17.097    -999.25    -999.25    -999.25
14:49:09 21-Sep-07    214.414     23.955     13.237      0.000      0.044     89.669     -1.216      0.000      -999.25    -999.25    -999.25      0.000    -999.25     42.634    -999.25    -999.25    -999.25
14:49:19 21-Sep-07    214.414     23.955     13.237      0.000      0.089     89.623     -3.458     41.000      -999.25    -999.25    -999.25      0.000    -999.25     59.356    -999.25    -999.25    -999.25
14:49:29 21-Sep-07    214.414     23.955     13.237      0.000      0.009     89.703     -3.458     41.000      -999.25    -999.25    -999.25      0.000    -999.25     69.746    -999.25    -999.25    -999.25
14:49:39 21-Sep-07    214.414     23.955     13.237      0.000      0.078     89.634     -3.425     89.000      -999.25    -999.25    -999.25      0.000    -999.25     72.559    -999.25    -999.25    -999.25
14:49:49 21-Sep-07    214.414     23.955     13.237      0.000      0.014     89.698     -3.425     89.000      -999.25    -999.25    -999.25      0.000    -999.25     72.605    -999.25    -999.25    -999.25
14:49:59 21-Sep-07    214.414     23.955     13.237      0.000      0.042     89.671     -3.163     89.000      -999.25    -999.25    -999.25   3057.357    -999.25     72.995    -999.25    -999.25    -999.25
14:50:09 21-Sep-07    214.414     23.955     13.237      0.000     -0.015     89.727     -0.662     37.000      -999.25    -999.25    -999.25   3057.357    -999.25     72.749    -999.25    -999.25    -999.25
14:50:19 21-Sep-07    214.414     23.955     13.237      0.000      0.044     89.669     -0.662     37.000      -999.25    -999.25    -999.25    664.643    -999.25     73.011    -999.25    -999.25    -999.25
14:50:29 21-Sep-07    214.414     23.955     13.237      0.000     -0.018     89.731     -3.203     89.000      -999.25    -999.25    -999.25   3057.357    -999.25     53.244    -999.25    -999.25    -999.25
14:50:39 21-Sep-07    214.414     23.955     13.237      0.000     -0.226     89.938     -0.488     37.000      -999.25    -999.25    -999.25   3057.357    -999.25      2.432    -999.25    -999.25    -999.25
14:50:49 21-Sep-07    214.414     23.955     13.237      0.000     -0.155     89.867     -3.161     89.000      -999.25    -999.25    -999.25    731.107    -999.25      2.173    -999.25    -999.25    -999.25
14:50:59 21-Sep-07    214.414     23.955     13.237      0.000     -0.174     89.886     -3.161     89.000      -999.25    -999.25    -999.25    731.107    -999.25      1.630    -999.25    -999.25    -999.25
14:51:09 21-Sep-07    214.414     23.955     13.237      0.000     -0.140     89.852     -3.212      0.000      -999.25    -999.25    -999.25      0.000    -999.25      1.318    -999.25    -999.25    -999.25
14:51:19 21-Sep-07    214.414     23.955     13.237      0.000     -0.180     89.893     -3.212      0.000      -999.25    -999.25    -999.25      0.000    -999.25      1.129    -999.25    -999.25    -999.25
14:51:29 21-Sep-07    214.414     23.955     13.237      0.000     -0.114     89.826     -3.196      0.000      -999.25    -999.25    -999.25      0.000    -999.25      1.138    -999.25    -999.25    -999.25
14:51:39 21-Sep-07    214.414     23.955     13.237      0.000     -0.099     89.812     -0.265      0.000      -999.25    -999.25    -999.25      0.000    -999.25      1.139    -999.25    -999.25    -999.25
14:51:49 21-Sep-07    214.414     23.955     13.237      0.000     -0.151     89.863     -0.265      0.000      -999.25    -999.25    -999.25      0.000    -999.25      1.148    -999.25    -999.25    -999.25
14:51:59 21-Sep-07    214.414     23.955     13.237      0.000     -0.045     89.758     -3.239      0.000      -999.25    -999.25    -999.25      0.000    -999.25      1.148    -999.25    -999.25    -999.25
14:52:09 21-Sep-07    214.414     23.955     13.237      0.000     -0.063     89.776     -0.196      0.000      -999.25    -999.25    -999.25      0.000    -999.25      1.154    -999.25    -999.25    -999.25
14:52:19 21-Sep-07    214.414     23.955     13.237      0.000     -0.087     89.799     -3.144      0.000      -999.25    -999.25    -999.25      0.000    -999.25      1.154    -999.25    -999.25    -999.25
14:52:29 21-Sep-07    214.414     23.955     13.237      0.000     -0.025     89.737     -3.144      0.000      -999.25    -999.25    -999.25      0.000    -999.25      1.156    -999.25    -999.25    -999.25
14:52:39 21-Sep-07    214.414     23.955     13.237      0.000     -0.071     89.784     -3.194      0.000      -999.25    -999.25    -999.25      0.000    -999.25      1.159    -999.25    -999.25    -999.25
14:52:49 21-Sep-07    214.414     23.955     13.237      0.000     -0.044     89.756     -3.194      0.000      -999.25    -999.25    -999.25      0.000    -999.25      1.160    -999.25    -999.25    -999.25
14:52:59 21-Sep-07    214.414     23.955     13.237      0.000     -0.022     89.735     -3.192      0.000      -999.25    -999.25    -999.25      0.000    -999.25      1.161    -999.25    -999.25    -999.25
