~Version Information
VERS.             2.0 : CWLS log ASCII standard - Version 2.0
WRAP.             NO  : One line per depth step
#
~Well Information Block
#MNEM.UNIT                   Data Type:Information
#__________________________________________________________
  STRT.           30-AUG-2008 00:00:00 : START INDEX                   
  STOP.           30-AUG-2008 18:00:00 : STOP INDEX                    
  STEP.SEC           10.0000 : STEP                          
  NULL.              -999.25 : NULL VALUE                    
  COMP.           StatoilHydro : COMPANY                       
  WELL.             15/9-F-9 : WELL                          
   FLD.                Volve : FIELD                         
   LOC.           Norwegian North Sea : LOCATION                      
  PROV.                      : PROVINCE                      
  CNTY.               Norway : COUNTY                        
  STAT.           Maersk Inspirer : RIG                           
  CTRY.                      : COUNTRY                       
  SRVC.           Schlumberger D&M : SERVICE COMPANY               
  DATE.           29-AUG-2008 09:22:08 : LOG DATE                      
   UWI.                      : UNIQUE WELL ID                
   API.                      : API NUMBER                    
#
~Curve Information Block
#MNEM.UNIT                     : Curve Description
#---------                     --------------------
TIME	    .HHMMSS	       : 
DATE	    .D		       : 
GR          .GAPI              : ARC Gamma Ray, Real-Time                                        
INCL_CONT_RT.DEG               : MWD Cont Inc 2hz                                                
HKLD        .KKGF              : Measured Hookload 2hz                                           
SWOB        .KKGF              : Surface Weight on Bit 2hz                                       
TQA         .KMN               : SRF STOR 2hz                                                    
RPM         .RPM               : SRF SRPM 2hz                                                    
SHKRSK_RT   .----              : MWD SHKRSK 2hz                                                  
Stick_RT    .RPM               : MWD PKtoPK RPM 2hz                                              
DEPT        .M                 : Bit Depth 2hz                                                   
TRPM_RT     .RPM               : MWD TUR_RPM 2hz                                                 
ATMP        .DEGC              : ARC Annular Temperature                                         
BPOS        .M                 : Block Position 2hz                                              
BVEL        .M/S               : Block Velocity 2hz                                              
ROP5        .M/HR              : 5ft ROP 2hz                                                     
ECD_ARC     .G/C3              : Equivalent Circulating Density                                  
SPPA        .BAR               : SRF PUMPRS 2hz                                                  
TFLO        .LPM               : HSPM Total Pump Flow 2hz                                        
#
~Parameter Information Block
#MNEM.UNIT                       Value:Description
#__________________________________________________________
#
~Other Information Block

#
~A TIME       DATE     GR    INCL_CONT_RT       HKLD       SWOB        TQA        RPM  SHKRSK_RT   Stick_RT       DEPT    TRPM_RT       ATMP       BPOS       BVEL       ROP5    ECD_ARC       SPPA       TFLO
# ...
01:11:38 30-Aug-08    -999.25      10.6018    93.6940     0.0808     6.1373    65.0000     0.0000    93.0000   899.1354  2695.3125    19.0000    12.4486     0.0028    -999.25     1.0390    95.7184  3101.6666
01:11:48 30-Aug-08    -999.25      10.6018    93.7853    -0.0105     6.1373    65.0000     0.0000    93.0000   899.1603  2695.3125    19.0000    12.4236     0.0028    -999.25     1.0389    95.7184  3101.6666
01:11:58 30-Aug-08    -999.25      10.6018    93.6198     0.1549     3.9779    65.0000     0.0000    93.0000   899.1934  2695.3125    19.0000    12.3903     0.0028    -999.25     1.0389    96.1861  3101.6666
01:12:08 30-Aug-08    -999.25      10.6018    93.0802     0.6946     6.7538    64.0000     0.0000    93.0000   899.2183  2695.3125    19.0000    12.3654     0.0028    -999.25     1.0385    94.4422  3101.6666
01:12:18 30-Aug-08    -999.25      10.6018    91.8061     1.9687     6.7538    64.0000     0.0000    87.0000   899.2423  2695.3125    19.0000    12.3414     0.0027    -999.25     1.0384    94.4422  3101.6666
01:12:28 30-Aug-08    -999.25      10.6018    91.0809     2.6939     6.1221    64.0000     0.0000    87.0000   899.2656  2695.3125    19.0000    12.3181     0.0019    -999.25     1.0391    93.7391  3101.6666
01:12:38 30-Aug-08    -999.25      10.6018    90.8150     2.9598     6.0194    65.0000     0.0000    87.0000   899.2829  2695.3125    19.0000    12.3009     0.0019    -999.25     1.0393    94.6126  3101.6666
01:12:48 30-Aug-08    -999.25      10.6018    90.8531     2.9217     5.1265    64.0000     0.0000    87.0000   899.2983  2695.3125    19.0000    12.2853     0.0017    -999.25     1.0388    95.0060  3101.6666
01:12:58 30-Aug-08    -999.25      10.6018    90.5740     3.2008     5.7615    65.0000     0.0000    99.0000   899.3213  2695.3125    19.0000    12.2624     0.0019    -999.25     1.0387    94.1604  3101.6666
01:13:08 30-Aug-08    -999.25      10.6018    90.5573     3.2174     5.7615    65.0000     0.0000    99.0000   899.3375  2695.3125    19.0000    12.2464     0.0018    -999.25     1.0387    94.1604  3101.6666
01:13:18 30-Aug-08    -999.25      10.6018    90.9238     2.8510     5.6588    65.0000     0.0000    99.0000   899.3550  2695.3125    19.0000    12.2285     0.0020    -999.25     1.0387    95.3715  3101.6666
01:13:28 30-Aug-08    -999.25      10.6018    90.7701     3.0046     5.5290    65.0000     0.0000    99.0000   899.3783  2695.3125    19.0000    12.2053     0.0020    -999.25     1.0390    95.3560  3101.6666
01:13:38 30-Aug-08    -999.25      10.6018    91.0029     2.7719     5.5290    65.0000     0.0000    90.0000   899.3952  2695.3125    19.0000    12.1885     0.0018    -999.25     1.0391    95.3560  3101.6666
01:13:48 30-Aug-08    -999.25      10.6018    90.7410     3.0338     5.7199    65.0000     0.0000    90.0000   899.4120  2695.3125    19.0000    12.1716     0.0019    -999.25     1.0393    95.7401  3101.6666
01:13:58 30-Aug-08    -999.25      10.7561    90.6925     3.0822     6.4906    64.0000     0.0000    90.0000   899.4347  2695.3125    19.0000    12.1490     0.0019    -999.25     1.0399    94.7985  3101.6666
01:14:08 30-Aug-08    -999.25      10.7561    90.9221     2.8527     5.5937    64.0000     0.0000    90.0000   899.4513  2695.3125    19.0000    12.1325     0.0018    -999.25     1.0391    95.5078  3101.6666
01:14:18 30-Aug-08    -999.25      10.7561    90.8030     2.9717     5.5937    64.0000     0.0000    90.0000   899.4698  2695.3125    19.0000    12.1140     0.0021    -999.25     1.0389    95.5078  3101.6666
01:14:28 30-Aug-08    -999.25      10.7561    91.1348     2.6399     7.1084    64.0000     0.0000    90.0000   899.4927  2695.3125    19.0000    12.0911     0.0020    -999.25     1.0390    95.4489  3101.6666
01:14:38 30-Aug-08    -999.25      10.7561    91.1230     2.6518     5.6053    64.0000     0.0000    90.0000   899.5129  2695.3125    19.0000    12.0709     0.0023    -999.25     1.0385    95.5790  3101.6666
01:14:48 30-Aug-08    -999.25      10.7561    91.0793     2.6955     6.7189    65.0000     0.0000    78.0000   899.5315  2695.3125    19.0000    12.0522     0.0021    -999.25     1.0385    95.6410  3101.6666
01:14:58 30-Aug-08    -999.25      10.7561    90.7228     3.0519     6.7189    65.0000     0.0000    78.0000   899.5545  2695.3125    19.0000    12.0291     0.0020    -999.25     1.0385    95.6410  3101.6666
01:15:08 30-Aug-08    -999.25      10.6018    91.0194     2.7554     7.2687    65.0000     0.0000    78.0000   899.5731  2695.3125    19.0000    12.0106     0.0020    -999.25     1.0385    94.7768  3101.6666
01:15:18 30-Aug-08    -999.25      10.6018    90.9643     2.8105     6.0068    64.0000     0.0000    78.0000   899.5906  2695.3125    19.0000    11.9931     0.0019    -999.25     1.0387    94.9255  3101.6666
01:15:28 30-Aug-08    -999.25      10.6018    91.0820     2.6928     7.0658    64.0000     0.0000    78.0000   899.6149  2695.3125    19.0000    11.9688     0.0021    -999.25     1.0389    95.1763  3101.6666
01:15:38 30-Aug-08    -999.25      10.6018    90.9110     2.8638     7.0658    64.0000     0.0000    78.0000   899.6314  2695.3125    19.0000    11.9522     0.0018    -999.25     1.0387    95.1763  3101.6666
01:15:48 30-Aug-08    -999.25      10.6018    90.6792     3.0955     5.5016    64.0000     0.0000    78.0000   899.6480  2695.3125    19.0000    11.9357     0.0018    -999.25     1.0385    94.6622  3101.6666
01:15:58 30-Aug-08    -999.25      10.6018    90.6939     3.0808     5.0884    65.0000     0.0000    93.0000   899.6706  2695.3125    19.0000    11.9130     0.0020    -999.25     1.0379    95.7649  3101.6666
01:16:08 30-Aug-08    -999.25      10.6018    90.8816     2.8932     4.4020    65.0000     0.0000    93.0000   899.6878  2695.3125    19.0000    11.8956     0.0018    -999.25     1.0383    95.8361  3101.6666
01:16:18 30-Aug-08    -999.25      10.6018    90.8081     2.9667     4.4020    65.0000     0.0000    93.0000   899.7061  2695.3125    19.0000    11.8776     0.0020    -999.25     1.0380    95.8361  3101.6666
01:16:28 30-Aug-08    -999.25      10.6018    91.1509     2.6238     6.6650    64.0000     0.0000    93.0000   899.7293  2695.3125    19.0000    11.8544     0.0019    -999.25     1.0378    95.0772  3101.6666
01:16:38 30-Aug-08    -999.25      10.6018    90.9603     2.8145     4.9510    64.0000     0.0000   171.0000   899.7462  2695.3125    19.0000    11.8376     0.0019    -999.25     1.0383    94.8077  3101.6666
01:16:48 30-Aug-08    -999.25      10.6018    91.0988     2.6760     4.9510    64.0000     0.0000   171.0000   899.7651  2695.3125    19.0000    11.8184     0.0021    -999.25     1.0382    94.8077  3101.6666
01:16:58 30-Aug-08    -999.25      10.6018    90.7057     3.0691     6.5631    65.0000     0.0000   171.0000   899.7881  2695.3125    19.0000    11.7957     0.0019    -999.25     1.0382    94.2440  3101.6666
01:17:08 30-Aug-08    -999.25      10.6018    90.4636     3.3111     5.7488    65.0000     0.0000   171.0000   899.8032  2695.3125    19.0000    11.7803     0.0018    -999.25     1.0379    94.3524  3101.6666
01:17:18 30-Aug-08    -999.25      10.6018    90.4196     3.3551     5.3031    65.0000     0.0000   144.0000   899.8167  2695.3125    19.0000    11.7666     0.0015    -999.25     1.0374    94.8325  3101.6666
01:17:28 30-Aug-08    -999.25      10.6018    90.4729     3.3019     6.1755    65.0000     0.0000   144.0000   899.8360  2695.3125    19.0000    11.7475     0.0016    -999.25     1.0374    95.6967  3101.6666
01:17:38 30-Aug-08    -999.25      10.6018    90.6568     3.1180     6.1755    65.0000     0.0000   144.0000   899.8497  2695.3125    19.0000    11.7337     0.0016    -999.25     1.0373    95.6967  3101.6666
01:17:48 30-Aug-08    -999.25      10.6018    91.1973     2.5775     5.2124    65.0000     0.0000   144.0000   899.8660  2695.3125    19.0000    11.7175     0.0017    -999.25     1.0376    93.7639  3101.6666
01:17:58 30-Aug-08    -999.25      10.6018    91.1022     2.6726     6.1585    64.0000     0.0000    81.0000   899.8910  2695.3125    19.0000    11.6927     0.0020    -999.25     1.0381    94.9750  3101.6666
