~Version Information
VERS.             2.0 : CWLS log ASCII standard - Version 2.0
WRAP.             NO  : One line per depth step
#
~Well Information Block
#MNEM.UNIT                   Data Type:Information
#__________________________________________________________
  STRT.           21-SEP-2007 06:00:00 : START INDEX                   
  STOP.           21-SEP-2007 18:00:00 : STOP INDEX                    
  STEP.SEC           10.0000 : STEP                          
  NULL.              -999.25 : NULL VALUE                    
  COMP.              Statoil : COMPANY                       
  WELL.              15/9-F7 : WELL                          
   FLD.                Volve : FIELD                         
   LOC.                      : LOCATION                      
  PROV.                      : PROVINCE                      
  CNTY.                      : COUNTY                        
  STAT.                      : STATE                         
  CTRY.               Norway : COUNTRY                       
  SRVC.           Schlumberger : SERVICE COMPANY               
  DATE.           21-SEP-2007 04:03:39 : LOG DATE                      
   UWI.                      : UNIQUE WELL ID                
   API.                      : API NUMBER                    
#
~Curve Information Block
#MNEM.UNIT                     : Curve Description
#---------                     --------------------
TIME	    .HHMMSS	       : 
DATE	    .D		       : 
DEPT        .M                 : Bit Depth 2hz                                                   
ROP5        .M/HR              : 5ft ROP 2hz                                                     
BPOS        .M                 : Block Position 2hz                                              
BVEL        .M/S               : Block Velocity 2hz                                              
SWOB        .KKGF              : Surface Weight on Bit 2hz                                       
HKLD        .KKGF              : Measured Hookload 2hz                                           
TQA         .KMN               : SRF STOR 2hz                                                    
RPM         .RPM               : SRF SRPM 2hz                                                    
INCL_CONT_RT.DEG               : MWD Cont Inc 2hz                                                
Stick_RT    .RPM               : MWD PKtoPK RPM 2hz                                              
CRPM_RT     .RPM               : MWD CRPM 2hz                                                    
TFLO        .LPM               : HSPM Total Pump Flow 2hz                                        
TRPM_RT     .RPM               : MWD TUR_RPM 2hz                                                 
SPPA        .BAR               : SRF PUMPRS 2hz                                                  
SHKRSK_RT   .----              : MWD SHKRSK 2hz                                                  
SHKPK_RT    .G                 : MWD SHK_PK 2hz                                                  
GR          .GAPI              : MWD GR(TM) 2hz                                                  
#
~Parameter Information Block
#MNEM.UNIT                       Value:Description
#__________________________________________________________
#
~Other Information Block

#
~A TIME       DATE       DEPT       ROP5       BPOS       BVEL       SWOB       HKLD        TQA        RPM INCL_CONT_RT   Stick_RT    CRPM_RT       TFLO    TRPM_RT       SPPA  SHKRSK_RT   SHKPK_RT       GR
# ...
11:31:39 21-Sep-07    201.145    -999.25     27.163     -0.014      1.101     88.612      1.681    162.000        1.874    330.000     58.000   3500.452   2539.063     94.892      0.000     56.000      4.806
11:31:49 21-Sep-07    201.014    -999.25     27.293     -0.015      1.073     88.639      1.681    162.000        1.874    330.000     58.000   3500.452   2539.063     95.030      0.000     56.000      4.806
11:31:59 21-Sep-07    200.840    -999.25     27.468     -0.015      0.986     88.726      1.681    162.000        1.874    330.000     58.000   3500.452   2539.063     94.897      0.000     56.000      2.403
11:32:09 21-Sep-07    200.710    -999.25     27.598     -0.014      0.978     88.735      2.617     92.000        1.874    330.000     58.000   3057.357   2539.063     94.505      0.000     72.000      2.403
11:32:19 21-Sep-07    200.578    -999.25     27.729     -0.015      1.033     88.679      2.617     92.000        1.874    330.000     57.000   3057.357   2539.063     94.740      0.000     72.000      2.403
11:32:29 21-Sep-07    200.404    -999.25     27.903     -0.015      1.109     88.604      0.149    162.000        1.874    213.000     57.000   3057.357   2539.063     94.708      0.000     72.000      4.806
11:32:39 21-Sep-07    200.453    -999.25     27.860      0.001     -1.049     90.762      1.930     92.000        1.874    213.000     57.000   3057.357   2539.063     94.489      0.000     72.000      4.806
11:32:49 21-Sep-07    200.530    -999.25     27.783      0.009     -0.811     90.523      0.740    162.000        1.874    213.000     57.000   3057.357   2539.063     94.471      0.000     88.000      4.806
11:32:59 21-Sep-07    200.633    -999.25     27.680      0.009     -0.978     90.690      0.740    162.000        1.874    213.000     58.000   3057.357   2539.063     94.378      0.000     88.000      4.806
11:33:09 21-Sep-07    200.710    -999.25     27.602      0.009     -0.755     90.467      1.189    162.000        1.874    213.000     58.000   3057.357   2539.063     94.667      0.000     88.000      4.806
11:33:19 21-Sep-07    200.787    -999.25     27.526      0.009     -0.914     90.626      1.189    162.000        1.874    381.000     58.000   3057.357   2539.063     94.513      0.000     88.000      7.209
11:33:29 21-Sep-07    200.890    -999.25     27.423      0.009     -1.047     90.759      1.189    162.000        1.874    381.000     58.000   3500.452   2539.063     94.694      0.000     88.000      7.209
11:33:39 21-Sep-07    200.967    -999.25     27.346      0.009     -0.715     90.427      1.050     94.000        1.874    381.000     58.000   3500.452   2539.063     94.693      0.000     64.000      7.209
11:33:49 21-Sep-07    201.045    -999.25     27.268      0.009     -0.847     90.559      1.050     94.000        1.874    381.000     54.000   3500.452   2539.063     94.603      0.000     64.000      7.209
11:33:59 21-Sep-07    201.147    -999.25     27.166      0.009     -0.825     90.538     -0.255    161.000        1.874    381.000     54.000   3500.452   2539.063     94.936      0.000     64.000      7.209
11:34:09 21-Sep-07    201.224    -999.25     27.089      0.009     -0.936     90.648      1.016     94.000        1.874    381.000     54.000   3500.452   2539.063     94.759      0.000     64.000      7.209
11:34:19 21-Sep-07    201.301    -999.25     27.012      0.009     -0.780     90.492     -0.497    161.000        1.874    381.000     54.000   3500.452   2539.063     94.991      0.000     64.000      7.209
11:34:29 21-Sep-07    201.403    -999.25     26.910      0.008     -0.735     90.447     -0.497    161.000        1.874    381.000     54.000   3500.452   2539.063     95.029      0.000     64.000      4.806
11:34:39 21-Sep-07    201.480    -999.25     26.833      0.009     -0.853     90.566      0.376    162.000        1.874    381.000     59.000   3500.452   2539.063     94.809      0.000     64.000      4.806
11:34:49 21-Sep-07    201.556    -999.25     26.757      0.009     -0.769     90.482      0.376    162.000        1.874    120.000     59.000   3500.452   2539.063     94.999      0.000     64.000      2.403
11:34:59 21-Sep-07    201.659    -999.25     26.654      0.009     -0.661     90.373      0.376    162.000        1.874    120.000     59.000   3500.452   2539.063     95.041      0.000     64.000      4.806
11:35:09 21-Sep-07    201.736    -999.25     26.577      0.009     -0.780     90.492      0.304     95.000        1.874    120.000     59.000   3057.357   2500.000     95.152      0.000     56.000      4.806
11:35:19 21-Sep-07    201.812    -999.25     26.500      0.009     -1.019     90.732      0.304     95.000        1.874    120.000     59.000   3057.357   2500.000     94.680      0.000     56.000      4.806
11:35:29 21-Sep-07    201.915    -999.25     26.397      0.009     -0.678     90.390      2.497    161.000        1.874    120.000     55.000   3057.357   2500.000     94.908      0.000     56.000      4.806
11:35:39 21-Sep-07    201.992    -999.25     26.320      0.009     -0.901     90.614      1.842     95.000        1.874    219.000     55.000   3057.357   2500.000     95.310      0.000     56.000      4.806
11:35:49 21-Sep-07    202.069    -999.25     26.244      0.009     -0.570     90.282      1.245    162.000        1.874    219.000     55.000   3057.357   2500.000     94.852      0.000     56.000      7.209
11:35:59 21-Sep-07    202.109    -999.25     26.202      0.001     -0.293     90.005      1.245    162.000        1.874    219.000     55.000   3057.357   2539.063     95.038      0.000     64.000      7.209
11:36:09 21-Sep-07    202.109    -999.25     26.202     -0.000     -0.368     90.081      2.340    162.000        1.874    219.000     60.000   3057.357   2539.063     95.039      0.000     64.000      9.612
11:36:19 21-Sep-07    202.116    -999.25     26.196      0.000     -0.513     90.226      2.340    162.000        1.874    381.000     60.000   3057.357   2539.063     94.669      0.000     64.000      7.209
11:36:29 21-Sep-07    202.130    -999.25     26.181      0.001     -0.335     90.048      2.340    162.000        1.874    381.000     60.000   3500.452   2539.063     95.150      0.000     64.000      7.209
11:36:39 21-Sep-07    202.141    -999.25     26.170      0.001     -0.304     90.017      1.726     95.000        1.874    381.000     60.000   3500.452   2539.063     95.119      0.000     64.000      4.806
11:36:49 21-Sep-07    202.152    -999.25     26.158      0.001     -0.325     90.038      1.726     95.000        1.874    381.000     60.000   3500.452   2539.063     95.232      0.000     80.000      7.209
11:36:59 21-Sep-07    202.165    -999.25     26.146      0.001     -0.185     89.898      1.469    161.000        1.874    381.000     59.000   3500.452   2539.063     95.247      0.000     80.000      7.209
11:37:09 21-Sep-07    202.175    -999.25     26.136      0.001      0.153     89.559      1.726     95.000        1.874    126.000     59.000   3500.452   2539.063     95.320      0.000     80.000      9.612
11:37:19 21-Sep-07    202.186    -999.25     26.125      0.001      0.525     89.188      2.593    162.000        1.874    126.000     59.000   3500.452   2539.063     95.723      0.000     80.000      9.612
11:37:29 21-Sep-07    202.197    -999.25     26.114      0.001      2.899     86.813      2.593    162.000        1.874    126.000     59.000   3500.452   2500.000     97.164      0.000     80.000      9.612
11:37:39 21-Sep-07    202.202    -999.25     26.109      0.001      3.843     85.869      2.482    163.000        1.874    126.000     59.000   3500.452   2500.000     97.367      0.000     80.000      9.612
11:37:49 21-Sep-07    202.210    -999.25     26.102      0.001      2.074     87.638      2.482    163.000        1.874    126.000     59.000   3500.452   2500.000     96.734      0.000     80.000      9.612
11:37:59 21-Sep-07    202.217    -999.25     26.094      0.001      2.332     87.380      2.482    163.000        1.874     78.000     59.000   3500.452   2500.000     96.550      0.000     80.000      9.612
