~Version Information
VERS.             2.0 : CWLS log ASCII standard - Version 2.0
WRAP.             NO  : One line per depth step
#
~Well Information Block
#MNEM.UNIT                   Data Type:Information
#__________________________________________________________
  STRT.           30-AUG-2008 00:00:00 : START INDEX                   
  STOP.           30-AUG-2008 18:00:00 : STOP INDEX                    
  STEP.SEC           10.0000 : STEP                          
  NULL.              -999.25 : NULL VALUE                    
  COMP.           StatoilHydro : COMPANY                       
  WELL.             15/9-F-9 : WELL                          
   FLD.                Volve : FIELD                         
   LOC.           Norwegian North Sea : LOCATION                      
  PROV.                      : PROVINCE                      
  CNTY.               Norway : COUNTY                        
  STAT.           Maersk Inspirer : RIG                           
  CTRY.                      : COUNTRY                       
  SRVC.           Schlumberger D&M : SERVICE COMPANY               
  DATE.           29-AUG-2008 09:22:08 : LOG DATE                      
   UWI.                      : UNIQUE WELL ID                
   API.                      : API NUMBER                    
#
~Curve Information Block
#MNEM.UNIT                     : Curve Description
#---------                     --------------------
TIME	    .HHMMSS	       : 
DATE	    .D		       : 
GR          .GAPI              : ARC Gamma Ray, Real-Time                                        
INCL_CONT_RT.DEG               : MWD Cont Inc 2hz                                                
HKLD        .KKGF              : Measured Hookload 2hz                                           
SWOB        .KKGF              : Surface Weight on Bit 2hz                                       
TQA         .KMN               : SRF STOR 2hz                                                    
RPM         .RPM               : SRF SRPM 2hz                                                    
SHKRSK_RT   .----              : MWD SHKRSK 2hz                                                  
Stick_RT    .RPM               : MWD PKtoPK RPM 2hz                                              
DEPT        .M                 : Bit Depth 2hz                                                   
TRPM_RT     .RPM               : MWD TUR_RPM 2hz                                                 
ATMP        .DEGC              : ARC Annular Temperature                                         
BPOS        .M                 : Block Position 2hz                                              
BVEL        .M/S               : Block Velocity 2hz                                              
ROP5        .M/HR              : 5ft ROP 2hz                                                     
ECD_ARC     .G/C3              : Equivalent Circulating Density                                  
SPPA        .BAR               : SRF PUMPRS 2hz                                                  
TFLO        .LPM               : HSPM Total Pump Flow 2hz                                        
#
~Parameter Information Block
#MNEM.UNIT                       Value:Description
#__________________________________________________________
#
~Other Information Block

#
~A TIME       DATE     GR    INCL_CONT_RT       HKLD       SWOB        TQA        RPM  SHKRSK_RT   Stick_RT       DEPT    TRPM_RT       ATMP       BPOS       BVEL       ROP5    ECD_ARC       SPPA       TFLO
# ...
04:46:08 30-Aug-08    -999.25       9.7945    92.2869     2.4113     5.4551    64.0000     0.0000    24.0000   913.5292  2695.3125    20.0000    38.7710     0.0026     7.6989     1.0421    95.3188  3101.6666
04:46:18 30-Aug-08    -999.25       9.7945    92.6883     2.0099     5.4665    65.0000     0.0000    24.0000   913.5496  2695.3125    20.0000    38.7504     0.0023     7.6989     1.0421    95.4582  3101.6666
04:46:28 30-Aug-08    -999.25       9.7945    92.5478     2.1504     6.4289    64.0000     0.0000    24.0000   913.5819  2695.3125    20.0000    38.7182     0.0027     7.6989     1.0421    95.3405  3101.6666
04:46:38 30-Aug-08    -999.25       9.7945    92.4775     2.2207     6.4289    64.0000     0.0000    39.0000   913.6016  2695.3125    20.0000    38.6984     0.0022     7.6989     1.0418    95.3405  3101.6666
04:46:48 30-Aug-08    -999.25       9.7945    92.5099     2.1883     6.2465    64.0000     0.0000    39.0000   913.6245  2695.3125    20.0000    38.6755     0.0025     7.6989     1.0416    95.3715  3101.6666
04:46:58 30-Aug-08    -999.25       9.7945    92.4399     2.2583     5.4488    65.0000     0.0000    39.0000   913.6536  2695.3125    20.0000    38.6462     0.0023     7.7150     1.0420    96.8521  3101.6666
04:47:08 30-Aug-08    -999.25       9.7945    92.7700     1.9283     5.1996    64.0000     0.0000    39.0000   913.6709  2695.3125    20.0000    38.6293     0.0020     7.7150     1.0420    96.0684  3101.6666
04:47:18 30-Aug-08    -999.25       9.7945    92.7552     1.9430     5.1996    64.0000     0.0000    69.0000   913.6916  2695.3125    20.0000    38.6083     0.0022     7.7150     1.0420    96.0684  3101.6666
04:47:28 30-Aug-08    -999.25       9.7945    92.4499     2.2483     5.9310    64.0000     0.0000    69.0000   913.7219  2695.3125    20.0000    38.5784     0.0027     7.7150     1.0419    96.5826  3101.6666
04:47:38 30-Aug-08    -999.25       9.7945    92.7467     1.9515     5.4044    65.0000     0.0000    69.0000   913.7405  2695.3125    20.0000    38.5597     0.0021     7.7150     1.0419    96.0189  3101.6666
04:47:48 30-Aug-08    -999.25       9.7945    92.6373     2.0610     6.5526    64.0000     0.0000    69.0000   913.7612  2695.3125    20.0000    38.5389     0.0023     7.7150     1.0416    96.3224  3101.6666
04:47:58 30-Aug-08    -999.25       9.7945    92.7667     1.9315     6.5526    64.0000     0.0000   135.0000   913.7894  2695.3125    20.0000    38.5106     0.0023     7.7150     1.0411    96.3224  3101.6666
04:48:08 30-Aug-08    -999.25       9.7945    93.1828     1.5155     5.4204    65.0000     0.0000   135.0000   913.8076  2695.3125    20.0000    38.4925     0.0021     7.7144     1.0411    97.0224  3101.6666
04:48:18 30-Aug-08    -999.25       9.7945    94.1066     0.5917     5.5828    65.0000     0.0000   135.0000   913.8343  2695.3125    20.0000    38.4661     0.0027     7.7144     1.0429    96.3379  3101.6666
04:48:28 30-Aug-08    -999.25       9.7945    93.1595     1.5387     6.1060    65.0000     0.0000    36.0000   913.8673  2695.3125    20.0000    38.4326     0.0029     7.7144     1.0435    96.4432  3101.6666
04:48:38 30-Aug-08    -999.25       9.7945    92.9952     1.7030     5.4227    64.0000     0.0000    36.0000   913.8923  2695.3125    20.0000    38.4078     0.0027     7.7144     1.0405    96.6941  3101.6666
04:48:48 30-Aug-08    -999.25       9.7945    92.7996     1.8986     5.4227    64.0000     0.0000    36.0000   913.9144  2695.3125    20.0000    38.3854     0.0026     7.7144     1.0409    96.6941  3101.6666
04:48:58 30-Aug-08    -999.25       9.7945    92.7726     1.9256     5.9023    65.0000     0.0000    36.0000   913.9395  2695.3125    20.0000    38.3607     0.0020     7.7144     1.0409    96.8862  3101.6666
04:49:08 30-Aug-08    -999.25       9.7945    92.7931     1.9051     5.5568    65.0000     0.0000    48.0000   913.9581  2695.3125    20.0000    38.3421     0.0020     7.8266     1.0412    96.6415  3101.6666
04:49:18 30-Aug-08    -999.25       9.7945    92.9796     1.7186     5.6339    65.0000     0.0000    48.0000   913.9770  2695.3125    20.0000    38.3232     0.0021     7.8266     1.0413    96.6291  3101.6666
04:49:28 30-Aug-08    -999.25       9.7945    92.9197     1.7785     5.6339    65.0000     0.0000    48.0000   914.0104  2695.3125    20.0000    38.2899     0.0027     7.8266     1.0411    96.6291  3101.6666
04:49:38 30-Aug-08    -999.25       9.7945    92.9871     1.7111     5.8636    65.0000     0.0000    48.0000   914.0351  2695.3125    20.0000    38.2653     0.0028     7.8266     1.0419    96.5237  3101.6666
04:49:48 30-Aug-08    -999.25       9.7945    93.0976     1.6006     4.7516    65.0000     0.0000    39.0000   914.0593  2695.3125    20.0000    38.2410     0.0027     7.8266     1.0423    96.4742  3101.6666
04:49:58 30-Aug-08    -999.25       9.7945    93.0932     1.6050     5.1834    65.0000     0.0000    39.0000   914.0938  2695.3125    20.0000    38.2066     0.0028     7.8266     1.0423    96.6631  3101.6666
04:50:08 30-Aug-08    -999.25       9.7945    93.3705     1.3277     5.1834    65.0000     0.0000    39.0000   914.1180  2695.3125    20.0000    38.1821     0.0027     7.8517     1.0423    96.6631  3101.6666
04:50:18 30-Aug-08    -999.25       9.7945    93.2869     1.4113     5.4679    64.0000     0.0000    39.0000   914.1444  2695.3125    20.0000    38.1560     0.0029     7.8517     1.0422    96.1582  3101.6666
04:50:28 30-Aug-08    -999.25       9.7945    93.0233     1.6749     5.8761    64.0000     0.0000    39.0000   914.1757  2695.3125    20.0000    38.1245     0.0026     7.8517     1.0425    97.0441  3101.6666
04:50:38 30-Aug-08    -999.25       9.7945    92.9696     1.7286     6.1454    65.0000     0.0000    39.0000   914.1989  2695.3125    20.0000    38.1013     0.0026     7.8517     1.0429    97.0534  3101.6666
04:50:48 30-Aug-08    -999.25       9.7945    92.9812     1.7170     6.1454    65.0000     0.0000    39.0000   914.2196  2695.3125    20.0000    38.0804     0.0024     7.8517     1.0429    97.0534  3101.6666
04:50:58 30-Aug-08    -999.25       9.7945    92.7907     1.9075     5.5607    64.0000     0.0000    33.0000   914.2506  2695.3125    20.0000    38.0497     0.0027     7.8176     1.0432    96.4835  3101.6666
04:51:08 30-Aug-08    -999.25       9.7945    92.8591     1.8392     5.3684    65.0000     0.0000    33.0000   914.2734  2695.3125    20.0000    38.0269     0.0026     7.8176     1.0436    96.2636  3101.6666
04:51:18 30-Aug-08    -999.25       9.7945    92.9727     1.7255     5.3684    65.0000     0.0000    33.0000   914.2963  2695.3125    20.0000    38.0039     0.0025     7.8176     1.0436    96.2636  3101.6666
04:51:28 30-Aug-08    -999.25       9.7945    92.9409     1.7573     6.1302    64.0000     0.0000    33.0000   914.3226  2695.3125    20.0000    37.9773     0.0023     7.8176     1.0439    97.2547  3101.6666
04:51:38 30-Aug-08    -999.25       9.7945    92.9443     1.7539     6.1435    65.0000     0.0000    15.0000   914.3458  2695.3125    20.0000    37.9544     0.0027     7.8176     1.0443    97.0658  3101.6666
04:51:48 30-Aug-08    -999.25       9.7945    94.3215     0.3767     6.4344    65.0000     0.0000    15.0000   914.3705  2695.3125    20.0000    37.9298     0.0026     7.8176     1.0443    96.6074  3101.6666
04:51:58 30-Aug-08    -999.25       9.7945    94.2200     0.4782     5.7450    65.0000     0.0000    15.0000   914.4063  2695.3125    20.0000    37.8940     0.0030     7.8224     1.0443    97.8866  3101.6666
04:52:08 30-Aug-08    -999.25       9.7945    94.3493     0.3489     5.7450    65.0000     0.0000    15.0000   914.4333  2656.2500    20.0000    37.8670     0.0030     7.8224     1.0445    97.8866  3101.6666
04:52:18 30-Aug-08    -999.25       9.7945    94.3447     0.3535     5.1482    65.0000     0.0000    24.0000   914.4608  2656.2500    20.0000    37.8394     0.0030     7.8224     1.0450    96.9636  3101.6666
04:52:28 30-Aug-08    -999.25       9.7945    94.3388     0.3594     5.9454    64.0000     0.0000    24.0000   914.5009  2656.2500    20.0000    37.7996     0.0033     7.8224     1.0456    96.8490  3101.6666
