~VERSION INFORMATION 
VERS  .    2.0                                     :CWLS Log ASCII Standard - VERSION2.0
WRAP  .    NO                                      :One Line per Time step
DLM   .    SPACE                                   :Column Data section Delimiter
PROD  .    Schlumberger Technology Corp.           :LAS Producer
PROG  .    Horizon LASWriter 1.1.8606.0            :LAS Program name and version
CREA  .    08/18/2009                              :LAS Creation date {MM/DD/YYYY}
#--------------------------------------------------
~WELL INFORMATION 
#MNEM           .UNIT                      DATA            :DESCRIPTION
#----            ------          --------------            -----------------------------
 STRT           .S               04:00:00/03-Jul-2009  :START TIME                          
 STOP           .S               11:00:00/04-Jul-2009  :STOP TIME                          
 STEP           .S                           0.00000       :STEP
NULL            .                       -999.25            :NULL VALUE
COMP            .                  StatoilHydro            :COMPANY
WELL            .                    15/9-F-9 A            :WELL NAME
FLD             .                         Volve            :FIELD NAME
RIGN            .                Maersk Inspirer           :Rig Name
RIGTYP          .                       Jack-up            :Rig Type
SON             .                     09SCA0196            :Service Order Number
SRVC            .                  Schlumberger            :SERVICE COMPANY
DATE            .                    07/03/2009            :LOG DATE{MM/DD/YYYY} (Composite Date for Composite LAP)
CLAB            .                       County:            :County Label
CNTY            .                       -999.25            :COUNTY
SLAB            .                       -999.25            :State/Province Label
STAT            .                       -999.25            :STATE or PROVINCE
PROV            .                       -999.25            :STATE or PROVINCE
CTRY            .                        Norway            :COUNTRY
CONT_REGION     .                        Europe            :Continent Region
SECT            .                       -999.25            :Section
TOWN            .                       -999.25            :Township
RANG            .                       -999.25            :Range
API             .                       -999.25            :API NUMBER
UWI             .                       -999.25            :UNIQUE WELL ID
LUL             .                  Weather Deck            :Logging Unit Location
LUN             .                Geoservices: 1010567      :Logging Unit Number
LOC             .                Norwegian North Sea       :FIELD LOCATION
FL1             .                Section: 12 1/4 in.       :Field Location Line 1
FL2             .                Job no.: 09SCA0196        :Field Location Line 2
LATI            .                58° 26' 29.74" N          :LATITUDE
LONG            .                  1° 53' 15" E            :LONGITUDE
PDAT            .                           MSL            :Local Permanent Datum
LMF             .                            DF            :Logging Measured From
APD             .M                      54.9000            :Elevation of Depth Reference (LMF) Above Permanent Datum
EPD             .M                       0.0000            :Elevation of Permanent Datum (PDAT) above Mean Sea Level
EKB             .M                      -999.25            :Elevation of Kelly Bushing Above Permanent Datum
EDF             .M                      54.9000            :Elevation of Drill Floor Above Permanent Datum
EGL             .M                     -91.0000            :Elevation of Ground Level Above Permanent Datum
ECF             .M                      -999.25            :Elevation of Casing Flange above Permanent Datum
#--------------------------------------------------
~CURVE INFORMATION
#MNEM           .UNIT                  API CODE            :DESCRIPTION
#----            ------          --------------            ----------------------------------------
 TIME           .S                                         :                                          Time Index(hh:mm  :ss/dd-MMM-yyyy)
DEPTH           .M                                         :(RT)    (DnMWorkflow)           (1)       Depth Index
ROP5            .M/HR                                      :(RT)                            (1)       Rate of penetration averaged over the last 5 ft (1.5 m)
GR              .GAPI                                      :(RT)    (TELE825-IWOB)          (1)       Gamma Ray
BLKP            .M                                         :(RT)                            (1)       Height of block above rig floor
PVEL            .M/HR                                      :(RT)                            (1)       Pipe Velocity
HKLA            .KKGF                                      :(RT)                            (1)       Average Hookload
SWOB            .KKGF                                      :(RT)                            (1)       Surface Weight On Bit
STOR            .kN.m                                      :(RT)                            (1)       Surface Torque
RPM             .RPM                                       :(RT)                            (1)       Rotational Speed
STICK           .RPM                                       :(RM)    (TELE825-IWOB)          (1)       Stick Slip Indicator
TFLO            .LPM                                       :(RT)                            (1)       Total flow rate of all active pumps
SPM1            .SD/M                                      :(RT)                            (1)       Pump 1 Stroke Rate
SPM2            .SD/M                                      :(RT)                            (1)       Pump 2 Stroke Rate
SPM3            .SD/M                                      :(RT)                            (1)       Pump 3 Stroke Rate
SPPA            .BAR                                       :(RT)                            (1)       Standpipe Pressure
AJAM            .                                          :(RT)    (TELE825-IWOB)          (1)       Number of Anti-Jams Detected
TRPM            .RPM                                       :(RT)    (TELE825-IWOB)          (1)       MWD Turbine Rotation Speed
SHKL            .                                          :(RT)    (TELE825-IWOB)          (1)       Tool Shock Level
SHKPK           .M/S2                                      :(RT)    (TELE825-IWOB)          (1)       Shock Peak
SHKR            .CPS                                       :(RT)    (TELE825-IWOB)          (1)       Shock Rate
SHKRSK          .                                          :(RT)    (TELE825-IWOB)          (1)       Shock Risk
#-------------------------------------------------------------
#          TIME          DEPTH           ROP5             GR           BLKP           PVEL           HKLA           SWOB           STOR            RPM          STICK           TFLO           SPM1           SPM2           SPM3           SPPA           AJAM           TRPM           SHKL          SHKPK           SHKR         SHKRSK 
#                 (DnMWorkflow)                 (TELE825-IWO)                                                                                            (TELE825-IWO)                                                                             (TELE825-IWO)  (TELE825-IWO)  (TELE825-IWO)  (TELE825-IWO)  (TELE825-IWO)  (TELE825-IWO)
#                           (1)            (1)            (1)            (1)            (1)            (1)            (1)            (1)            (1)            (1)            (1)            (1)            (1)            (1)            (1)            (1)            (1)            (1)            (1)            (1)            (1)
#                          (RT)           (RT)           (RT)           (RT)           (RT)           (RT)           (RT)           (RT)           (RT)           (RM)           (RT)           (RT)           (RT)           (RT)           (RT)           (RT)           (RT)           (RT)           (RT)           (RT)           (RT)
~ASCII 
# ...
18:16:00/03-Jul-2009       712.2348        -999.25        -999.25        52.3806         0.0000       104.5736         1.1325         3.6884       124.0000        -999.25      3447.2410        78.0000         0.0000        78.0000       135.1545        -999.25        -999.25        -999.25        -999.25        -999.25        -999.25
18:16:10/03-Jul-2009       712.2348        -999.25        -999.25        52.3806         0.0000       104.5355         1.0194         3.3043       124.0000        -999.25      3447.2410        78.0000         0.0000        78.0000       133.8726         0.0000      3085.9380        -999.25         0.0000         0.0000         0.0000
18:16:20/03-Jul-2009       712.2348        -999.25       189.1126        52.3806         0.0000       104.5899         0.9214         3.2757       124.0000        -999.25      3447.2410        78.0000         0.0000        78.0000       132.8409        -999.25        -999.25        -999.25        -999.25        -999.25        -999.25
18:16:30/03-Jul-2009       712.2411        -999.25        -999.25        52.3791         3.6360       104.5344         1.1428         3.0086       124.0000        -999.25      3447.2410        78.0000         0.0000        78.0000       135.7104        -999.25        -999.25        -999.25        -999.25        -999.25        -999.25
18:16:40/03-Jul-2009       712.6930        -999.25        -999.25        51.9365       206.4968       104.4530         1.0979         3.8693       123.0000        -999.25      3447.2410        78.0000         0.0000        78.0000       134.4039        -999.25        -999.25        -999.25        -999.25        -999.25        -999.25
18:16:50/03-Jul-2009       713.3416        -999.25        -999.25        51.2880       221.4151       104.1609         1.3020         3.6225       123.0000        -999.25      3447.2410        78.0000         0.0000        78.0000       132.9799         0.0000      3125.0000        -999.25        -999.25        -999.25        -999.25
18:17:00/03-Jul-2009       713.4819        -999.25        -999.25        51.1291       -57.9497       103.9314         1.5620         3.8246       123.0000        -999.25      3447.2410        78.0000         0.0000        78.0000       136.9676        -999.25        -999.25        -999.25         0.0000         0.0000         0.0000
18:17:10/03-Jul-2009       713.2991        -999.25       193.1363        51.3122       -69.7302       103.9989         1.5726         4.2493       124.0000        -999.25      3447.2410        78.0000         0.0000        78.0000       134.1012        -999.25        -999.25        -999.25        -999.25        -999.25        -999.25
18:17:20/03-Jul-2009       713.0835        -999.25        -999.25        51.5277       -68.8903       103.9692         1.7067         3.1250       123.0000        -999.25      3447.2410        78.0000         0.0000        78.0000       135.2996        -999.25        -999.25        -999.25        -999.25        -999.25        -999.25
18:17:30/03-Jul-2009       712.8907        -999.25        -999.25        51.7206       -69.1710       103.9590         1.5373         3.9739       123.0000        -999.25      3447.2410        78.0000         0.0000        78.0000       136.2788        -999.25        -999.25        -999.25        -999.25        -999.25        -999.25
18:17:40/03-Jul-2009       712.7085        -999.25        -999.25        51.9026       -68.9948       103.9876         1.4701         3.8830       124.0000        18.0000      3447.2410        78.0000         0.0000        78.0000       134.1475        -999.25      3125.0000        -999.25        -999.25        -999.25        -999.25
18:17:50/03-Jul-2009       712.5073        -999.25       211.2428        52.1038       -68.3463       104.0999         1.6239         3.7267       124.0000        -999.25      3447.2410        78.0000         0.0000        78.0000       133.8448        -999.25        -999.25        -999.25         0.0000         0.0000         0.0000
18:18:00/03-Jul-2009       712.3148        -999.25        -999.25        52.2962       -69.2428       103.8862         1.5569         3.2962       123.0000        -999.25      3447.2410        78.0000         0.0000        78.0000       132.3869        -999.25        -999.25        -999.25        -999.25        -999.25        -999.25
18:18:10/03-Jul-2009       712.1393        -999.25        -999.25        52.4721       -65.6090       104.3396         1.2277         3.9426       123.0000        -999.25      3447.2410        78.0000         0.0000        78.0000       132.9830        -999.25        -999.25        -999.25        -999.25        -999.25        -999.25
18:18:20/03-Jul-2009       712.1182        -999.25        -999.25        52.4972         0.0000       104.5295         1.0581         4.0908       124.0000        -999.25      3447.2410        78.0000         0.0000        78.0000       134.7097        -999.25        -999.25        -999.25        -999.25        -999.25        -999.25
18:18:30/03-Jul-2009       712.1185        -999.25        -999.25        52.4968         0.0000       104.8595         0.8277         3.3374       124.0000        -999.25      3447.2410        78.0000         0.0000        78.0000       134.2309        -999.25      3125.0000        -999.25         0.0000         0.0000         0.0000
18:18:40/03-Jul-2009       712.1189        -999.25       213.2546        52.4965         0.0000       104.5444         1.0061         4.4659       124.0000        -999.25      3447.2410        78.0000         0.0000        78.0000       133.8602        -999.25        -999.25        -999.25        -999.25        -999.25        -999.25
18:18:50/03-Jul-2009       712.1189        -999.25        -999.25        52.4965        -0.2089       104.6543         0.9388         3.8634       124.0000        -999.25      3447.2410        78.0000         0.0000        78.0000       132.0965        -999.25        -999.25        -999.25        -999.25        -999.25        -999.25
18:19:00/03-Jul-2009       712.1193        -999.25        -999.25        52.4961         0.0000       104.6624         0.7167         4.0414       123.0000        -999.25      3447.2410        78.0000         0.0000        78.0000       133.9776        -999.25        -999.25        -999.25        -999.25        -999.25        -999.25
18:19:10/03-Jul-2009       712.1193        -999.25        -999.25        52.4961         0.0000       104.7441         0.8317         4.2804       124.0000        -999.25      3447.2410        78.0000         0.0000        78.0000       135.0309        -999.25        -999.25        -999.25        -999.25        -999.25        -999.25
18:19:20/03-Jul-2009       712.3093        -999.25        -999.25        52.3144       120.5733       104.8881         0.5961         4.2181       124.0000        -999.25      3447.2410        78.0000         0.0000        78.0000       136.3282        -999.25      3125.0000        -999.25         0.0000         0.0000         0.0000
18:19:30/03-Jul-2009       712.3201        -999.25       191.1245        52.2953         0.0000       104.7470         0.5413         4.1066       123.0000        -999.25      3447.2410        78.0000         0.0000        78.0000       133.3290        -999.25        -999.25        -999.25        -999.25        -999.25        -999.25
18:19:40/03-Jul-2009       712.3205        -999.25        -999.25        52.2950         0.2089       104.8588         0.6830         3.4704       124.0000        18.0000      3447.2410        78.0000         0.0000        78.0000       136.4796        -999.25        -999.25        -999.25        -999.25        -999.25        -999.25
18:19:50/03-Jul-2009       712.5034        -999.25        -999.25        52.1187        99.8126       104.6396         0.7375         3.6177       124.0000        -999.25      3447.2410        78.0000         0.0000        78.0000       134.5954        -999.25        -999.25        -999.25        -999.25        -999.25        -999.25
