~Version Information
VERS.             2.0 : CWLS log ASCII standard - Version 2.0
WRAP.             NO  : One line per depth step
#
~Well Information Block
#MNEM.UNIT                   Data Type:Information
#__________________________________________________________
  STRT.           30-AUG-2008 00:00:00 : START INDEX                   
  STOP.           30-AUG-2008 18:00:00 : STOP INDEX                    
  STEP.SEC           10.0000 : STEP                          
  NULL.              -999.25 : NULL VALUE                    
  COMP.           StatoilHydro : COMPANY                       
  WELL.             15/9-F-9 : WELL                          
   FLD.                Volve : FIELD                         
   LOC.           Norwegian North Sea : LOCATION                      
  PROV.                      : PROVINCE                      
  CNTY.               Norway : COUNTY                        
  STAT.           Maersk Inspirer : RIG                           
  CTRY.                      : COUNTRY                       
  SRVC.           Schlumberger D&M : SERVICE COMPANY               
  DATE.           29-AUG-2008 09:22:08 : LOG DATE                      
   UWI.                      : UNIQUE WELL ID                
   API.                      : API NUMBER                    
#
~Curve Information Block
#MNEM.UNIT                     : Curve Description
#---------                     --------------------
TIME	    .HHMMSS	       : 
DATE	    .D		       : 
GR          .GAPI              : ARC Gamma Ray, Real-Time                                        
INCL_CONT_RT.DEG               : MWD Cont Inc 2hz                                                
HKLD        .KKGF              : Measured Hookload 2hz                                           
SWOB        .KKGF              : Surface Weight on Bit 2hz                                       
TQA         .KMN               : SRF STOR 2hz                                                    
RPM         .RPM               : SRF SRPM 2hz                                                    
SHKRSK_RT   .----              : MWD SHKRSK 2hz                                                  
Stick_RT    .RPM               : MWD PKtoPK RPM 2hz                                              
DEPT        .M                 : Bit Depth 2hz                                                   
TRPM_RT     .RPM               : MWD TUR_RPM 2hz                                                 
ATMP        .DEGC              : ARC Annular Temperature                                         
BPOS        .M                 : Block Position 2hz                                              
BVEL        .M/S               : Block Velocity 2hz                                              
ROP5        .M/HR              : 5ft ROP 2hz                                                     
ECD_ARC     .G/C3              : Equivalent Circulating Density                                  
SPPA        .BAR               : SRF PUMPRS 2hz                                                  
TFLO        .LPM               : HSPM Total Pump Flow 2hz                                        
#
~Parameter Information Block
#MNEM.UNIT                       Value:Description
#__________________________________________________________
#
~Other Information Block

#
~A TIME       DATE     GR    INCL_CONT_RT       HKLD       SWOB        TQA        RPM  SHKRSK_RT   Stick_RT       DEPT    TRPM_RT       ATMP       BPOS       BVEL       ROP5    ECD_ARC       SPPA       TFLO
# ...
08:20:38 30-Aug-08    18.5075       9.2768    90.5957     4.1026     5.5501   139.0000     0.0000     6.0000   926.0556  2695.3125    26.0000    26.2446     0.0030    10.9751     1.3104   122.2545  3101.6666
08:20:48 30-Aug-08    18.5075       9.2768    90.4207     4.2775     4.8152   139.0000     0.0000     6.0000   926.0862  2695.3125    26.0000    26.2141     0.0033    10.9751     1.3109   122.4125  3101.6666
08:20:58 30-Aug-08    17.4349       9.2768    90.7039     3.9943     5.9653   140.0000     0.0000     6.0000   926.1126  2695.3125    26.0000    26.1878     0.0029    10.9751     1.3111   122.4125  3101.6666
08:21:08 30-Aug-08    17.4349       9.2768    90.6227     4.0755     5.9653   140.0000     0.0000     9.0000   926.1481  2695.3125    26.0000    26.1519     0.0027    11.2700     1.3122   122.4125  3101.6666
08:21:18 30-Aug-08    15.3856       9.2768    90.7233     3.9749     5.1955   139.0000     0.0000     9.0000   926.1741  2695.3125    26.0000    26.1259     0.0030    11.2700     1.3130   123.9860  3101.6666
08:21:28 30-Aug-08    15.3856       9.2768    90.4424     4.2558     5.2322   139.0000     0.0000     9.0000   926.2026  2695.3125    26.0000    26.0980     0.0031    11.2700     1.3130   134.1055  3301.0596
08:21:38 30-Aug-08    16.3942       9.2768    90.5358     4.1624     6.0730   139.0000     0.0000     6.0000   926.2402  2851.5625    26.4000    26.0601     0.0031    11.2700     1.3129   134.9294  3301.0596
08:21:48 30-Aug-08    16.3942       9.2768    90.7415     3.9567     6.0730   139.0000     0.0000     6.0000   926.2666  2851.5625    27.0000    26.0339     0.0030    11.2700     1.3129   134.9294  3301.0596
08:21:58 30-Aug-08    16.3942       9.2768    90.5607     4.1375     5.0689   140.0000     0.0000     6.0000   926.2940  2851.5625    27.0000    26.0062     0.0032    11.2284     1.3129   135.1525  3301.0596
08:22:08 30-Aug-08    16.3942       9.2768    90.6351     4.0632     4.1946   139.0000     0.0000     6.0000   926.3330  2890.6250    26.6000    25.9674     0.0031    11.2284     1.3128   135.1091  3301.0596
08:22:18 30-Aug-08    16.3942       9.2768    90.7897     3.9085     6.3711   139.0000     0.0000     6.0000   926.3580  2890.6250    26.0000    25.9422     0.0029    11.2284     1.3128   135.2578  3301.0596
08:22:28 30-Aug-08    17.4349       9.2768    90.6082     4.0900     6.3711   139.0000     0.0000     6.0000   926.3879  2890.6250    26.4000    25.9126     0.0034    11.2284     1.3130   135.2578  3301.0596
08:22:38 30-Aug-08    17.4349       9.2768    90.7261     3.9721     4.9606   139.0000     0.0000     6.0000   926.4258  2890.6250    27.0000    25.8747     0.0032    11.2284     1.3128   136.2427  3301.0596
08:22:48 30-Aug-08    16.3942       9.2768    90.4745     4.2238     4.9614   140.0000     0.0000     6.0000   926.4543  2890.6250    27.0000    25.8460     0.0032    11.2462     1.3122   135.2268  3301.0596
08:22:58 30-Aug-08    16.3942       9.2768    91.1500     3.5482     4.9614   140.0000     0.0000     6.0000   926.4589  2890.6250    27.0000    25.8405     0.0012    11.2462     1.3127   135.2268  3301.0596
08:23:08 30-Aug-08    14.4090       9.2768    91.3050     3.3932     4.5390   140.0000     0.0000     6.0000   926.4578  2890.6250    27.0000    25.8418    -0.0000    11.2462     1.3127   135.6821  3301.0596
08:23:18 30-Aug-08    14.4090       9.2768    91.3687     3.3295     5.0453   139.0000     0.0000     6.0000   926.4578  2890.6250    27.0000    25.8418     0.0000    11.2462     1.3127   135.2237  3301.0596
08:23:28 30-Aug-08    13.4644       9.2768    91.3427     3.3555     4.4305   140.0000     0.0000     6.0000   926.4546  2890.6250    27.0000    25.8429    -0.0001    11.2462     1.3127   134.7931  3301.0596
08:23:38 30-Aug-08    13.4644       9.2768    90.9433     3.7549     5.3221   139.0000     0.0000     6.0000   925.8008  2890.6250    27.0000    26.4848    -0.0594    11.2462     1.3128   134.7808  3301.0596
08:23:48 30-Aug-08    15.3856       9.2768    91.0499     3.6483     5.3221   139.0000     0.0000     6.0000   925.2358  2890.6250    27.0000    27.0493    -0.0625    11.2462     1.3125   134.7808  3301.0596
08:23:58 30-Aug-08    15.3856       9.2768    91.1534     3.5449     4.9071   139.0000     0.0000     6.0000   924.6537  2890.6250    27.0000    27.6395    -0.0640    11.2462     1.3129   135.6326  3301.0596
08:24:08 30-Aug-08    15.3856       9.2768    91.9196     2.7786     4.8770   139.0000     0.0000     3.0000   924.6572  2890.6250    27.0000    27.6425     0.0001    11.2462     1.3129   134.9295  3301.0596
08:24:18 30-Aug-08    13.4644       9.2768    91.8633     2.8349     4.8770   139.0000     0.0000     3.0000   924.6572  2890.6250    27.0000    27.6425     0.0000    11.2462     1.3132   134.9295  3301.0596
08:24:28 30-Aug-08    13.4644       9.2768    91.8361     2.8621     4.6773   139.0000     0.0000     3.0000   924.6572  2890.6250    27.0000    27.6425     0.0000    11.2462     1.3136   135.2795  3301.0596
08:24:38 30-Aug-08    16.3942       9.2768    92.4854     2.2128     5.5008   138.0000     0.0000     3.0000   924.7124  2890.6250    27.0000    27.5884     0.0046    11.2462     1.3136   135.5397  3301.0596
08:24:48 30-Aug-08    16.3942       9.2768    92.0838     2.6145     4.3790   139.0000     0.0000     6.0000   924.7468  2890.6250    27.0000    27.5528     0.0044    11.2462     1.3135   135.8029  3301.0596
08:24:58 30-Aug-08    15.3856       9.2768    92.6907     2.0075     4.3790   139.0000     0.0000     6.0000   924.8340  2890.6250    27.0000    27.4753     0.0029    11.2462     1.3143   135.8029  3301.0596
08:25:08 30-Aug-08    15.3856       9.2768    92.5036     2.1946     5.1256   139.0000     0.0000     6.0000   925.3613  2890.6250    27.0000    26.9481     0.0440    11.2462     1.3151   135.6666  3301.0596
08:25:18 30-Aug-08    15.3856       9.2768    92.4703     2.2280     4.8703   139.0000     0.0000     3.0000   925.7561  2890.6250    27.0000    26.5535     0.0439    11.2462     1.3145   135.7193  3301.0596
08:25:28 30-Aug-08    15.3856       9.2768    92.1018     2.5965     4.9826   139.0000     0.0000     3.0000   925.9572  2890.6250    27.0000    26.3435     0.0375    11.2462     1.3141   135.4932  3301.0596
08:25:38 30-Aug-08    16.3942       9.2768    92.4121     2.2861     4.9826   139.0000     0.0000     3.0000   926.0131  2890.6250    27.0000    26.2875     0.0047    11.2462     1.3137   135.4932  3301.0596
08:25:48 30-Aug-08    16.3942       9.2768    92.4102     2.2880     5.1387   139.0000     0.0000     3.0000   926.0550  2890.6250    27.0000    26.2456     0.0046    11.2462     1.3132   135.4653  3301.0596
08:25:58 30-Aug-08    16.3942       9.2768    92.3744     2.3238     5.9957   140.0000     0.0000     6.0000   926.0971  2890.6250    27.0000    26.2037     0.0046    11.2462     1.3131   135.8215  3301.0596
08:26:08 30-Aug-08    15.3856       9.2768    92.3797     2.3185     5.1775   139.0000     0.0000     6.0000   926.1527  2890.6250    27.0000    26.1481     0.0046    11.2462     1.3134   135.5582  3301.0596
08:26:18 30-Aug-08    15.3856       9.2768    92.4616     2.2366     5.1775   139.0000     0.0000     6.0000   926.1945  2890.6250    27.0000    26.1062     0.0047    11.2462     1.3138   135.5582  3301.0596
08:26:28 30-Aug-08    15.3856       9.2768    92.4152     2.2830     4.8804   139.0000     0.0000     6.0000   926.2363  2890.6250    27.0000    26.0643     0.0046    11.2462     1.3134   135.1927  3301.0596
08:26:38 30-Aug-08    14.4090       9.2768    92.4327     2.2656     4.7835   140.0000     0.0000     6.0000   926.2923  2890.6250    27.0000    26.0085     0.0046    11.2462     1.3132   135.2671  3301.0596
08:26:48 30-Aug-08    16.3942       9.2768    92.4095     2.2888     4.4319   140.0000     0.0000     6.0000   926.3341  2890.6250    27.0000    25.9667     0.0047    11.2462     1.3133   135.3848  3301.0596
08:26:58 30-Aug-08    16.3942       9.2768    92.4114     2.2868     4.4319   140.0000     0.0000     6.0000   926.3759  2890.6250    27.0000    25.9249     0.0046    11.2462     1.3130   135.3848  3301.0596
