~Version Information
VERS.             2.0 : CWLS log ASCII standard - Version 2.0
WRAP.             NO  : One line per depth step
#
~Well Information Block
#MNEM.UNIT                   Data Type:Information
#__________________________________________________________
  STRT.           21-SEP-2007 06:00:00 : START INDEX                   
  STOP.           21-SEP-2007 18:00:00 : STOP INDEX                    
  STEP.SEC           10.0000 : STEP                          
  NULL.              -999.25 : NULL VALUE                    
  COMP.              Statoil : COMPANY                       
  WELL.              15/9-F7 : WELL                          
   FLD.                Volve : FIELD                         
   LOC.                      : LOCATION                      
  PROV.                      : PROVINCE                      
  CNTY.                      : COUNTY                        
  STAT.                      : STATE                         
  CTRY.               Norway : COUNTRY                       
  SRVC.           Schlumberger : SERVICE COMPANY               
  DATE.           21-SEP-2007 04:03:39 : LOG DATE                      
   UWI.                      : UNIQUE WELL ID                
   API.                      : API NUMBER                    
#
~Curve Information Block
#MNEM.UNIT                     : Curve Description
#---------                     --------------------
TIME	    .HHMMSS	       : 
DATE	    .D		       : 
DEPT        .M                 : Bit Depth 2hz                                                   
ROP5        .M/HR              : 5ft ROP 2hz                                                     
BPOS        .M                 : Block Position 2hz                                              
BVEL        .M/S               : Block Velocity 2hz                                              
SWOB        .KKGF              : Surface Weight on Bit 2hz                                       
HKLD        .KKGF              : Measured Hookload 2hz                                           
TQA         .KMN               : SRF STOR 2hz                                                    
RPM         .RPM               : SRF SRPM 2hz                                                    
INCL_CONT_RT.DEG               : MWD Cont Inc 2hz                                                
Stick_RT    .RPM               : MWD PKtoPK RPM 2hz                                              
CRPM_RT     .RPM               : MWD CRPM 2hz                                                    
TFLO        .LPM               : HSPM Total Pump Flow 2hz                                        
TRPM_RT     .RPM               : MWD TUR_RPM 2hz                                                 
SPPA        .BAR               : SRF PUMPRS 2hz                                                  
SHKRSK_RT   .----              : MWD SHKRSK 2hz                                                  
SHKPK_RT    .G                 : MWD SHK_PK 2hz                                                  
GR          .GAPI              : MWD GR(TM) 2hz                                                  
#
~Parameter Information Block
#MNEM.UNIT                       Value:Description
#__________________________________________________________
#
~Other Information Block

#
~A TIME       DATE       DEPT       ROP5       BPOS       BVEL       SWOB       HKLD        TQA        RPM INCL_CONT_RT   Stick_RT    CRPM_RT       TFLO    TRPM_RT       SPPA  SHKRSK_RT   SHKPK_RT       GR
# ...
10:00:39 21-Sep-07    186.209      6.553     41.796      0.000     -1.023     89.858     -0.296     64.000      -999.25    -999.25    -999.25   2193.321    -999.25      4.239    -999.25    -999.25    -999.25
10:00:49 21-Sep-07    186.209      6.553     41.796      0.000     -0.976     89.811     -0.296     64.000      -999.25    -999.25    -999.25   2193.321    -999.25      4.126    -999.25    -999.25    -999.25
10:00:59 21-Sep-07    186.209      6.553     41.796      0.000     -0.955     89.790     -1.264     25.000      -999.25    -999.25    -999.25    376.631    -999.25      4.069    -999.25    -999.25    -999.25
10:01:09 21-Sep-07    186.209      6.553     41.796      0.000     -0.924     89.759     -0.411     25.000      -999.25    -999.25    -999.25    376.631    -999.25      4.257    -999.25    -999.25    -999.25
10:01:19 21-Sep-07    186.209      6.553     41.796      0.000     -0.892     89.727     -1.207      0.000      -999.25    -999.25    -999.25      0.000    -999.25      4.214    -999.25    -999.25    -999.25
10:01:29 21-Sep-07    186.209      6.553     41.796      0.000     -0.936     89.771     -1.207      0.000      -999.25    -999.25    -999.25      0.000    -999.25      4.243    -999.25    -999.25    -999.25
10:01:39 21-Sep-07    186.209      6.553     41.796      0.000     -0.904     89.739     -1.269      0.000      -999.25    -999.25    -999.25      0.000    -999.25      4.170    -999.25    -999.25    -999.25
10:01:49 21-Sep-07    186.209      6.553     41.796      0.000     -0.945     89.780     -1.269      0.000      -999.25    -999.25    -999.25      0.000    -999.25      4.207    -999.25    -999.25    -999.25
10:01:59 21-Sep-07    186.209      6.553     41.796      0.000     -0.897     89.732     -1.269      0.000      -999.25    -999.25    -999.25      0.000    -999.25      4.189    -999.25    -999.25    -999.25
10:02:09 21-Sep-07    186.209      6.553     41.796      0.000     -0.874     89.709     -0.836      0.000      -999.25    -999.25    -999.25      0.000    -999.25      4.212    -999.25    -999.25    -999.25
10:02:19 21-Sep-07    186.209      6.553     41.796      0.000     -0.909     89.744     -0.836      0.000      -999.25    -999.25    -999.25      0.000    -999.25      4.191    -999.25    -999.25    -999.25
10:02:29 21-Sep-07    186.209      6.553     41.796      0.000     -0.908     89.743     -1.287      0.000      -999.25    -999.25    -999.25      0.000    -999.25      4.186    -999.25    -999.25    -999.25
10:02:39 21-Sep-07    186.209      6.553     41.796      0.000     -0.944     89.779     -0.709      0.000      -999.25    -999.25    -999.25      0.000    -999.25      4.223    -999.25    -999.25    -999.25
10:02:49 21-Sep-07    186.209      6.553     41.796      0.000     -0.862     89.697     -1.292      0.000      -999.25    -999.25    -999.25      0.000    -999.25      4.182    -999.25    -999.25    -999.25
10:02:59 21-Sep-07    186.209      6.553     41.796      0.000     -0.841     89.676     -1.292      0.000      -999.25    -999.25    -999.25      0.000    -999.25      4.192    -999.25    -999.25    -999.25
10:03:09 21-Sep-07    186.209      6.553     41.796      0.000     -0.906     89.741     -1.266      0.000      -999.25    -999.25    -999.25      0.000    -999.25      4.205    -999.25    -999.25    -999.25
10:03:19 21-Sep-07    186.209      6.553     41.796      0.000     -0.873     89.708     -1.266      0.000      -999.25    -999.25    -999.25      0.000    -999.25      4.204    -999.25    -999.25    -999.25
10:03:29 21-Sep-07    186.209      6.553     41.796      0.000     -0.895     89.730     -1.266      0.000      -999.25    -999.25    -999.25      0.000    -999.25      4.205    -999.25    -999.25    -999.25
10:03:39 21-Sep-07    186.209      6.553     41.796      0.000     -0.941     89.776     -0.817      0.000      -999.25    -999.25    -999.25      0.000    -999.25      4.200    -999.25    -999.25    -999.25
10:03:49 21-Sep-07    186.209      6.553     41.796      0.000     -0.924     89.759     -0.817      0.000      -999.25    -999.25    -999.25      0.000    -999.25      4.211    -999.25    -999.25    -999.25
10:03:59 21-Sep-07    186.209      6.553     41.796      0.000     -0.927     89.762     -1.297      0.000      -999.25    -999.25    -999.25      0.000    -999.25      4.220    -999.25    -999.25    -999.25
10:04:09 21-Sep-07    186.209      6.553     41.796      0.000     -0.866     89.701     -0.701      0.000      -999.25    -999.25    -999.25      0.000    -999.25      4.178    -999.25    -999.25    -999.25
10:04:19 21-Sep-07    186.209      6.553     41.796      0.000     -0.935     89.770     -1.233      0.000      -999.25    -999.25    -999.25      0.000    -999.25      4.229    -999.25    -999.25    -999.25
10:04:29 21-Sep-07    186.209      6.553     41.796      0.000     -0.936     89.771     -1.233      0.000      -999.25    -999.25    -999.25      0.000    -999.25      4.224    -999.25    -999.25    -999.25
10:04:39 21-Sep-07    186.209      6.553     41.796      0.000     -0.844     89.679     -1.268      0.000      -999.25    -999.25    -999.25      0.000    -999.25      4.187    -999.25    -999.25    -999.25
10:04:49 21-Sep-07    186.209      6.553     41.796      0.000     -0.802     89.637     -1.268      0.000      -999.25    -999.25    -999.25      0.000    -999.25      4.211    -999.25    -999.25    -999.25
10:04:59 21-Sep-07    186.209      6.553     41.796      0.000     -0.885     89.720     -1.268      0.000      -999.25    -999.25    -999.25      0.000    -999.25      4.214    -999.25    -999.25    -999.25
10:05:09 21-Sep-07    186.209      6.553     41.796      0.000     -0.866     89.701     -0.853      0.000      -999.25    -999.25    -999.25      0.000    -999.25      4.183    -999.25    -999.25    -999.25
10:05:19 21-Sep-07    186.209      6.553     41.796      0.000     -0.823     89.658     -0.853      0.000      -999.25    -999.25    -999.25      0.000    -999.25      4.425    -999.25    -999.25    -999.25
10:05:29 21-Sep-07    186.209      6.553     41.796      0.000     -0.905     89.740     -1.195      0.000      -999.25    -999.25    -999.25      0.000    -999.25      4.448    -999.25    -999.25    -999.25
10:05:39 21-Sep-07    186.209      6.553     41.796      0.000     -0.936     89.771     -0.704      0.000      -999.25    -999.25    -999.25      0.000    -999.25      4.449    -999.25    -999.25    -999.25
10:05:49 21-Sep-07    186.209      6.553     41.796      0.000     -1.012     89.847     -1.282     25.000      -999.25    -999.25    -999.25      0.000    -999.25      5.068    -999.25    -999.25    -999.25
10:05:59 21-Sep-07    186.209      6.553     41.796      0.000     -1.105     89.940     -1.282     25.000      -999.25    -999.25    -999.25      0.000    -999.25      5.248    -999.25    -999.25    -999.25
10:06:09 21-Sep-07    186.209      6.553     41.796      0.000     -1.165     90.000     -1.250     51.000      -999.25    -999.25    -999.25      0.000    -999.25     23.269    -999.25    -999.25    -999.25
10:06:19 21-Sep-07    186.209      6.553     41.796      0.000     -1.079     89.914     -1.250     51.000      -999.25    -999.25    -999.25      0.000    -999.25     43.602    -999.25    -999.25    -999.25
10:06:29 21-Sep-07    186.209      6.553     41.796      0.000     -1.052     89.887     -1.250     51.000      -999.25    -999.25    -999.25      0.000    -999.25     50.834    -999.25    -999.25    -999.25
10:06:39 21-Sep-07    186.209      6.553     41.796      0.000     -1.108     89.943     -0.543      0.000      -999.25    -999.25    -999.25   2658.571    -999.25     57.647    -999.25    -999.25    -999.25
10:06:49 21-Sep-07    186.209      6.553     41.796      0.000     -0.973     89.808     -0.543      0.000      -999.25    -999.25    -999.25   2658.571    -999.25     69.256    -999.25    -999.25    -999.25
10:06:59 21-Sep-07    186.209      6.553     41.796      0.000     -1.162     89.997     -1.334     86.000      -999.25    -999.25    -999.25   2658.571    -999.25     71.900    -999.25    -999.25    -999.25
