~VERSION INFORMATION 
VERS  .    2.0                                     :CWLS Log ASCII Standard - VERSION2.0
WRAP  .    NO                                      :One Line per Time step
DLM   .    SPACE                                   :Column Data section Delimiter
PROD  .    Schlumberger Technology Corp.           :LAS Producer
PROG  .    Horizon LASWriter 1.1.8606.0            :LAS Program name and version
CREA  .    08/18/2009                              :LAS Creation date {MM/DD/YYYY}
#--------------------------------------------------
~WELL INFORMATION 
#MNEM           .UNIT                      DATA            :DESCRIPTION
#----            ------          --------------            -----------------------------
 STRT           .S               04:00:00/03-Jul-2009  :START TIME                          
 STOP           .S               11:00:00/04-Jul-2009  :STOP TIME                          
 STEP           .S                           0.00000       :STEP
NULL            .                       -999.25            :NULL VALUE
COMP            .                  StatoilHydro            :COMPANY
WELL            .                    15/9-F-9 A            :WELL NAME
FLD             .                         Volve            :FIELD NAME
RIGN            .                Maersk Inspirer           :Rig Name
RIGTYP          .                       Jack-up            :Rig Type
SON             .                     09SCA0196            :Service Order Number
SRVC            .                  Schlumberger            :SERVICE COMPANY
DATE            .                    07/03/2009            :LOG DATE{MM/DD/YYYY} (Composite Date for Composite LAP)
CLAB            .                       County:            :County Label
CNTY            .                       -999.25            :COUNTY
SLAB            .                       -999.25            :State/Province Label
STAT            .                       -999.25            :STATE or PROVINCE
PROV            .                       -999.25            :STATE or PROVINCE
CTRY            .                        Norway            :COUNTRY
CONT_REGION     .                        Europe            :Continent Region
SECT            .                       -999.25            :Section
TOWN            .                       -999.25            :Township
RANG            .                       -999.25            :Range
API             .                       -999.25            :API NUMBER
UWI             .                       -999.25            :UNIQUE WELL ID
LUL             .                  Weather Deck            :Logging Unit Location
LUN             .                Geoservices: 1010567      :Logging Unit Number
LOC             .                Norwegian North Sea       :FIELD LOCATION
FL1             .                Section: 12 1/4 in.       :Field Location Line 1
FL2             .                Job no.: 09SCA0196        :Field Location Line 2
LATI            .                58° 26' 29.74" N          :LATITUDE
LONG            .                  1° 53' 15" E            :LONGITUDE
PDAT            .                           MSL            :Local Permanent Datum
LMF             .                            DF            :Logging Measured From
APD             .M                      54.9000            :Elevation of Depth Reference (LMF) Above Permanent Datum
EPD             .M                       0.0000            :Elevation of Permanent Datum (PDAT) above Mean Sea Level
EKB             .M                      -999.25            :Elevation of Kelly Bushing Above Permanent Datum
EDF             .M                      54.9000            :Elevation of Drill Floor Above Permanent Datum
EGL             .M                     -91.0000            :Elevation of Ground Level Above Permanent Datum
ECF             .M                      -999.25            :Elevation of Casing Flange above Permanent Datum
#--------------------------------------------------
~CURVE INFORMATION
#MNEM           .UNIT                  API CODE            :DESCRIPTION
#----            ------          --------------            ----------------------------------------
 TIME           .S                                         :                                          Time Index(hh:mm  :ss/dd-MMM-yyyy)
DEPTH           .M                                         :(RT)    (DnMWorkflow)           (1)       Depth Index
ROP5            .M/HR                                      :(RT)                            (1)       Rate of penetration averaged over the last 5 ft (1.5 m)
GR              .GAPI                                      :(RT)    (TELE825-IWOB)          (1)       Gamma Ray
BLKP            .M                                         :(RT)                            (1)       Height of block above rig floor
PVEL            .M/HR                                      :(RT)                            (1)       Pipe Velocity
HKLA            .KKGF                                      :(RT)                            (1)       Average Hookload
SWOB            .KKGF                                      :(RT)                            (1)       Surface Weight On Bit
STOR            .kN.m                                      :(RT)                            (1)       Surface Torque
RPM             .RPM                                       :(RT)                            (1)       Rotational Speed
STICK           .RPM                                       :(RM)    (TELE825-IWOB)          (1)       Stick Slip Indicator
TFLO            .LPM                                       :(RT)                            (1)       Total flow rate of all active pumps
SPM1            .SD/M                                      :(RT)                            (1)       Pump 1 Stroke Rate
SPM2            .SD/M                                      :(RT)                            (1)       Pump 2 Stroke Rate
SPM3            .SD/M                                      :(RT)                            (1)       Pump 3 Stroke Rate
SPPA            .BAR                                       :(RT)                            (1)       Standpipe Pressure
AJAM            .                                          :(RT)    (TELE825-IWOB)          (1)       Number of Anti-Jams Detected
TRPM            .RPM                                       :(RT)    (TELE825-IWOB)          (1)       MWD Turbine Rotation Speed
SHKL            .                                          :(RT)    (TELE825-IWOB)          (1)       Tool Shock Level
SHKPK           .M/S2                                      :(RT)    (TELE825-IWOB)          (1)       Shock Peak
SHKR            .CPS                                       :(RT)    (TELE825-IWOB)          (1)       Shock Rate
SHKRSK          .                                          :(RT)    (TELE825-IWOB)          (1)       Shock Risk
#-------------------------------------------------------------
#          TIME          DEPTH           ROP5             GR           BLKP           PVEL           HKLA           SWOB           STOR            RPM          STICK           TFLO           SPM1           SPM2           SPM3           SPPA           AJAM           TRPM           SHKL          SHKPK           SHKR         SHKRSK 
#                 (DnMWorkflow)                 (TELE825-IWO)                                                                                            (TELE825-IWO)                                                                             (TELE825-IWO)  (TELE825-IWO)  (TELE825-IWO)  (TELE825-IWO)  (TELE825-IWO)  (TELE825-IWO)
#                           (1)            (1)            (1)            (1)            (1)            (1)            (1)            (1)            (1)            (1)            (1)            (1)            (1)            (1)            (1)            (1)            (1)            (1)            (1)            (1)            (1)
#                          (RT)           (RT)           (RT)           (RT)           (RT)           (RT)           (RT)           (RT)           (RT)           (RM)           (RT)           (RT)           (RT)           (RT)           (RT)           (RT)           (RT)           (RT)           (RT)           (RT)           (RT)
~ASCII 
04:00:00/03-Jul-2009       394.3107        -999.25        -999.25        48.9196         0.0000        96.0680       -56.1694         1.1182         6.0000        -999.25       199.3932         9.0000         0.0000         0.0000        14.6689        -999.25        -999.25        -999.25        -999.25        -999.25        -999.25
04:00:10/03-Jul-2009       394.3107        -999.25        -999.25        48.9196         0.0000        96.1277       -56.2432         1.1138         6.0000        -999.25       199.3932         9.0000         0.0000         0.0000        14.6164        -999.25        -999.25        -999.25        -999.25        -999.25        -999.25
04:00:20/03-Jul-2009       394.3107        -999.25        -999.25        48.9196         0.0000        96.1794       -56.2832         1.1183         6.0000        -999.25       199.3932         9.0000         0.0000         0.0000        14.5207        -999.25        -999.25        -999.25        -999.25        -999.25        -999.25
04:00:30/03-Jul-2009       394.3107        -999.25        -999.25        48.9196         0.0000        96.2690       -56.3933         1.1223         5.0000        -999.25       110.7740         5.0000         0.0000         0.0000        13.4581        -999.25        -999.25        -999.25        -999.25        -999.25        -999.25
04:00:40/03-Jul-2009       394.2805        -999.25        -999.25        48.9459       -26.1733        97.5490       -57.8397         1.1002         2.0000        -999.25         0.0000         0.0000         0.0000         0.0000        12.4295        -999.25        -999.25        -999.25        -999.25        -999.25        -999.25
04:00:50/03-Jul-2009       393.9642        -999.25        -999.25        49.2578      -134.1704       101.3843       -61.2614         1.1024         0.0000        -999.25         0.0000         0.0000         0.0000         0.0000        12.5377        -999.25        -999.25        -999.25        -999.25        -999.25        -999.25
04:01:00/03-Jul-2009       393.5884        -999.25        -999.25        49.6334      -135.6380       102.1476       -62.4302         1.0984         0.0000        -999.25         0.0000         0.0000         0.0000         0.0000        11.5369        -999.25        -999.25        -999.25        -999.25        -999.25        -999.25
04:01:10/03-Jul-2009       393.3858        -999.25        -999.25        49.8445        -6.4330       101.3018       -61.4147         1.0681         0.0000        -999.25         0.0000         0.0000         0.0000         0.0000        10.6133        -999.25        -999.25        -999.25        -999.25        -999.25        -999.25
04:01:20/03-Jul-2009       393.4673        -999.25        -999.25        49.7661        49.3697        95.8535       -55.7929         1.1036         0.0000        -999.25         0.0000         0.0000         0.0000         0.0000        10.3569        -999.25        -999.25        -999.25        -999.25        -999.25        -999.25
04:01:30/03-Jul-2009       393.6060        -999.25        -999.25        49.6275        49.7571        94.8201       -54.7360         1.0890         0.0000        -999.25         0.0000         0.0000         0.0000         0.0000        10.6998        -999.25        -999.25        -999.25        -999.25        -999.25        -999.25
04:01:40/03-Jul-2009       393.7380        -999.25        -999.25        49.4954        49.7663        94.8896       -55.1338         1.1047         0.0000        -999.25         0.0000         0.0000         0.0000         0.0000        11.0458        -999.25        -999.25        -999.25        -999.25        -999.25        -999.25
04:01:50/03-Jul-2009       393.8838        -999.25        -999.25        49.3497        49.9960        94.7328       -54.7377         1.1057         0.0000        -999.25         0.0000         0.0000         0.0000         0.0000        11.5184        -999.25        -999.25        -999.25        -999.25        -999.25        -999.25
04:02:00/03-Jul-2009       394.0355        -999.25        -999.25        49.2006        57.3741        94.9847       -54.8692         1.1213         0.0000        -999.25         0.0000         0.0000         0.0000         0.0000        11.5554        -999.25        -999.25        -999.25        -999.25        -999.25        -999.25
04:02:10/03-Jul-2009       394.2977        -999.25        -999.25        48.9387        99.3036        94.7251       -54.8431         1.1271         0.0000        -999.25         0.0000         0.0000         0.0000         0.0000        11.6543        -999.25        -999.25        -999.25        -999.25        -999.25        -999.25
04:02:20/03-Jul-2009       394.5881         1.7638        -999.25        48.6485        99.0731        94.4784       -54.3228         1.1133         0.0000        -999.25         0.0000         0.0000         0.0000         0.0000        11.5400        -999.25        -999.25        -999.25        -999.25        -999.25        -999.25
04:02:30/03-Jul-2009       394.8641        99.3649        -999.25        48.3723        99.3028        94.1032       -53.7184         1.0832         0.0000        -999.25         0.0000         0.0000         0.0000         0.0000        11.5276        -999.25        -999.25        -999.25        -999.25        -999.25        -999.25
04:02:40/03-Jul-2009       395.1271        99.5590        -999.25        48.1096        99.5241        94.5346       -54.5990         1.0823         0.0000        -999.25         0.0000         0.0000         0.0000         0.0000        11.7099        -999.25        -999.25        -999.25        -999.25        -999.25        -999.25
04:02:50/03-Jul-2009       395.4171        99.5076        -999.25        47.8194        98.8602        94.1345       -54.4251         1.0825         0.0000        -999.25         0.0000         0.0000         0.0000         0.0000        11.6172        -999.25        -999.25        -999.25        -999.25        -999.25        -999.25
04:03:00/03-Jul-2009       395.6938        99.5155        -999.25        47.5428        99.5233        93.3047       -54.5715         1.0802         0.0000        -999.25         0.0000         0.0000         0.0000         0.0000        11.5307        -999.25        -999.25        -999.25        -999.25        -999.25        -999.25
04:03:10/03-Jul-2009       395.9565        99.5066        -999.25        47.2802        99.5241        93.1092       -53.1174         1.0950         0.0000        -999.25         0.0000         0.0000         0.0000         0.0000        11.6295        -999.25        -999.25        -999.25        -999.25        -999.25        -999.25
04:03:20/03-Jul-2009       396.2468        99.5301        -999.25        46.9898        99.2759        92.8077       -52.9329         1.1240         0.0000        -999.25         0.0000         0.0000         0.0000         0.0000        11.6542        -999.25        -999.25        -999.25        -999.25        -999.25        -999.25
04:03:30/03-Jul-2009       396.5231        99.5224        -999.25        46.7135        99.3112        92.9489       -53.6352         1.1373         0.0000        -999.25         0.0000         0.0000         0.0000         0.0000        11.7098        -999.25        -999.25        -999.25        -999.25        -999.25        -999.25
04:03:40/03-Jul-2009       396.7858        99.5338        -999.25        46.4507        99.5418        93.3542       -53.6528         1.1357         0.0000        -999.25         0.0000         0.0000         0.0000         0.0000        11.8180        -999.25        -999.25        -999.25        -999.25        -999.25        -999.25
04:03:50/03-Jul-2009       397.0761        99.5457        -999.25        46.1604        99.2582        93.3890       -53.4980         1.1258         0.0000        -999.25         0.0000         0.0000         0.0000         0.0000        11.7037        -999.25        -999.25        -999.25        -999.25        -999.25        -999.25
