~VERSION INFORMATION 
VERS  .    2.0                                     :CWLS Log ASCII Standard - VERSION2.0
WRAP  .    NO                                      :One Line per Time step
DLM   .    SPACE                                   :Column Data section Delimiter
PROD  .    Schlumberger Technology Corp.           :LAS Producer
PROG  .    Horizon LASWriter 1.1.8606.0            :LAS Program name and version
CREA  .    08/18/2009                              :LAS Creation date {MM/DD/YYYY}
#--------------------------------------------------
~WELL INFORMATION 
#MNEM           .UNIT                      DATA            :DESCRIPTION
#----            ------          --------------            -----------------------------
 STRT           .S               04:00:00/03-Jul-2009  :START TIME                          
 STOP           .S               11:00:00/04-Jul-2009  :STOP TIME                          
 STEP           .S                           0.00000       :STEP
NULL            .                       -999.25            :NULL VALUE
COMP            .                  StatoilHydro            :COMPANY
WELL            .                    15/9-F-9 A            :WELL NAME
FLD             .                         Volve            :FIELD NAME
RIGN            .                Maersk Inspirer           :Rig Name
RIGTYP          .                       Jack-up            :Rig Type
SON             .                     09SCA0196            :Service Order Number
SRVC            .                  Schlumberger            :SERVICE COMPANY
DATE            .                    07/03/2009            :LOG DATE{MM/DD/YYYY} (Composite Date for Composite LAP)
CLAB            .                       County:            :County Label
CNTY            .                       -999.25            :COUNTY
SLAB            .                       -999.25            :State/Province Label
STAT            .                       -999.25            :STATE or PROVINCE
PROV            .                       -999.25            :STATE or PROVINCE
CTRY            .                        Norway            :COUNTRY
CONT_REGION     .                        Europe            :Continent Region
SECT            .                       -999.25            :Section
TOWN            .                       -999.25            :Township
RANG            .                       -999.25            :Range
API             .                       -999.25            :API NUMBER
UWI             .                       -999.25            :UNIQUE WELL ID
LUL             .                  Weather Deck            :Logging Unit Location
LUN             .                Geoservices: 1010567      :Logging Unit Number
LOC             .                Norwegian North Sea       :FIELD LOCATION
FL1             .                Section: 12 1/4 in.       :Field Location Line 1
FL2             .                Job no.: 09SCA0196        :Field Location Line 2
LATI            .                58° 26' 29.74" N          :LATITUDE
LONG            .                  1° 53' 15" E            :LONGITUDE
PDAT            .                           MSL            :Local Permanent Datum
LMF             .                            DF            :Logging Measured From
APD             .M                      54.9000            :Elevation of Depth Reference (LMF) Above Permanent Datum
EPD             .M                       0.0000            :Elevation of Permanent Datum (PDAT) above Mean Sea Level
EKB             .M                      -999.25            :Elevation of Kelly Bushing Above Permanent Datum
EDF             .M                      54.9000            :Elevation of Drill Floor Above Permanent Datum
EGL             .M                     -91.0000            :Elevation of Ground Level Above Permanent Datum
ECF             .M                      -999.25            :Elevation of Casing Flange above Permanent Datum
#--------------------------------------------------
~CURVE INFORMATION
#MNEM           .UNIT                  API CODE            :DESCRIPTION
#----            ------          --------------            ----------------------------------------
 TIME           .S                                         :                                          Time Index(hh:mm  :ss/dd-MMM-yyyy)
DEPTH           .M                                         :(RT)    (DnMWorkflow)           (1)       Depth Index
ROP5            .M/HR                                      :(RT)                            (1)       Rate of penetration averaged over the last 5 ft (1.5 m)
GR              .GAPI                                      :(RT)    (TELE825-IWOB)          (1)       Gamma Ray
BLKP            .M                                         :(RT)                            (1)       Height of block above rig floor
PVEL            .M/HR                                      :(RT)                            (1)       Pipe Velocity
HKLA            .KKGF                                      :(RT)                            (1)       Average Hookload
SWOB            .KKGF                                      :(RT)                            (1)       Surface Weight On Bit
STOR            .kN.m                                      :(RT)                            (1)       Surface Torque
RPM             .RPM                                       :(RT)                            (1)       Rotational Speed
STICK           .RPM                                       :(RM)    (TELE825-IWOB)          (1)       Stick Slip Indicator
TFLO            .LPM                                       :(RT)                            (1)       Total flow rate of all active pumps
SPM1            .SD/M                                      :(RT)                            (1)       Pump 1 Stroke Rate
SPM2            .SD/M                                      :(RT)                            (1)       Pump 2 Stroke Rate
SPM3            .SD/M                                      :(RT)                            (1)       Pump 3 Stroke Rate
SPPA            .BAR                                       :(RT)                            (1)       Standpipe Pressure
AJAM            .                                          :(RT)    (TELE825-IWOB)          (1)       Number of Anti-Jams Detected
TRPM            .RPM                                       :(RT)    (TELE825-IWOB)          (1)       MWD Turbine Rotation Speed
SHKL            .                                          :(RT)    (TELE825-IWOB)          (1)       Tool Shock Level
SHKPK           .M/S2                                      :(RT)    (TELE825-IWOB)          (1)       Shock Peak
SHKR            .CPS                                       :(RT)    (TELE825-IWOB)          (1)       Shock Rate
SHKRSK          .                                          :(RT)    (TELE825-IWOB)          (1)       Shock Risk
#-------------------------------------------------------------
#          TIME          DEPTH           ROP5             GR           BLKP           PVEL           HKLA           SWOB           STOR            RPM          STICK           TFLO           SPM1           SPM2           SPM3           SPPA           AJAM           TRPM           SHKL          SHKPK           SHKR         SHKRSK 
#                 (DnMWorkflow)                 (TELE825-IWO)                                                                                            (TELE825-IWO)                                                                             (TELE825-IWO)  (TELE825-IWO)  (TELE825-IWO)  (TELE825-IWO)  (TELE825-IWO)  (TELE825-IWO)
#                           (1)            (1)            (1)            (1)            (1)            (1)            (1)            (1)            (1)            (1)            (1)            (1)            (1)            (1)            (1)            (1)            (1)            (1)            (1)            (1)            (1)
#                          (RT)           (RT)           (RT)           (RT)           (RT)           (RT)           (RT)           (RT)           (RT)           (RM)           (RT)           (RT)           (RT)           (RT)           (RT)           (RT)           (RT)           (RT)           (RT)           (RT)           (RT)
~ASCII 
# ...
10:56:00/04-Jul-2009       901.6967        -999.25       223.3138        19.2725      -207.9983       105.0973         5.4894         8.0091       154.0000        -999.25      3801.1470        89.0000         0.0000        83.0000       169.0326        -999.25        -999.25        -999.25        -999.25        -999.25        -999.25
10:56:10/04-Jul-2009       901.1327        -999.25        -999.25        19.8359      -217.1416       103.9577         5.7396         7.3418       154.0000        -999.25      3801.1470        89.0000         0.0000        83.0000       167.8774         0.0000        -999.25        -999.25        -999.25        -999.25        -999.25
10:56:20/04-Jul-2009       900.4979        -999.25        -999.25        20.4711      -215.9905       104.9105         3.8446         7.0760       154.0000        -999.25      3801.1470        89.0000         0.0000        83.0000       168.0844        -999.25      3476.5630        -999.25         0.0000         0.0000         0.0000
10:56:30/04-Jul-2009       899.8936        -999.25       213.2546        21.0750      -216.0623       105.1717         4.8442         8.8301       154.0000        -999.25      3845.2280        89.0000         0.0000        85.0000       171.2041        -999.25        -999.25        -999.25        -999.25        -999.25        -999.25
10:56:40/04-Jul-2009       899.3195        -999.25        -999.25        21.6491      -217.4702       105.3718         4.4805         8.9796       155.0000        -999.25      3845.2280        89.0000         0.0000        85.0000       175.5748         0.0000        -999.25        -999.25        -999.25        -999.25        -999.25
10:56:50/04-Jul-2009       898.6594        -999.25        -999.25        22.3060      -238.4789       104.2729         4.9407         9.6220       156.0000        -999.25      3845.2280        89.0000         0.0000        85.0000       176.6991        -999.25        -999.25        -999.25        -999.25        -999.25        -999.25
10:57:00/04-Jul-2009       897.9105        -999.25        -999.25        23.0552      -267.9998       105.8095         3.6309        12.1856       156.0000        -999.25      3845.2280        89.0000         0.0000        85.0000       179.5408        -999.25      3476.5630        -999.25         0.0000         0.0000         0.0000
10:57:10/04-Jul-2009       897.2310        -999.25       215.2665        23.7352      -256.4630       105.8212         4.0433        11.6831       156.0000        -999.25      3845.2280        89.0000         0.0000        85.0000       178.2527        -999.25        -999.25        -999.25        -999.25        -999.25        -999.25
10:57:20/04-Jul-2009       896.4789        -999.25        -999.25        24.4873      -257.2050       104.6212         4.2948         9.1280       155.0000        -999.25      3845.2280        89.0000         0.0000        85.0000       172.5909         0.0000        -999.25        -999.25        -999.25        -999.25        -999.25
10:57:30/04-Jul-2009       895.7619        -999.25        -999.25        25.2045      -257.0200       104.4535         4.8019         7.4903       155.0000        -999.25      3845.2280        89.0000         0.0000        85.0000       168.6187        -999.25        -999.25        -999.25         0.0000         0.0000         0.0000
10:57:40/04-Jul-2009       895.0825        -999.25        -999.25        25.8836      -256.8569       104.7755         4.8081         9.3256       155.0000        78.0000      3845.2280        89.0000         0.0000        85.0000       175.0249        -999.25      3476.5630        -999.25        -999.25        -999.25        -999.25
10:57:50/04-Jul-2009       894.3307        -999.25       223.3138        26.6357      -256.5870       105.1954         3.7969         8.1543       155.0000        -999.25      3845.2280        89.0000         0.0000        85.0000       176.0628        -999.25        -999.25        -999.25        -999.25        -999.25        -999.25
10:58:00/04-Jul-2009       893.6155        -999.25        -999.25        27.3507      -256.9047       105.4531         5.2014         6.8853       157.0000        -999.25      3845.2280        89.0000         0.0000        85.0000       172.2450         0.0000        -999.25        -999.25        -999.25        -999.25        -999.25
10:58:10/04-Jul-2009       892.9354        -999.25        -999.25        28.0308      -256.5762       104.3043         5.1362         6.6677       155.0000        -999.25      3845.2280        89.0000         0.0000        85.0000       170.8056        -999.25        -999.25        -999.25         0.0000         0.0000         0.0000
10:58:20/04-Jul-2009       892.1794        -999.25        -999.25        28.7866      -258.5236       103.6269         4.9412         6.7953       155.0000        -999.25      3845.2280        89.0000         0.0000        85.0000       170.3237        -999.25      3515.6250        -999.25        -999.25        -999.25        -999.25
10:58:30/04-Jul-2009       891.6485        -999.25       213.2546        29.3339      -115.6752       100.4573         8.1182         7.7688       155.0000        -999.25      3845.2280        89.0000         0.0000        85.0000       177.0079         0.0000        -999.25        -999.25        -999.25        -999.25        -999.25
10:58:40/04-Jul-2009       891.4473        -999.25        -999.25        29.5270       -99.3252       104.4387         4.9709         7.7557       156.0000        -999.25      3845.2280        89.0000         0.0000        85.0000       180.6404        -999.25        -999.25        -999.25        -999.25        -999.25        -999.25
10:58:50/04-Jul-2009       890.9908        -999.25        -999.25        29.9814      -160.0100       104.3937         4.4157         6.3910       156.0000        -999.25      3845.2280        89.0000         0.0000        85.0000       174.3917        -999.25      3398.4380        -999.25         0.0000         0.0000         0.0000
10:59:00/04-Jul-2009       890.5126        -999.25       211.2428        30.4700      -156.1260       102.8835         3.7380        11.1364       155.0000        -999.25      3845.2280        89.0000         0.0000        85.0000       175.5161        -999.25        -999.25        -999.25        -999.25        -999.25        -999.25
10:59:10/04-Jul-2009       890.1116        -999.25        -999.25        30.8604      -166.8904       104.9014         4.2685        13.1552       155.0000        -999.25      3845.2280        89.0000         0.0000        85.0000       180.4273         0.0000        -999.25        -999.25        -999.25        -999.25        -999.25
10:59:20/04-Jul-2009       889.6208        -999.25        -999.25        31.3509      -167.6454       104.5932         4.6480         9.4937       155.0000        -999.25      3845.2280        89.0000         0.0000        85.0000       172.1832        -999.25        -999.25        -999.25         0.0000         0.0000         0.0000
10:59:30/04-Jul-2009       889.1552        -999.25        -999.25        31.8169      -166.8447       106.3168         4.1018         7.9357       156.0000        -999.25      3845.2280        89.0000         0.0000        85.0000       170.6975        -999.25      3515.6250        -999.25        -999.25        -999.25        -999.25
10:59:40/04-Jul-2009       888.7131        -999.25       231.3612        32.2590      -165.8459       103.4600         5.5433         7.7848       155.0000       114.0000      3845.2280        89.0000         0.0000        85.0000       174.8952        -999.25        -999.25        -999.25        -999.25        -999.25        -999.25
10:59:50/04-Jul-2009       888.2229        -999.25        -999.25        32.7488      -167.5453        98.5795        10.7100         8.0779       155.0000        -999.25      3845.2280        89.0000         0.0000        85.0000       173.2643         0.0000        -999.25        -999.25        -999.25        -999.25        -999.25
