~Version Information
VERS.             2.0 : CWLS log ASCII standard - Version 2.0
WRAP.             NO  : One line per depth step
#
~Well Information Block
#MNEM.UNIT                   Data Type:Information
#__________________________________________________________
  STRT.           21-SEP-2007 06:00:00 : START INDEX                   
  STOP.           21-SEP-2007 18:00:00 : STOP INDEX                    
  STEP.SEC           10.0000 : STEP                          
  NULL.              -999.25 : NULL VALUE                    
  COMP.              Statoil : COMPANY                       
  WELL.              15/9-F7 : WELL                          
   FLD.                Volve : FIELD                         
   LOC.                      : LOCATION                      
  PROV.                      : PROVINCE                      
  CNTY.                      : COUNTY                        
  STAT.                      : STATE                         
  CTRY.               Norway : COUNTRY                       
  SRVC.           Schlumberger : SERVICE COMPANY               
  DATE.           21-SEP-2007 04:03:39 : LOG DATE                      
   UWI.                      : UNIQUE WELL ID                
   API.                      : API NUMBER                    
#
~Curve Information Block
#MNEM.UNIT                     : Curve Description
#---------                     --------------------
TIME	    .HHMMSS	       : 
DATE	    .D		       : 
DEPT        .M                 : Bit Depth 2hz                                                   
ROP5        .M/HR              : 5ft ROP 2hz                                                     
BPOS        .M                 : Block Position 2hz                                              
BVEL        .M/S               : Block Velocity 2hz                                              
SWOB        .KKGF              : Surface Weight on Bit 2hz                                       
HKLD        .KKGF              : Measured Hookload 2hz                                           
TQA         .KMN               : SRF STOR 2hz                                                    
RPM         .RPM               : SRF SRPM 2hz                                                    
INCL_CONT_RT.DEG               : MWD Cont Inc 2hz                                                
Stick_RT    .RPM               : MWD PKtoPK RPM 2hz                                              
CRPM_RT     .RPM               : MWD CRPM 2hz                                                    
TFLO        .LPM               : HSPM Total Pump Flow 2hz                                        
TRPM_RT     .RPM               : MWD TUR_RPM 2hz                                                 
SPPA        .BAR               : SRF PUMPRS 2hz                                                  
SHKRSK_RT   .----              : MWD SHKRSK 2hz                                                  
SHKPK_RT    .G                 : MWD SHK_PK 2hz                                                  
GR          .GAPI              : MWD GR(TM) 2hz                                                  
#
~Parameter Information Block
#MNEM.UNIT                       Value:Description
#__________________________________________________________
#
~Other Information Block

#
~A TIME       DATE       DEPT       ROP5       BPOS       BVEL       SWOB       HKLD        TQA        RPM INCL_CONT_RT   Stick_RT    CRPM_RT       TFLO    TRPM_RT       SPPA  SHKRSK_RT   SHKPK_RT       GR
# ...
09:08:39 21-Sep-07    186.710      6.553      0.285      0.000      0.000     63.467      0.017      0.000      -999.25    -999.25    -999.25      0.000    -999.25      2.980    -999.25    -999.25    -999.25
09:08:49 21-Sep-07    186.710      6.553      0.285      0.000      0.000     63.488      0.017      0.000      -999.25    -999.25    -999.25      0.000    -999.25      2.978    -999.25    -999.25    -999.25
09:08:59 21-Sep-07    186.710      6.553      0.285      0.000      0.000     63.490      0.012      0.000      -999.25    -999.25    -999.25      0.000    -999.25      2.980    -999.25    -999.25    -999.25
09:09:09 21-Sep-07    186.710      6.553      0.285      0.000      0.000     63.418      0.012      0.000      -999.25    -999.25    -999.25      0.000    -999.25      2.980    -999.25    -999.25    -999.25
09:09:19 21-Sep-07    186.710      6.553      0.285      0.000      0.000     63.484      0.012      0.000      -999.25    -999.25    -999.25      0.000    -999.25      2.978    -999.25    -999.25    -999.25
09:09:29 21-Sep-07    186.710      6.553      0.285      0.000      0.000     63.426      0.012      0.000      -999.25    -999.25    -999.25      0.000    -999.25      2.979    -999.25    -999.25    -999.25
09:09:39 21-Sep-07    186.710      6.553      0.285      0.000      0.000     63.413      0.009      0.000      -999.25    -999.25    -999.25      0.000    -999.25      2.976    -999.25    -999.25    -999.25
09:09:49 21-Sep-07    186.710      6.553      0.285      0.000      0.000     63.424      0.012      0.000      -999.25    -999.25    -999.25      0.000    -999.25      2.979    -999.25    -999.25    -999.25
09:09:59 21-Sep-07    186.710      6.553      0.285      0.000      0.000     63.458      0.012      0.000      -999.25    -999.25    -999.25      0.000    -999.25      2.980    -999.25    -999.25    -999.25
09:10:09 21-Sep-07    186.710      6.553      0.285      0.000      0.000     63.492      0.012      0.000      -999.25    -999.25    -999.25      0.000    -999.25      2.976    -999.25    -999.25    -999.25
09:10:19 21-Sep-07    186.710      6.553      0.285      0.000      0.000     63.393      0.012      0.000      -999.25    -999.25    -999.25      0.000    -999.25      2.978    -999.25    -999.25    -999.25
09:10:29 21-Sep-07    186.710      6.553      0.285      0.000      0.000     63.376      0.014      0.000      -999.25    -999.25    -999.25      0.000    -999.25      2.977    -999.25    -999.25    -999.25
09:10:39 21-Sep-07    186.710      6.553      0.285      0.000      0.000     63.413      0.011      0.000      -999.25    -999.25    -999.25      0.000    -999.25      2.978    -999.25    -999.25    -999.25
09:10:49 21-Sep-07    186.710      6.553      0.285      0.000      0.000     63.404      0.011      0.000      -999.25    -999.25    -999.25      0.000    -999.25      2.977    -999.25    -999.25    -999.25
09:10:59 21-Sep-07    186.710      6.553      0.285      0.000      0.000     63.432      0.014      0.000      -999.25    -999.25    -999.25      0.000    -999.25      2.976    -999.25    -999.25    -999.25
09:11:09 21-Sep-07    186.710      6.553      0.285      0.000      0.000     63.374      0.011      0.000      -999.25    -999.25    -999.25      0.000    -999.25      2.979    -999.25    -999.25    -999.25
09:11:19 21-Sep-07    186.710      6.553      0.285      0.000      0.000     63.403      0.012      0.000      -999.25    -999.25    -999.25      0.000    -999.25      2.978    -999.25    -999.25    -999.25
09:11:29 21-Sep-07    186.710      6.553      0.285      0.000      0.000     63.444      0.012      0.000      -999.25    -999.25    -999.25      0.000    -999.25      2.978    -999.25    -999.25    -999.25
09:11:39 21-Sep-07    186.710      6.553      0.285      0.000      0.000     63.445      0.013      0.000      -999.25    -999.25    -999.25      0.000    -999.25      2.975    -999.25    -999.25    -999.25
09:11:49 21-Sep-07    186.710      6.553      0.285      0.000      0.000     63.463      0.013      0.000      -999.25    -999.25    -999.25      0.000    -999.25      2.978    -999.25    -999.25    -999.25
09:11:59 21-Sep-07    186.710      6.553      0.285      0.000      0.000     63.477      0.012      0.000      -999.25    -999.25    -999.25      0.000    -999.25      2.979    -999.25    -999.25    -999.25
09:12:09 21-Sep-07    186.710      6.553      0.285      0.000      0.000     63.487      0.009      0.000      -999.25    -999.25    -999.25      0.000    -999.25      2.978    -999.25    -999.25    -999.25
09:12:19 21-Sep-07    186.710      6.553      0.285      0.000      0.000     63.467      0.009      0.000      -999.25    -999.25    -999.25      0.000    -999.25      2.978    -999.25    -999.25    -999.25
09:12:29 21-Sep-07    186.710      6.553      0.285      0.000      0.000     63.459      0.012      0.000      -999.25    -999.25    -999.25      0.000    -999.25      2.977    -999.25    -999.25    -999.25
09:12:39 21-Sep-07    186.710      6.553      0.285      0.000      0.000     63.455      0.009      0.000      -999.25    -999.25    -999.25      0.000    -999.25      2.978    -999.25    -999.25    -999.25
09:12:49 21-Sep-07    186.710      6.553      0.285      0.000      0.000     63.486      0.010      0.000      -999.25    -999.25    -999.25      0.000    -999.25      2.976    -999.25    -999.25    -999.25
09:12:59 21-Sep-07    186.710      6.553      0.285      0.000      0.000     63.501      0.010      0.000      -999.25    -999.25    -999.25      0.000    -999.25      2.978    -999.25    -999.25    -999.25
09:13:09 21-Sep-07    186.710      6.553      0.285      0.000      0.000     63.424      0.012      0.000      -999.25    -999.25    -999.25      0.000    -999.25      2.975    -999.25    -999.25    -999.25
09:13:19 21-Sep-07    186.710      6.553      0.285      0.000      0.000     63.504      0.012      0.000      -999.25    -999.25    -999.25      0.000    -999.25      2.980    -999.25    -999.25    -999.25
09:13:29 21-Sep-07    186.710      6.553      0.285      0.000      0.000     63.471      0.010      0.000      -999.25    -999.25    -999.25      0.000    -999.25      2.977    -999.25    -999.25    -999.25
09:13:39 21-Sep-07    186.710      6.553      0.285      0.000      0.000     63.464      0.008      0.000      -999.25    -999.25    -999.25      0.000    -999.25      2.978    -999.25    -999.25    -999.25
09:13:49 21-Sep-07    186.710      6.553      0.285      0.000      0.000     63.451      0.008      0.000      -999.25    -999.25    -999.25      0.000    -999.25      2.977    -999.25    -999.25    -999.25
09:13:59 21-Sep-07    186.710      6.553      0.285      0.000      0.000     63.431      0.012      0.000      -999.25    -999.25    -999.25      0.000    -999.25      2.978    -999.25    -999.25    -999.25
09:14:09 21-Sep-07    186.710      6.553      0.285      0.000      0.000     63.374      0.009      0.000      -999.25    -999.25    -999.25      0.000    -999.25      2.977    -999.25    -999.25    -999.25
09:14:19 21-Sep-07    186.710      6.553      0.285      0.000      0.000     63.439      0.012      0.000      -999.25    -999.25    -999.25      0.000    -999.25      2.978    -999.25    -999.25    -999.25
09:14:29 21-Sep-07    186.710      6.553      0.285      0.000      0.000     63.435      0.012      0.000      -999.25    -999.25    -999.25      0.000    -999.25      2.980    -999.25    -999.25    -999.25
09:14:39 21-Sep-07    186.710      6.553      0.285      0.000      0.000     63.435      0.013      0.000      -999.25    -999.25    -999.25      0.000    -999.25      2.978    -999.25    -999.25    -999.25
09:14:49 21-Sep-07    186.710      6.553      0.285      0.000      0.000     63.495      0.013      0.000      -999.25    -999.25    -999.25      0.000    -999.25      2.980    -999.25    -999.25    -999.25
09:14:59 21-Sep-07    186.710      6.553      0.285      0.000      0.000     63.466      0.015      0.000      -999.25    -999.25    -999.25      0.000    -999.25      2.981    -999.25    -999.25    -999.25
