~Version Information
VERS.             2.0 : CWLS log ASCII standard - Version 2.0
WRAP.             NO  : One line per depth step
#
~Well Information Block
#MNEM.UNIT                   Data Type:Information
#__________________________________________________________
  STRT.           30-AUG-2008 00:00:00 : START INDEX                   
  STOP.           30-AUG-2008 18:00:00 : STOP INDEX                    
  STEP.SEC           10.0000 : STEP                          
  NULL.              -999.25 : NULL VALUE                    
  COMP.           StatoilHydro : COMPANY                       
  WELL.             15/9-F-9 : WELL                          
   FLD.                Volve : FIELD                         
   LOC.           Norwegian North Sea : LOCATION                      
  PROV.                      : PROVINCE                      
  CNTY.               Norway : COUNTY                        
  STAT.           Maersk Inspirer : RIG                           
  CTRY.                      : COUNTRY                       
  SRVC.           Schlumberger D&M : SERVICE COMPANY               
  DATE.           29-AUG-2008 09:22:08 : LOG DATE                      
   UWI.                      : UNIQUE WELL ID                
   API.                      : API NUMBER                    
#
~Curve Information Block
#MNEM.UNIT                     : Curve Description
#---------                     --------------------
TIME	    .HHMMSS	       : 
DATE	    .D		       : 
GR          .GAPI              : ARC Gamma Ray, Real-Time                                        
INCL_CONT_RT.DEG               : MWD Cont Inc 2hz                                                
HKLD        .KKGF              : Measured Hookload 2hz                                           
SWOB        .KKGF              : Surface Weight on Bit 2hz                                       
TQA         .KMN               : SRF STOR 2hz                                                    
RPM         .RPM               : SRF SRPM 2hz                                                    
SHKRSK_RT   .----              : MWD SHKRSK 2hz                                                  
Stick_RT    .RPM               : MWD PKtoPK RPM 2hz                                              
DEPT        .M                 : Bit Depth 2hz                                                   
TRPM_RT     .RPM               : MWD TUR_RPM 2hz                                                 
ATMP        .DEGC              : ARC Annular Temperature                                         
BPOS        .M                 : Block Position 2hz                                              
BVEL        .M/S               : Block Velocity 2hz                                              
ROP5        .M/HR              : 5ft ROP 2hz                                                     
ECD_ARC     .G/C3              : Equivalent Circulating Density                                  
SPPA        .BAR               : SRF PUMPRS 2hz                                                  
TFLO        .LPM               : HSPM Total Pump Flow 2hz                                        
#
~Parameter Information Block
#MNEM.UNIT                       Value:Description
#__________________________________________________________
#
~Other Information Block

#
~A TIME       DATE     GR    INCL_CONT_RT       HKLD       SWOB        TQA        RPM  SHKRSK_RT   Stick_RT       DEPT    TRPM_RT       ATMP       BPOS       BVEL       ROP5    ECD_ARC       SPPA       TFLO
# ...
16:41:08 30-Aug-08    -999.25      -999.25    95.2956     3.0955     4.5428    10.0000    -999.25    -999.25  1081.0165    -999.25    40.0000    31.6163     0.0000    20.4969     1.2933     1.3815     0.0000
16:41:18 30-Aug-08    -999.25      -999.25    95.3390     3.0521     4.5428    10.0000    -999.25    -999.25  1081.0165    -999.25    40.0000    31.6163     0.0000    20.4969     1.2933     1.3815     0.0000
16:41:28 30-Aug-08    -999.25      -999.25    95.2915     3.0995     4.0333    10.0000    -999.25    -999.25  1081.0165    -999.25    40.0000    31.6163     0.0000    20.4969     1.2933     1.5735     0.0000
16:41:38 30-Aug-08    -999.25      -999.25    95.3015     3.0896     4.2415     9.0000    -999.25    -999.25  1081.0165    -999.25    40.0000    31.6163     0.0000    20.4969     1.2933     1.5549     0.0000
16:41:48 30-Aug-08    -999.25      -999.25    95.2926     3.0984     4.7902    10.0000    -999.25    -999.25  1081.0165    -999.25    40.0000    31.6163     0.0000    20.4969     1.2933     1.6757     0.0000
16:41:58 30-Aug-08    -999.25      -999.25    95.3067     3.0844     4.7902    10.0000    -999.25    -999.25  1081.0165    -999.25    40.0000    31.6163     0.0000    20.4969     1.2933     1.6757     0.0000
16:42:08 30-Aug-08    -999.25      -999.25    95.2952     3.0958     4.3395     9.0000    -999.25    -999.25  1081.0165    -999.25    40.0000    31.6163     0.0000    20.4969     1.2933     1.7346     0.0000
16:42:18 30-Aug-08    -999.25      -999.25    95.3165     3.0746     4.1159    10.0000    -999.25    -999.25  1081.0165    -999.25    40.0000    31.6163     0.0000    20.4969     1.2933     1.5549     0.0000
16:42:28 30-Aug-08    -999.25      -999.25    95.3034     3.0876     4.1159    10.0000    -999.25    -999.25  1081.0165    -999.25    40.0000    31.6163     0.0000    20.4969     1.2933     1.5549     0.0000
16:42:38 30-Aug-08    -999.25      -999.25    95.2761     3.1150     4.2862     9.0000    -999.25    -999.25  1081.0165    -999.25    40.0000    31.6163     0.0000    20.4969     1.2933     1.6602     0.0000
16:42:48 30-Aug-08    -999.25      -999.25    95.3002     3.0909     4.4456     9.0000    -999.25    -999.25  1081.0165    -999.25    40.0000    31.6163     0.0000    20.4969     1.2933     1.3474     0.0000
16:42:58 30-Aug-08    -999.25      -999.25    95.2704     3.1206     4.1366     9.0000    -999.25    -999.25  1081.0165    -999.25    40.0000    31.6163     0.0000    20.4969     1.2933     1.4620     0.0000
16:43:08 30-Aug-08    -999.25      -999.25    95.2826     3.1085     4.2468     9.0000    -999.25    -999.25  1081.0165    -999.25    40.0000    31.6163     0.0000    20.4969     1.2933     1.2204     0.0000
16:43:18 30-Aug-08    -999.25      -999.25    95.2757     3.1153     4.2468     9.0000    -999.25    -999.25  1081.0165    -999.25    40.0000    31.6163     0.0000    20.4969     1.2933     1.2204     0.0000
16:43:28 30-Aug-08    -999.25      -999.25    95.2852     3.1058     4.1599    10.0000    -999.25    -999.25  1081.0165    -999.25    40.0000    31.6163     0.0000    20.4969     1.2933     1.3071     0.0000
16:43:38 30-Aug-08    -999.25      -999.25    95.3306     3.0604     4.2923     9.0000    -999.25    -999.25  1081.0165    -999.25    40.0000    31.6163     0.0000    20.4969     1.2933     1.8120     0.0000
16:43:48 30-Aug-08    -999.25      -999.25    95.2862     3.1049     4.2923     9.0000    -999.25    -999.25  1081.0165    -999.25    40.0000    31.6163     0.0000    20.4969     1.2933     1.8120     0.0000
16:43:58 30-Aug-08    -999.25      -999.25    95.2623     3.1287     4.3226     9.0000    -999.25    -999.25  1081.0165    -999.25    40.0000    31.6163     0.0000    20.4969     1.2933     1.4465     0.0000
16:44:08 30-Aug-08    -999.25      -999.25    95.2604     3.1307     4.2965     9.0000    -999.25    -999.25  1081.0165    -999.25    40.0000    31.6163     0.0000    20.4969     1.2933     1.6912     0.0000
16:44:18 30-Aug-08    -999.25      -999.25    95.2955     3.0956     4.0339    10.0000    -999.25    -999.25  1081.0165    -999.25    40.0000    31.6163     0.0000    20.4969     1.2933     1.7222     0.0000
16:44:28 30-Aug-08    -999.25      -999.25    95.2879     3.1032     4.0339    10.0000    -999.25    -999.25  1081.0165    -999.25    40.0000    31.6163     0.0000    20.4969     1.2933     1.7222     0.0000
16:44:38 30-Aug-08    -999.25      -999.25    95.3137     3.0774     4.4468     9.0000    -999.25    -999.25  1081.0165    -999.25    40.0000    31.6163     0.0000    20.4969     1.2933     2.0102     0.0000
16:44:48 30-Aug-08    -999.25      -999.25    95.2846     3.1065     4.2679     9.0000    -999.25    -999.25  1081.0165    -999.25    40.0000    31.6163     0.0000    20.4969     1.2933     2.5988     0.0000
16:44:58 30-Aug-08    -999.25      -999.25    95.3122     3.0788     4.2679     9.0000    -999.25    -999.25  1081.0165    -999.25    40.0000    31.6163     0.0000    20.4969     1.2933     2.5988     0.0000
16:45:08 30-Aug-08    -999.25      -999.25    95.3156     3.0755     3.7884    10.0000    -999.25    -999.25  1081.0165    -999.25    40.0000    31.6163     0.0000    20.4969     1.2933     2.0350     0.0000
16:45:18 30-Aug-08    -999.25      -999.25    95.3174     3.0737     4.1671     9.0000    -999.25    -999.25  1081.0165    -999.25    40.0000    31.6163     0.0000    20.4969     1.2933     2.3758     0.0000
16:45:28 30-Aug-08    -999.25      -999.25    95.2880     3.1030     3.8719    10.0000    -999.25    -999.25  1081.0165    -999.25    40.0000    31.6163     0.0000    20.4969     1.2933     1.9793     0.0000
16:45:38 30-Aug-08    -999.25      -999.25    95.2670     3.1241     4.0920    10.0000    -999.25    -999.25  1081.0165    -999.25    40.0000    31.6163     0.0000    20.4969     1.2933     1.9421     0.0000
16:45:48 30-Aug-08    -999.25      -999.25    95.2915     3.0995     4.0920    10.0000    -999.25    -999.25  1081.0165    -999.25    40.0000    31.6163     0.0000    20.4969     1.2933     1.9421     0.0000
16:45:58 30-Aug-08    -999.25      -999.25    95.2896     3.1014     4.2642     9.0000    -999.25    -999.25  1081.0165    -999.25    40.0000    31.6163     0.0000    20.4969     1.2933     1.9762     0.0000
16:46:08 30-Aug-08    -999.25      -999.25    95.3139     3.0772     4.4601     9.0000    -999.25    -999.25  1081.0165    -999.25    40.0000    31.6163     0.0000    20.4969     1.2933     1.9731     0.0000
16:46:18 30-Aug-08    -999.25      -999.25    95.3145     3.0766     4.4601     9.0000    -999.25    -999.25  1081.0165    -999.25    40.0000    31.6163     0.0000    20.4969     1.2933     1.9731     0.0000
16:46:28 30-Aug-08    -999.25      -999.25    95.2571     3.1340     4.5255     9.0000    -999.25    -999.25  1081.0165    -999.25    40.0000    31.6163     0.0000    20.4969     1.2933     2.0041     0.0000
16:46:38 30-Aug-08    -999.25      -999.25    95.2710     3.1200     4.2654    10.0000    -999.25    -999.25  1081.0165    -999.25    40.0000    31.6163     0.0000    20.4969     1.2933     2.4036     0.0000
16:46:48 30-Aug-08    -999.25      -999.25    95.2945     3.0966     4.2230     9.0000    -999.25    -999.25  1081.0165    -999.25    40.0000    31.6163     0.0000    20.4969     1.2933     2.1868     0.0000
16:46:58 30-Aug-08    -999.25      -999.25    95.2886     3.1025     4.2230     9.0000    -999.25    -999.25  1081.0165    -999.25    40.0000    31.6163     0.0000    20.4969     1.2933     2.1868     0.0000
16:47:08 30-Aug-08    -999.25      -999.25    95.2932     3.0978     4.4743    10.0000    -999.25    -999.25  1081.0165    -999.25    40.0000    31.6163     0.0000    20.4969     1.2933     2.1527     0.0000
16:47:18 30-Aug-08    -999.25      -999.25    95.2614     3.1296     4.1428    10.0000    -999.25    -999.25  1081.0165    -999.25    40.0000    31.6163     0.0000    20.4969     1.2933     2.2766     0.0000
16:47:28 30-Aug-08    -999.25      -999.25    95.2520     3.1391     4.0625     9.0000    -999.25    -999.25  1081.0165    -999.25    40.0000    31.6163     0.0000    20.4969     1.2930     2.2302     0.0000
