~VERSION INFORMATION 
VERS  .    2.0                                     :CWLS Log ASCII Standard - VERSION2.0
WRAP  .    NO                                      :One Line per Time step
DLM   .    SPACE                                   :Column Data section Delimiter
PROD  .    Schlumberger Technology Corp.           :LAS Producer
PROG  .    Horizon LASWriter 1.1.8606.0            :LAS Program name and version
CREA  .    08/18/2009                              :LAS Creation date {MM/DD/YYYY}
#--------------------------------------------------
~WELL INFORMATION 
#MNEM           .UNIT                      DATA            :DESCRIPTION
#----            ------          --------------            -----------------------------
 STRT           .S               04:00:00/03-Jul-2009  :START TIME                          
 STOP           .S               11:00:00/04-Jul-2009  :STOP TIME                          
 STEP           .S                           0.00000       :STEP
NULL            .                       -999.25            :NULL VALUE
COMP            .                  StatoilHydro            :COMPANY
WELL            .                    15/9-F-9 A            :WELL NAME
FLD             .                         Volve            :FIELD NAME
RIGN            .                Maersk Inspirer           :Rig Name
RIGTYP          .                       Jack-up            :Rig Type
SON             .                     09SCA0196            :Service Order Number
SRVC            .                  Schlumberger            :SERVICE COMPANY
DATE            .                    07/03/2009            :LOG DATE{MM/DD/YYYY} (Composite Date for Composite LAP)
CLAB            .                       County:            :County Label
CNTY            .                       -999.25            :COUNTY
SLAB            .                       -999.25            :State/Province Label
STAT            .                       -999.25            :STATE or PROVINCE
PROV            .                       -999.25            :STATE or PROVINCE
CTRY            .                        Norway            :COUNTRY
CONT_REGION     .                        Europe            :Continent Region
SECT            .                       -999.25            :Section
TOWN            .                       -999.25            :Township
RANG            .                       -999.25            :Range
API             .                       -999.25            :API NUMBER
UWI             .                       -999.25            :UNIQUE WELL ID
LUL             .                  Weather Deck            :Logging Unit Location
LUN             .                Geoservices: 1010567      :Logging Unit Number
LOC             .                Norwegian North Sea       :FIELD LOCATION
FL1             .                Section: 12 1/4 in.       :Field Location Line 1
FL2             .                Job no.: 09SCA0196        :Field Location Line 2
LATI            .                58° 26' 29.74" N          :LATITUDE
LONG            .                  1° 53' 15" E            :LONGITUDE
PDAT            .                           MSL            :Local Permanent Datum
LMF             .                            DF            :Logging Measured From
APD             .M                      54.9000            :Elevation of Depth Reference (LMF) Above Permanent Datum
EPD             .M                       0.0000            :Elevation of Permanent Datum (PDAT) above Mean Sea Level
EKB             .M                      -999.25            :Elevation of Kelly Bushing Above Permanent Datum
EDF             .M                      54.9000            :Elevation of Drill Floor Above Permanent Datum
EGL             .M                     -91.0000            :Elevation of Ground Level Above Permanent Datum
ECF             .M                      -999.25            :Elevation of Casing Flange above Permanent Datum
#--------------------------------------------------
~CURVE INFORMATION
#MNEM           .UNIT                  API CODE            :DESCRIPTION
#----            ------          --------------            ----------------------------------------
 TIME           .S                                         :                                          Time Index(hh:mm  :ss/dd-MMM-yyyy)
DEPTH           .M                                         :(RT)    (DnMWorkflow)           (1)       Depth Index
ROP5            .M/HR                                      :(RT)                            (1)       Rate of penetration averaged over the last 5 ft (1.5 m)
GR              .GAPI                                      :(RT)    (TELE825-IWOB)          (1)       Gamma Ray
BLKP            .M                                         :(RT)                            (1)       Height of block above rig floor
PVEL            .M/HR                                      :(RT)                            (1)       Pipe Velocity
HKLA            .KKGF                                      :(RT)                            (1)       Average Hookload
SWOB            .KKGF                                      :(RT)                            (1)       Surface Weight On Bit
STOR            .kN.m                                      :(RT)                            (1)       Surface Torque
RPM             .RPM                                       :(RT)                            (1)       Rotational Speed
STICK           .RPM                                       :(RM)    (TELE825-IWOB)          (1)       Stick Slip Indicator
TFLO            .LPM                                       :(RT)                            (1)       Total flow rate of all active pumps
SPM1            .SD/M                                      :(RT)                            (1)       Pump 1 Stroke Rate
SPM2            .SD/M                                      :(RT)                            (1)       Pump 2 Stroke Rate
SPM3            .SD/M                                      :(RT)                            (1)       Pump 3 Stroke Rate
SPPA            .BAR                                       :(RT)                            (1)       Standpipe Pressure
AJAM            .                                          :(RT)    (TELE825-IWOB)          (1)       Number of Anti-Jams Detected
TRPM            .RPM                                       :(RT)    (TELE825-IWOB)          (1)       MWD Turbine Rotation Speed
SHKL            .                                          :(RT)    (TELE825-IWOB)          (1)       Tool Shock Level
SHKPK           .M/S2                                      :(RT)    (TELE825-IWOB)          (1)       Shock Peak
SHKR            .CPS                                       :(RT)    (TELE825-IWOB)          (1)       Shock Rate
SHKRSK          .                                          :(RT)    (TELE825-IWOB)          (1)       Shock Risk
#-------------------------------------------------------------
#          TIME          DEPTH           ROP5             GR           BLKP           PVEL           HKLA           SWOB           STOR            RPM          STICK           TFLO           SPM1           SPM2           SPM3           SPPA           AJAM           TRPM           SHKL          SHKPK           SHKR         SHKRSK 
#                 (DnMWorkflow)                 (TELE825-IWO)                                                                                            (TELE825-IWO)                                                                             (TELE825-IWO)  (TELE825-IWO)  (TELE825-IWO)  (TELE825-IWO)  (TELE825-IWO)  (TELE825-IWO)
#                           (1)            (1)            (1)            (1)            (1)            (1)            (1)            (1)            (1)            (1)            (1)            (1)            (1)            (1)            (1)            (1)            (1)            (1)            (1)            (1)            (1)
#                          (RT)           (RT)           (RT)           (RT)           (RT)           (RT)           (RT)           (RT)           (RT)           (RM)           (RT)           (RT)           (RT)           (RT)           (RT)           (RT)           (RT)           (RT)           (RT)           (RT)           (RT)
~ASCII 
# ...
12:08:00/03-Jul-2009       555.2784        -999.25       185.0889        47.9971        39.8874        96.3501         5.4366         0.8458        97.0000        -999.25      3226.2640        73.0000         0.0000        73.0000       116.2910        -999.25        -999.25        -999.25         0.0000         0.0000         0.0000
12:08:10/03-Jul-2009       555.3837        39.6812        -999.25        47.8919        39.9228        96.2270         5.5655         0.8047        97.0000        -999.25      3226.2640        73.0000         0.0000        73.0000       116.1243        -999.25        -999.25        -999.25        -999.25        -999.25        -999.25
12:08:20/03-Jul-2009       555.4999        39.6899        -999.25        47.7757        39.6753        96.1754         5.6361         0.8029        97.0000        -999.25      3226.2640        73.0000         0.0000        73.0000       118.2432        -999.25        -999.25        -999.25        -999.25        -999.25        -999.25
12:08:30/03-Jul-2009       555.6105        39.8219        -999.25        47.6652        39.9228        95.7195         6.0824         0.7852        97.0000        -999.25      3226.2640        73.0000         0.0000        73.0000       116.7945        -999.25        -999.25        -999.25        -999.25        -999.25        -999.25
12:08:40/03-Jul-2009       555.7085        -999.25        -999.25        47.5663        34.6471        95.9879         5.7776         0.8004        97.0000        -999.25      3226.2640        73.0000         0.0000        73.0000       116.8717         0.0000      2890.6250        -999.25         0.0000         0.0000         0.0000
12:08:50/03-Jul-2009       555.8188        39.5084       191.1245        47.4570        37.8390        96.1247         5.6773         0.7777        97.0000        -999.25      3226.2640        73.0000         0.0000        73.0000       118.2833        -999.25        -999.25        -999.25        -999.25        -999.25        -999.25
12:09:00/03-Jul-2009       555.9223        39.2507        -999.25        47.3530        37.1920        96.0726         5.8116         0.7850        97.0000        -999.25      3226.2640        73.0000         0.0000        73.0000       117.5976        -999.25        -999.25        -999.25        -999.25        -999.25        -999.25
12:09:10/03-Jul-2009       556.0189        -999.25        -999.25        47.2566        36.1054        96.3994         5.4360         0.7962        97.0000        -999.25      3226.2640        73.0000         0.0000        73.0000       116.0810        -999.25        -999.25        -999.25        -999.25        -999.25        -999.25
12:09:20/03-Jul-2009       556.1316        39.0577        -999.25        47.1441        38.2447        96.1506         5.5915         0.7947        97.0000        -999.25      3226.2640        73.0000         0.0000        73.0000       115.1636        -999.25        -999.25        -999.25        -999.25        -999.25        -999.25
12:09:30/03-Jul-2009       556.2376        38.8595        -999.25        47.0375        36.9000        96.0987         5.7723         0.8116        97.0000        -999.25      3226.2640        73.0000         0.0000        73.0000       117.6254         0.0000      2890.6250        -999.25         0.0000         0.0000         0.0000
12:09:40/03-Jul-2009       556.3335        -999.25       185.0889        46.9418        36.0963        96.4257         5.5684         0.8348        97.0000         0.0000      3226.2640        73.0000         0.0000        73.0000       116.5721        -999.25        -999.25        -999.25        -999.25        -999.25        -999.25
12:09:50/03-Jul-2009       556.4399        38.4912        -999.25        46.8355        36.0963        96.3727         5.5029         0.8462        97.0000        -999.25      3226.2640        73.0000         0.0000        73.0000       116.4980        -999.25        -999.25        -999.25        -999.25        -999.25        -999.25
12:10:00/03-Jul-2009       556.5421        38.1801        -999.25        46.7334        36.8908        96.4679         5.5595         0.8489        97.0000        -999.25      3226.2640        73.0000         0.0000        73.0000       115.6517        -999.25        -999.25        -999.25        -999.25        -999.25        -999.25
12:10:10/03-Jul-2009       556.6442        -999.25        -999.25        46.6314        39.7107        96.3827         5.4476         0.9086        97.0000        -999.25      3226.2640        73.0000         0.0000        73.0000       118.1598         0.0000        -999.25        -999.25        -999.25        -999.25        -999.25
12:10:20/03-Jul-2009       556.7601        38.1552        -999.25        46.5154        39.8505        96.3936         5.5220         0.8242        97.0000        -999.25      3226.2640        73.0000         0.0000        73.0000       115.7258        -999.25      2890.6250        -999.25         0.0000         0.0000         0.0000
12:10:30/03-Jul-2009       556.8707        38.1475       189.1126        46.4047        39.5263        96.2913         5.5498         0.8139        97.0000        -999.25      3226.2640        73.0000         0.0000        73.0000       116.3683        -999.25        -999.25        -999.25        -999.25        -999.25        -999.25
12:10:40/03-Jul-2009       556.9761        38.1391        -999.25        46.2997        39.4632        96.2653         5.5223         0.7847        97.0000        -999.25      3226.2640        73.0000         0.0000        73.0000       117.1188        -999.25        -999.25        -999.25        -999.25        -999.25        -999.25
12:10:50/03-Jul-2009       557.0919        -999.25        -999.25        46.1836        39.6753        96.2750         5.5866         0.7660        97.0000        -999.25      3226.2640        73.0000         0.0000        73.0000       117.3999        -999.25        -999.25        -999.25        -999.25        -999.25        -999.25
12:11:00/03-Jul-2009       557.2021        38.1488        -999.25        46.0734        39.4187        96.4644         5.4327         0.8178        97.0000        -999.25      3226.2640        73.0000         0.0000        73.0000       115.3551         0.0000      2929.6880        -999.25        -999.25        -999.25        -999.25
12:11:10/03-Jul-2009       557.3071        38.4331       193.1363        45.9685        39.6661        96.1695         5.6779         0.7689        97.0000        -999.25      3226.2640        73.0000         0.0000        73.0000       115.5127        -999.25        -999.25        -999.25         0.0000         0.0000         0.0000
12:11:20/03-Jul-2009       557.4227        -999.25        -999.25        45.8529        39.0560        95.9111         5.9893         0.7479        97.0000        -999.25      3226.2640        73.0000         0.0000        73.0000       116.2447        -999.25        -999.25        -999.25        -999.25        -999.25        -999.25
12:11:30/03-Jul-2009       557.5273        38.6194        -999.25        45.7477        36.4943        96.1206         5.7378         0.7700        97.0000        -999.25      3226.2640        73.0000         0.0000        73.0000       116.1860        -999.25        -999.25        -999.25        -999.25        -999.25        -999.25
12:11:40/03-Jul-2009       557.6292        38.6273        -999.25        45.6462        38.0048        96.0925         5.6604         0.7985        97.0000         0.0000      3226.2640        73.0000         0.0000        73.0000       116.5505        -999.25        -999.25        -999.25        -999.25        -999.25        -999.25
12:11:50/03-Jul-2009       557.7440        38.7572        -999.25        45.5316        39.6661        96.0520         5.7524         0.8169        97.0000        -999.25      3226.2640        73.0000         0.0000        73.0000       117.3721         0.0000      2890.6250        -999.25        -999.25        -999.25        -999.25
