~Version Information
VERS.             2.0 : CWLS log ASCII standard - Version 2.0
WRAP.             NO  : One line per depth step
#
~Well Information Block
#MNEM.UNIT                   Data Type:Information
#__________________________________________________________
  STRT.           30-AUG-2008 00:00:00 : START INDEX                   
  STOP.           30-AUG-2008 18:00:00 : STOP INDEX                    
  STEP.SEC           10.0000 : STEP                          
  NULL.              -999.25 : NULL VALUE                    
  COMP.           StatoilHydro : COMPANY                       
  WELL.             15/9-F-9 : WELL                          
   FLD.                Volve : FIELD                         
   LOC.           Norwegian North Sea : LOCATION                      
  PROV.                      : PROVINCE                      
  CNTY.               Norway : COUNTY                        
  STAT.           Maersk Inspirer : RIG                           
  CTRY.                      : COUNTRY                       
  SRVC.           Schlumberger D&M : SERVICE COMPANY               
  DATE.           29-AUG-2008 09:22:08 : LOG DATE                      
   UWI.                      : UNIQUE WELL ID                
   API.                      : API NUMBER                    
#
~Curve Information Block
#MNEM.UNIT                     : Curve Description
#---------                     --------------------
TIME	    .HHMMSS	       : 
DATE	    .D		       : 
GR          .GAPI              : ARC Gamma Ray, Real-Time                                        
INCL_CONT_RT.DEG               : MWD Cont Inc 2hz                                                
HKLD        .KKGF              : Measured Hookload 2hz                                           
SWOB        .KKGF              : Surface Weight on Bit 2hz                                       
TQA         .KMN               : SRF STOR 2hz                                                    
RPM         .RPM               : SRF SRPM 2hz                                                    
SHKRSK_RT   .----              : MWD SHKRSK 2hz                                                  
Stick_RT    .RPM               : MWD PKtoPK RPM 2hz                                              
DEPT        .M                 : Bit Depth 2hz                                                   
TRPM_RT     .RPM               : MWD TUR_RPM 2hz                                                 
ATMP        .DEGC              : ARC Annular Temperature                                         
BPOS        .M                 : Block Position 2hz                                              
BVEL        .M/S               : Block Velocity 2hz                                              
ROP5        .M/HR              : 5ft ROP 2hz                                                     
ECD_ARC     .G/C3              : Equivalent Circulating Density                                  
SPPA        .BAR               : SRF PUMPRS 2hz                                                  
TFLO        .LPM               : HSPM Total Pump Flow 2hz                                        
#
~Parameter Information Block
#MNEM.UNIT                       Value:Description
#__________________________________________________________
#
~Other Information Block

#
~A TIME       DATE     GR    INCL_CONT_RT       HKLD       SWOB        TQA        RPM  SHKRSK_RT   Stick_RT       DEPT    TRPM_RT       ATMP       BPOS       BVEL       ROP5    ECD_ARC       SPPA       TFLO
# ...
13:06:38 30-Aug-08    33.1117       9.7573    88.4425     9.0269    10.4249   140.0000     0.0000    15.0000  1047.2901  2851.5625    36.0000    25.5541     0.0099    34.9374     1.3331   124.6861  3278.9046
13:06:48 30-Aug-08    36.1903       9.5873    88.2452     9.2242     8.7435   139.0000     0.0000    15.0000  1047.3752  2851.5625    36.0000    25.4685     0.0095    34.7507     1.3331   129.7381  3278.9046
13:06:58 30-Aug-08    36.1903       9.5873    88.0866     9.3828     9.7463   140.0000     0.0000    15.0000  1047.4602  2851.5625    36.0000    25.3835     0.0096    34.1296     1.3328   128.5889  3278.9046
13:07:08 30-Aug-08    34.6339       9.5873    87.9950     9.4744     8.6627   140.0000     0.0000     9.0000  1047.5710  2851.5625    36.0000    25.2737     0.0094    34.1296     1.3331   129.5367  3278.9046
13:07:18 30-Aug-08    34.6339       9.5873    87.9818     9.4876     9.6728   140.0000     0.0000     9.0000  1047.6547  2851.5625    36.0000    25.1902     0.0091    34.1023     1.3330   129.6823  3278.9046
13:07:28 30-Aug-08    34.6339       9.5873    88.0044     9.4650     9.6728   140.0000     0.0000     9.0000  1047.7387  2851.5625    36.0000    25.1056     0.0094    34.1023     1.3326   129.6823  3278.9046
13:07:38 30-Aug-08    34.6339       9.5873    88.4424     9.0270     7.5899   139.0000     0.0000     9.0000  1047.8533  2812.5000    36.0000    24.9908     0.0095    34.6252     1.3315   129.5181  3278.9046
13:07:48 30-Aug-08    37.7809       9.5873    88.1443     9.3251     8.9232   140.0000     0.0000    15.0000  1047.9430  2812.5000    36.0000    24.9016     0.0100    34.7322     1.3314   123.6175  3278.9046
13:07:58 30-Aug-08    37.7809       9.5873    88.1479     9.3215     8.9232   140.0000     0.0000    15.0000  1048.0294  2812.5000    36.0000    24.8142     0.0095    34.7322     1.3325   123.6175  3278.9046
13:08:08 30-Aug-08    34.6339       9.7573    88.0558     9.4136     9.4461   140.0000     0.0000    15.0000  1048.1440  2812.5000    36.0000    24.7003     0.0094    34.5774     1.3324   127.7897  3278.9046
13:08:18 30-Aug-08    34.6339       9.7573    87.9572     9.5122     9.3539   139.0000     0.0000    15.0000  1048.2294  2851.5625    36.0000    24.6153     0.0095    34.3886     1.3323   129.8465  3278.9046
13:08:28 30-Aug-08    31.6237       9.7573    87.9312     9.5382     9.6746   139.0000     0.0000    15.0000  1048.3131  2851.5625    36.0000    24.5313     0.0092    34.3886     1.3322   128.9203  3278.9046
13:08:38 30-Aug-08    31.6237       9.9243    88.1527     9.3167     8.0898   140.0000     0.0000    15.0000  1048.4277  2851.5625    36.0000    24.4164     0.0093    34.2737     1.3323   130.0416  3278.9046
13:08:48 30-Aug-08    31.6237       9.9243    88.1209     9.3485     8.0898   140.0000     0.0000    15.0000  1048.5142  2851.5625    36.0000    24.3299     0.0098    34.2737     1.3323   130.0416  3278.9046
13:08:58 30-Aug-08    41.0647       9.9243    88.2687     9.2007    10.1322   140.0000     0.0000    15.0000  1048.6017  2851.5625    36.0000    24.2422     0.0095    34.2728     1.3318   128.6415  3278.9046
13:09:08 30-Aug-08    41.0647       9.9243    88.0588     9.4106     9.1452   140.0000     0.0000    12.0000  1048.7157  2851.5625    36.0000    24.1280     0.0094    34.3122     1.3319   129.2982  3278.9046
13:09:18 30-Aug-08    36.1903       9.7573    88.3311     9.1383     9.1452   140.0000     0.0000    12.0000  1048.8011  2851.5625    36.0000    24.0434     0.0093    34.3122     1.3328   129.2982  3278.9046
13:09:28 30-Aug-08    36.1903       9.7573    88.0307     9.4387     9.4131   139.0000     0.0000    12.0000  1048.8868  2851.5625    36.0000    23.9579     0.0096    34.1973     1.3335   129.5367  3278.9046
13:09:38 30-Aug-08    34.6339       9.7573    88.0121     9.4573    10.1770   139.0000     0.0000     3.0000  1049.0000  2851.5625    36.0000    23.8441     0.0095    34.2173     1.3333   129.6513  3278.9046
13:09:48 30-Aug-08    34.6339       9.7573    88.2512     9.2182     9.3459   139.0000     0.0000     3.0000  1049.0816  2851.5625    36.0000    23.7620     0.0092    34.2173     1.3332   129.4841  3278.9046
13:09:58 30-Aug-08    30.1700       9.7573    89.0395     8.4299     9.3459   139.0000     0.0000     3.0000  1049.1726  2851.5625    36.0000    23.6716     0.0097    34.2565     1.3331   129.4841  3278.9046
13:10:08 30-Aug-08    30.1700       9.7573    88.8341     8.6353     9.4643   140.0000     0.0000     3.0000  1049.2968  2851.5625    36.0000    23.5472     0.0104    34.6171     1.3330   129.1526  3278.9046
13:10:18 30-Aug-08    34.6339       9.7573    89.5135     7.9559    10.7926   139.0000     0.0000     6.0000  1049.3941  2851.5625    36.0000    23.4504     0.0107    34.6171     1.3325   129.1434  3278.9046
13:10:28 30-Aug-08    37.7809       9.7573    88.4942     8.9752     9.3837   139.0000     0.0000     6.0000  1049.5038  2851.5625    36.0000    23.3409     0.0119    34.9687     1.3323   129.8124  3278.9046
13:10:38 30-Aug-08    37.7809       9.7573    90.3838     7.0856     9.3837   139.0000     0.0000     6.0000  1049.6318  2851.5625    36.0000    23.2130     0.0102    35.4269     1.3325   129.8124  3278.9046
13:10:48 30-Aug-08    31.6237       9.7573    89.7763     7.6931     9.0520   138.0000     0.0000     6.0000  1049.7625  2851.5625    36.0000    23.0827     0.0141    36.5256     1.3326   130.2058  3278.9046
13:10:58 30-Aug-08    31.6237       9.7573    90.1261     7.3433     8.9815   139.0000     0.0000    18.0000  1049.8930  2851.5625    36.0000    22.9523     0.0145    37.9825     1.3326   129.3013  3278.9046
13:11:08 30-Aug-08    36.1903       9.7573    89.1875     8.2819     9.5302   140.0000     0.0000    18.0000  1050.0663  2851.5625    36.0000    22.7789     0.0144    39.4290     1.3325   129.8774  3278.9046
13:11:18 30-Aug-08    36.1903       9.7573    88.6233     8.8461     9.5302   140.0000     0.0000    18.0000  1050.1717  2851.5625    36.0000    22.6728     0.0123    39.4290     1.3332   129.8774  3278.9046
13:11:28 30-Aug-08    39.4057       9.7573    88.5842     8.8852     8.8629   140.0000     0.0000    33.0000  1050.2583  2851.5625    36.0000    22.5864     0.0097    40.2903     1.3331   130.4815  3278.9046
13:11:38 30-Aug-08    39.4057       9.7573    88.5348     8.9346     9.7176   139.0000     0.0000    33.0000  1050.3792  2851.5625    36.0000    22.4650     0.0101    40.5286     1.3329   129.8713  3278.9046
13:11:48 30-Aug-08    33.1117       9.9243    88.2704     9.1990     9.2922   139.0000     0.0000    33.0000  1050.4657  2851.5625    36.0000    22.3780     0.0097    40.5286     1.3331   129.7257  3278.9046
13:11:58 30-Aug-08    33.1117       9.9243    88.1118     9.3576     9.2922   139.0000     0.0000    33.0000  1050.5521  2851.5625    36.0000    22.2921     0.0096    40.6406     1.3331   129.7257  3278.9046
13:12:08 30-Aug-08    27.3650       9.9243    88.0413     9.4281    10.3113   139.0000     0.0000    24.0000  1050.6629  2812.5000    36.0000    22.1807     0.0093    40.6541     1.3326   128.9420  3278.9046
13:12:18 30-Aug-08    23.4142       9.9243    88.1830     9.2864     9.1592   140.0000     0.0000    24.0000  1050.7469  2812.5000    36.0000    22.0969     0.0093    40.6541     1.3325   128.7748  3278.9046
13:12:28 30-Aug-08    23.4142       9.7573    88.2883     9.1811     9.1592   140.0000     0.0000    24.0000  1050.8309  2812.5000    36.0000    22.0132     0.0093    40.1624     1.3326   128.7748  3278.9046
13:12:38 30-Aug-08    26.0139       9.7573    88.3003     9.1691     9.8108   139.0000     0.0000    24.0000  1050.9399  2851.5625    36.0000    21.9037     0.0088    40.1624     1.3332   129.7598  3278.9046
13:12:48 30-Aug-08    26.0139       9.7573    88.5585     8.9109     9.5818   140.0000     0.0000     6.0000  1051.0246  2851.5625    36.0000    21.8196     0.0095    39.3875     1.3332   129.2734  3278.9046
13:12:58 30-Aug-08    30.1700       9.7573    88.4227     9.0467     9.1953   139.0000     0.0000     6.0000  1051.1136  2851.5625    36.0000    21.7312     0.0094    38.7357     1.3327   129.1588  3278.9046
