~Version Information
VERS.             2.0 : CWLS log ASCII standard - Version 2.0
WRAP.             NO  : One line per depth step
#
~Well Information Block
#MNEM.UNIT                   Data Type:Information
#__________________________________________________________
  STRT.           30-AUG-2008 00:00:00 : START INDEX                   
  STOP.           30-AUG-2008 18:00:00 : STOP INDEX                    
  STEP.SEC           10.0000 : STEP                          
  NULL.              -999.25 : NULL VALUE                    
  COMP.           StatoilHydro : COMPANY                       
  WELL.             15/9-F-9 : WELL                          
   FLD.                Volve : FIELD                         
   LOC.           Norwegian North Sea : LOCATION                      
  PROV.                      : PROVINCE                      
  CNTY.               Norway : COUNTY                        
  STAT.           Maersk Inspirer : RIG                           
  CTRY.                      : COUNTRY                       
  SRVC.           Schlumberger D&M : SERVICE COMPANY               
  DATE.           29-AUG-2008 09:22:08 : LOG DATE                      
   UWI.                      : UNIQUE WELL ID                
   API.                      : API NUMBER                    
#
~Curve Information Block
#MNEM.UNIT                     : Curve Description
#---------                     --------------------
TIME	    .HHMMSS	       : 
DATE	    .D		       : 
GR          .GAPI              : ARC Gamma Ray, Real-Time                                        
INCL_CONT_RT.DEG               : MWD Cont Inc 2hz                                                
HKLD        .KKGF              : Measured Hookload 2hz                                           
SWOB        .KKGF              : Surface Weight on Bit 2hz                                       
TQA         .KMN               : SRF STOR 2hz                                                    
RPM         .RPM               : SRF SRPM 2hz                                                    
SHKRSK_RT   .----              : MWD SHKRSK 2hz                                                  
Stick_RT    .RPM               : MWD PKtoPK RPM 2hz                                              
DEPT        .M                 : Bit Depth 2hz                                                   
TRPM_RT     .RPM               : MWD TUR_RPM 2hz                                                 
ATMP        .DEGC              : ARC Annular Temperature                                         
BPOS        .M                 : Block Position 2hz                                              
BVEL        .M/S               : Block Velocity 2hz                                              
ROP5        .M/HR              : 5ft ROP 2hz                                                     
ECD_ARC     .G/C3              : Equivalent Circulating Density                                  
SPPA        .BAR               : SRF PUMPRS 2hz                                                  
TFLO        .LPM               : HSPM Total Pump Flow 2hz                                        
#
~Parameter Information Block
#MNEM.UNIT                       Value:Description
#__________________________________________________________
#
~Other Information Block

#
~A TIME       DATE     GR    INCL_CONT_RT       HKLD       SWOB        TQA        RPM  SHKRSK_RT   Stick_RT       DEPT    TRPM_RT       ATMP       BPOS       BVEL       ROP5    ECD_ARC       SPPA       TFLO
# ...
07:09:08 30-Aug-08    10.0062       9.6250    95.5993    -0.9011     1.4804     0.0000     0.0000    -999.25   918.6812  2539.0625    20.0000    33.6094    -0.0387    14.3449     1.0484    90.0097  2990.8929
07:09:18 30-Aug-08    11.6713       9.6250    95.5229    -0.8247     1.5195     0.0000     0.0000    -999.25   918.2976  2539.0625    20.0000    33.9920    -0.0419    14.3449     1.0487    89.3747  2990.8929
07:09:28 30-Aug-08    11.6713       9.6250    95.6327    -0.9344     1.5195     0.0000     0.0000    -999.25   917.9049  2539.0625    20.0000    34.3848    -0.0438    14.3449     1.0493    89.3747  2990.8929
07:09:38 30-Aug-08    11.6713       9.6250    95.5181    -0.8199     1.4815     0.0000     0.0000    -999.25   917.3804  2539.0625    20.0000    34.9093    -0.0438    14.3449     1.0491    89.1579  2990.8929
07:09:48 30-Aug-08    23.1184       9.7945    95.5782    -0.8800     1.5043     0.0000     0.0000    -999.25   916.9867  2539.0625    20.0000    35.3031    -0.0437    14.3449     1.0491    89.7650  2990.8929
07:09:58 30-Aug-08    23.1184       9.7945    95.5633    -0.8651     1.4503     0.0000     0.0000    -999.25   916.5922  2539.0625    20.0000    35.6975    -0.0439    14.3449     1.0493    90.0872  2990.8929
07:10:08 30-Aug-08    23.1184       9.7945    95.6888    -0.9906     1.4379     0.0000     0.0000    -999.25   916.0713  2539.0625    20.0000    36.2189    -0.0437    14.3449     1.0496    89.7031  2990.8929
07:10:18 30-Aug-08    13.4644       9.7945    95.7484    -1.0502     1.4379     0.0000     0.0000    -999.25   915.6976  2539.0625    20.0000    36.5927    -0.0416    14.3449     1.0502    89.7031  2990.8929
07:10:28 30-Aug-08    13.4644       9.7945    95.8392    -1.1410     1.4829     0.0000     0.0000    -999.25   915.3228  2539.0625    20.0000    36.9676    -0.0417    14.3449     1.0500    90.0159  2990.8929
07:10:38 30-Aug-08    13.4644       9.7945    95.8332    -1.1350     1.4852     0.0000     0.0000    -999.25   914.8233  2539.0625    20.0000    37.4670    -0.0417    14.3449     1.0499    89.2075  2990.8929
07:10:48 30-Aug-08    11.6713       9.9611    95.9019    -1.2036     1.5060     0.0000     0.0000    -999.25   914.4488  2539.0625    20.0000    37.8416    -0.0416    14.3449     1.0501    90.0686  2990.8929
07:10:58 30-Aug-08    11.6713       9.9611    95.9807    -1.2825     1.5060     0.0000     0.0000    -999.25   914.0734  2539.0625    20.0000    38.2169    -0.0417    14.3449     1.0501    90.0686  2990.8929
07:11:08 30-Aug-08    11.6713       9.9611    95.8969    -1.1987     1.4957     0.0000     0.0000    -999.25   913.5672  2500.0000    20.0000    38.7229    -0.0418    14.3449     1.0503    90.7253  2990.8929
07:11:18 30-Aug-08    12.5518       9.9611    95.9178    -1.2196     1.4888     0.0000     0.0000    -999.25   913.1737  2500.0000    20.0000    39.1160    -0.0437    14.3449     1.0500    92.6147  2990.8929
07:11:28 30-Aug-08    12.5518       9.9611    95.9130    -1.2148     1.4888     0.0000     0.0000    -999.25   912.7797  2500.0000    20.0000    39.5101    -0.0438    14.3449     1.0497    92.6147  2990.8929
07:11:38 30-Aug-08    12.5518       9.9611    95.9806    -1.2824     1.4369     0.0000     0.0000    -999.25   912.2552  2539.0625    20.0000    40.0345    -0.0438    14.3449     1.0495    93.3829  2990.8929
07:11:48 30-Aug-08    23.1184       9.9611    95.9255    -1.2273     1.4698     0.0000     0.0000    -999.25   911.8611  2539.0625    20.0000    40.4285    -0.0437    14.3449     1.0495    93.2435  2990.8929
07:11:58 30-Aug-08    23.1184       9.9611    95.8622    -1.1640     1.4671     0.0000     0.0000    -999.25   911.4677  2539.0625    20.0000    40.8222    -0.0439    14.3449     1.0494    93.9157  2990.8929
07:12:08 30-Aug-08    23.1184       9.9611    95.7533    -1.0551     1.5652     0.0000     0.0000    -999.25   910.9418  2539.0625    20.0000    41.3479    -0.0439    14.3449     1.0490    94.4268  2990.8929
07:12:18 30-Aug-08    14.4090       9.9611    95.6155    -0.9173     1.5652     0.0000     0.0000    -999.25   910.5480  2539.0625    20.0000    41.7419    -0.0437    14.3449     1.0494    94.4268  2990.8929
07:12:28 30-Aug-08    14.4090       9.9611    95.8432    -1.1450     1.4799     0.0000     0.0000    -999.25   910.1588  2539.0625    20.0000    42.1316    -0.0436    14.3449     1.0502    94.9131  2990.8929
07:12:38 30-Aug-08    14.4090       9.9611    95.5390    -0.8408     1.4795     0.0000     0.0000    -999.25   909.6853  2539.0625    20.0000    42.6057    -0.0392    14.3449     1.0512    95.1299  2990.8929
07:12:48 30-Aug-08    19.6122      10.1250    95.4220    -0.7238     1.4795     0.0000     0.0000    -999.25   909.4719  2539.0625    20.0000    42.8277    -0.0291    14.3449     1.0524    95.1299  2990.8929
07:12:58 30-Aug-08    19.6122      10.1250    94.4309     0.2674     1.5007     0.0000     0.0000    -999.25   909.4860  2539.0625    20.0000    42.8136     0.0024    14.3449     1.0541    95.2879  2990.8929
07:13:08 30-Aug-08    19.6122      10.1250    91.7090     2.9892     1.5150     0.0000     0.0000    -999.25   909.6379  2539.0625    20.0000    42.6663     0.0165    14.3449     1.0544    94.2068  2990.8929
07:13:18 30-Aug-08    13.4644      10.1250    92.0040     2.6942     1.4841     0.0000     0.0000    -999.25   909.9406  2539.0625    20.0000    42.3671     0.0305    14.3449     1.0547    93.5780  2990.8929
07:13:28 30-Aug-08    13.4644      10.1250    91.8584     2.8398     1.4841     0.0000     0.0000    -999.25   910.2693  2539.0625    20.0000    42.0392     0.0365    14.3449     1.0555    93.5780  2990.8929
07:13:38 30-Aug-08    13.4644      10.1250    92.1536     2.5446     1.5473     0.0000     0.0000    -999.25   910.5248  2539.0625    20.0000    41.7748     0.0218    14.3449     1.0561    94.9069  2990.8929
07:13:48 30-Aug-08    13.4644      10.1250    92.3555     2.3427     1.5052     0.0000     0.0000    -999.25   910.5245  2539.0625    20.0000    41.7751    -0.0001    14.3449     1.0568    94.4670  2990.8929
07:13:58 30-Aug-08    13.4644      10.1250    92.5078     2.1904     1.5052     0.0000     0.0000    -999.25   910.5452  2539.0625    20.0000    41.7578     0.0007    14.3449     1.0573    94.4670  2990.8929
07:14:08 30-Aug-08    13.4644      10.1250    91.8879     2.8103     1.4764     0.0000     0.0000    -999.25   910.9066  2539.0625    20.0000    41.4009     0.0327    14.3449     1.0572    93.9249  2990.8929
07:14:18 30-Aug-08    18.5075      10.1250    91.8575     2.8407     1.5280     0.0000     0.0000    -999.25   911.2490  2539.0625    20.0000    41.0593     0.0373    14.3449     1.0576    93.2683  2990.8929
07:14:28 30-Aug-08    18.5075      10.1250    91.8018     2.8964     1.4675     0.0000     0.0000    -999.25   911.5935  2539.0625    20.0000    40.7147     0.0382    14.3449     1.0579    92.9771  2990.8929
07:14:38 30-Aug-08    18.5075      10.1250    91.8963     2.8019     1.4730     0.0000     0.0000    -999.25   912.0516  2539.0625    20.0000    40.2567     0.0383    14.3449     1.0579    93.4201  2990.8929
07:14:48 30-Aug-08    18.5075      10.1250    91.8711     2.8271     1.4730     0.0000     0.0000    -999.25   912.3954  2539.0625    20.0000    39.9128     0.0381    14.3449     1.0578    93.4201  2990.8929
07:14:58 30-Aug-08    18.5075      10.1250    91.7380     2.9603     1.5222     0.0000     0.0000    -999.25   912.7392  2539.0625    20.0000    39.5691     0.0382    14.3449     1.0585    93.7112  2990.8929
07:15:08 30-Aug-08    18.5075      10.1250    91.1069     3.5913     1.4814     0.0000     0.0000    -999.25   913.1984  2539.0625    20.0000    39.1098     0.0383    14.3449     1.0593    93.1258  2990.8929
07:15:18 30-Aug-08    17.4349      10.1250    92.6087     2.0895     1.4814     0.0000     0.0000    -999.25   913.2923  2539.0625    20.0000    39.0074     0.0171    14.3449     1.0596    93.1258  2990.8929
07:15:28 30-Aug-08    17.4349       9.9611    92.5562     2.1420     1.4914     0.0000     0.0000    -999.25   913.2923  2539.0625    20.0000    39.0074     0.0000    14.3449     1.0596    92.8656  2990.8929
