~Version Information
VERS.             2.0 : CWLS log ASCII standard - Version 2.0
WRAP.             NO  : One line per depth step
#
~Well Information Block
#MNEM.UNIT                   Data Type:Information
#__________________________________________________________
  STRT.           21-SEP-2007 06:00:00 : START INDEX                   
  STOP.           21-SEP-2007 18:00:00 : STOP INDEX                    
  STEP.SEC           10.0000 : STEP                          
  NULL.              -999.25 : NULL VALUE                    
  COMP.              Statoil : COMPANY                       
  WELL.              15/9-F7 : WELL                          
   FLD.                Volve : FIELD                         
   LOC.                      : LOCATION                      
  PROV.                      : PROVINCE                      
  CNTY.                      : COUNTY                        
  STAT.                      : STATE                         
  CTRY.               Norway : COUNTRY                       
  SRVC.           Schlumberger : SERVICE COMPANY               
  DATE.           21-SEP-2007 04:03:39 : LOG DATE                      
   UWI.                      : UNIQUE WELL ID                
   API.                      : API NUMBER                    
#
~Curve Information Block
#MNEM.UNIT                     : Curve Description
#---------                     --------------------
TIME	    .HHMMSS	       : 
DATE	    .D		       : 
DEPT        .M                 : Bit Depth 2hz                                                   
ROP5        .M/HR              : 5ft ROP 2hz                                                     
BPOS        .M                 : Block Position 2hz                                              
BVEL        .M/S               : Block Velocity 2hz                                              
SWOB        .KKGF              : Surface Weight on Bit 2hz                                       
HKLD        .KKGF              : Measured Hookload 2hz                                           
TQA         .KMN               : SRF STOR 2hz                                                    
RPM         .RPM               : SRF SRPM 2hz                                                    
INCL_CONT_RT.DEG               : MWD Cont Inc 2hz                                                
Stick_RT    .RPM               : MWD PKtoPK RPM 2hz                                              
CRPM_RT     .RPM               : MWD CRPM 2hz                                                    
TFLO        .LPM               : HSPM Total Pump Flow 2hz                                        
TRPM_RT     .RPM               : MWD TUR_RPM 2hz                                                 
SPPA        .BAR               : SRF PUMPRS 2hz                                                  
SHKRSK_RT   .----              : MWD SHKRSK 2hz                                                  
SHKPK_RT    .G                 : MWD SHK_PK 2hz                                                  
GR          .GAPI              : MWD GR(TM) 2hz                                                  
#
~Parameter Information Block
#MNEM.UNIT                       Value:Description
#__________________________________________________________
#
~Other Information Block

#
~A TIME       DATE       DEPT       ROP5       BPOS       BVEL       SWOB       HKLD        TQA        RPM INCL_CONT_RT   Stick_RT    CRPM_RT       TFLO    TRPM_RT       SPPA  SHKRSK_RT   SHKPK_RT       GR
# ...
08:23:09 21-Sep-07    186.710      6.553      0.285      0.000      0.000     63.493      0.010      0.000      -999.25    -999.25    -999.25      0.000    -999.25      2.977    -999.25    -999.25    -999.25
08:23:19 21-Sep-07    186.710      6.553      0.285      0.000      0.000     63.463      0.013      0.000      -999.25    -999.25    -999.25      0.000    -999.25      2.977    -999.25    -999.25    -999.25
08:23:29 21-Sep-07    186.710      6.553      0.285      0.000      0.000     63.440      0.013      0.000      -999.25    -999.25    -999.25      0.000    -999.25      2.975    -999.25    -999.25    -999.25
08:23:39 21-Sep-07    186.710      6.553      0.285      0.000      0.000     63.449      0.017      0.000      -999.25    -999.25    -999.25      0.000    -999.25      2.978    -999.25    -999.25    -999.25
08:23:49 21-Sep-07    186.710      6.553      0.285      0.000      0.000     63.435      0.017      0.000      -999.25    -999.25    -999.25      0.000    -999.25      2.975    -999.25    -999.25    -999.25
08:23:59 21-Sep-07    186.710      6.553      0.285      0.000      0.000     63.502      0.017      0.000      -999.25    -999.25    -999.25      0.000    -999.25      2.974    -999.25    -999.25    -999.25
08:24:09 21-Sep-07    186.710      6.553      0.285      0.000      0.000     63.485      0.012      0.000      -999.25    -999.25    -999.25      0.000    -999.25      2.974    -999.25    -999.25    -999.25
08:24:19 21-Sep-07    186.710      6.553      0.285      0.000      0.000     63.452      0.012      0.000      -999.25    -999.25    -999.25      0.000    -999.25      2.975    -999.25    -999.25    -999.25
08:24:29 21-Sep-07    186.710      6.553      0.285      0.000      0.000     63.446      0.014      0.000      -999.25    -999.25    -999.25      0.000    -999.25      2.977    -999.25    -999.25    -999.25
08:24:39 21-Sep-07    186.710      6.553      0.285      0.000      0.000     63.488      0.012      0.000      -999.25    -999.25    -999.25      0.000    -999.25      2.976    -999.25    -999.25    -999.25
08:24:49 21-Sep-07    186.710      6.553      0.285      0.000      0.000     63.458      0.015      0.000      -999.25    -999.25    -999.25      0.000    -999.25      2.977    -999.25    -999.25    -999.25
08:24:59 21-Sep-07    186.710      6.553      0.285      0.000      0.000     63.478      0.015      0.000      -999.25    -999.25    -999.25      0.000    -999.25      2.976    -999.25    -999.25    -999.25
08:25:09 21-Sep-07    186.710      6.553      0.285      0.000      0.000     63.446      0.017      0.000      -999.25    -999.25    -999.25      0.000    -999.25      2.977    -999.25    -999.25    -999.25
08:25:19 21-Sep-07    186.710      6.553      0.285      0.000      0.000     63.498      0.017      0.000      -999.25    -999.25    -999.25      0.000    -999.25      2.976    -999.25    -999.25    -999.25
08:25:29 21-Sep-07    186.710      6.553      0.285      0.000      0.000     63.500      0.013      0.000      -999.25    -999.25    -999.25      0.000    -999.25      2.980    -999.25    -999.25    -999.25
08:25:39 21-Sep-07    186.710      6.553      0.285      0.000      0.000     63.452      0.011      0.000      -999.25    -999.25    -999.25      0.000    -999.25      2.978    -999.25    -999.25    -999.25
08:25:49 21-Sep-07    186.710      6.553      0.285      0.000      0.000     63.399      0.011      0.000      -999.25    -999.25    -999.25      0.000    -999.25      2.978    -999.25    -999.25    -999.25
08:25:59 21-Sep-07    186.710      6.553      0.285      0.000      0.000     63.380      0.015      0.000      -999.25    -999.25    -999.25      0.000    -999.25      2.978    -999.25    -999.25    -999.25
08:26:09 21-Sep-07    186.710      6.553      0.285      0.000      0.000     63.444      0.009      0.000      -999.25    -999.25    -999.25      0.000    -999.25      2.977    -999.25    -999.25    -999.25
08:26:19 21-Sep-07    186.710      6.553      0.285      0.000      0.000     63.392      0.014      0.000      -999.25    -999.25    -999.25      0.000    -999.25      2.976    -999.25    -999.25    -999.25
08:26:29 21-Sep-07    186.710      6.553      0.285      0.000      0.000     63.422      0.014      0.000      -999.25    -999.25    -999.25      0.000    -999.25      2.976    -999.25    -999.25    -999.25
08:26:39 21-Sep-07    186.710      6.553      0.285      0.000      0.000     63.405      0.016      0.000      -999.25    -999.25    -999.25      0.000    -999.25      2.979    -999.25    -999.25    -999.25
08:26:49 21-Sep-07    186.710      6.553      0.285      0.000      0.000     63.363      0.016      0.000      -999.25    -999.25    -999.25      0.000    -999.25      2.978    -999.25    -999.25    -999.25
08:26:59 21-Sep-07    186.710      6.553      0.285      0.000      0.000     63.392      0.015      0.000      -999.25    -999.25    -999.25      0.000    -999.25      2.976    -999.25    -999.25    -999.25
08:27:09 21-Sep-07    186.710      6.553      0.285      0.000      0.000     63.413      0.011      0.000      -999.25    -999.25    -999.25      0.000    -999.25      2.978    -999.25    -999.25    -999.25
08:27:19 21-Sep-07    186.710      6.553      0.285      0.000      0.000     63.411      0.011      0.000      -999.25    -999.25    -999.25      0.000    -999.25      2.978    -999.25    -999.25    -999.25
08:27:29 21-Sep-07    186.710      6.553      0.285      0.000      0.000     63.473      0.012      0.000      -999.25    -999.25    -999.25      0.000    -999.25      2.977    -999.25    -999.25    -999.25
08:27:39 21-Sep-07    186.710      6.553      0.285      0.000      0.000     63.496      0.011      0.000      -999.25    -999.25    -999.25      0.000    -999.25      2.979    -999.25    -999.25    -999.25
08:27:49 21-Sep-07    186.710      6.553      0.285      0.000      0.000     63.469      0.010      0.000      -999.25    -999.25    -999.25      0.000    -999.25      2.978    -999.25    -999.25    -999.25
08:27:59 21-Sep-07    186.710      6.553      0.285      0.000      0.000     63.497      0.010      0.000      -999.25    -999.25    -999.25      0.000    -999.25      2.978    -999.25    -999.25    -999.25
08:28:09 21-Sep-07    186.710      6.553      0.285      0.000      0.000     63.501      0.015      0.000      -999.25    -999.25    -999.25      0.000    -999.25      2.976    -999.25    -999.25    -999.25
08:28:19 21-Sep-07    186.710      6.553      0.285      0.000      0.000     63.498      0.015      0.000      -999.25    -999.25    -999.25      0.000    -999.25      2.977    -999.25    -999.25    -999.25
08:28:29 21-Sep-07    186.710      6.553      0.285      0.000      0.000     63.494      0.015      0.000      -999.25    -999.25    -999.25      0.000    -999.25      2.975    -999.25    -999.25    -999.25
08:28:39 21-Sep-07    186.710      6.553      0.285      0.000      0.000     63.461      0.010      0.000      -999.25    -999.25    -999.25      0.000    -999.25      2.977    -999.25    -999.25    -999.25
08:28:49 21-Sep-07    186.710      6.553      0.285      0.000      0.000     63.516      0.010      0.000      -999.25    -999.25    -999.25      0.000    -999.25      2.978    -999.25    -999.25    -999.25
08:28:59 21-Sep-07    186.710      6.553      0.285      0.000      0.000     63.513      0.017      0.000      -999.25    -999.25    -999.25      0.000    -999.25      2.979    -999.25    -999.25    -999.25
08:29:09 21-Sep-07    186.710      6.553      0.285      0.000      0.000     63.535      0.009      0.000      -999.25    -999.25    -999.25      0.000    -999.25      2.977    -999.25    -999.25    -999.25
08:29:19 21-Sep-07    186.710      6.553      0.285      0.000      0.000     63.497      0.015      0.000      -999.25    -999.25    -999.25      0.000    -999.25      2.978    -999.25    -999.25    -999.25
08:29:29 21-Sep-07    186.710      6.553      0.285      0.000      0.000     63.452      0.015      0.000      -999.25    -999.25    -999.25      0.000    -999.25      2.977    -999.25    -999.25    -999.25
