~Version Information
VERS.             2.0 : CWLS log ASCII standard - Version 2.0
WRAP.             NO  : One line per depth step
#
~Well Information Block
#MNEM.UNIT                   Data Type:Information
#__________________________________________________________
  STRT.           30-AUG-2008 00:00:00 : START INDEX                   
  STOP.           30-AUG-2008 18:00:00 : STOP INDEX                    
  STEP.SEC           10.0000 : STEP                          
  NULL.              -999.25 : NULL VALUE                    
  COMP.           StatoilHydro : COMPANY                       
  WELL.             15/9-F-9 : WELL                          
   FLD.                Volve : FIELD                         
   LOC.           Norwegian North Sea : LOCATION                      
  PROV.                      : PROVINCE                      
  CNTY.               Norway : COUNTY                        
  STAT.           Maersk Inspirer : RIG                           
  CTRY.                      : COUNTRY                       
  SRVC.           Schlumberger D&M : SERVICE COMPANY               
  DATE.           29-AUG-2008 09:22:08 : LOG DATE                      
   UWI.                      : UNIQUE WELL ID                
   API.                      : API NUMBER                    
#
~Curve Information Block
#MNEM.UNIT                     : Curve Description
#---------                     --------------------
TIME	    .HHMMSS	       : 
DATE	    .D		       : 
GR          .GAPI              : ARC Gamma Ray, Real-Time                                        
INCL_CONT_RT.DEG               : MWD Cont Inc 2hz                                                
HKLD        .KKGF              : Measured Hookload 2hz                                           
SWOB        .KKGF              : Surface Weight on Bit 2hz                                       
TQA         .KMN               : SRF STOR 2hz                                                    
RPM         .RPM               : SRF SRPM 2hz                                                    
SHKRSK_RT   .----              : MWD SHKRSK 2hz                                                  
Stick_RT    .RPM               : MWD PKtoPK RPM 2hz                                              
DEPT        .M                 : Bit Depth 2hz                                                   
TRPM_RT     .RPM               : MWD TUR_RPM 2hz                                                 
ATMP        .DEGC              : ARC Annular Temperature                                         
BPOS        .M                 : Block Position 2hz                                              
BVEL        .M/S               : Block Velocity 2hz                                              
ROP5        .M/HR              : 5ft ROP 2hz                                                     
ECD_ARC     .G/C3              : Equivalent Circulating Density                                  
SPPA        .BAR               : SRF PUMPRS 2hz                                                  
TFLO        .LPM               : HSPM Total Pump Flow 2hz                                        
#
~Parameter Information Block
#MNEM.UNIT                       Value:Description
#__________________________________________________________
#
~Other Information Block

#
~A TIME       DATE     GR    INCL_CONT_RT       HKLD       SWOB        TQA        RPM  SHKRSK_RT   Stick_RT       DEPT    TRPM_RT       ATMP       BPOS       BVEL       ROP5    ECD_ARC       SPPA       TFLO
# ...
10:43:38 30-Aug-08    -999.25      -999.25    64.0850     0.0000     0.0135     0.0000    -999.25    -999.25   982.8234    -999.25    31.0000     9.9528     0.0000    27.2690     1.2878     1.0748     0.0000
10:43:48 30-Aug-08    -999.25      -999.25    64.2059     0.0000     0.0112     0.0000    -999.25    -999.25   982.8234    -999.25    31.0000     9.9528     0.0000    27.2690     1.2868     1.3815     0.0000
10:43:58 30-Aug-08    -999.25      -999.25    63.8336     0.0000    -1.1518     0.0000    -999.25    -999.25   982.8234    -999.25    31.0000     9.9531     0.0000    27.2690     1.2846     1.4248     0.0000
10:44:08 30-Aug-08    -999.25      -999.25    62.8901     0.0000  -389.6417     1.0000    -999.25    -999.25   982.8234    -999.25    31.0000     9.9531     0.0000    27.2690     1.2843     1.5704     0.0000
10:44:18 30-Aug-08    -999.25      -999.25    61.0416     0.0000  -389.6417     1.0000    -999.25    -999.25   982.8234    -999.25    31.0000     9.9555     0.0000    27.2690     1.2833     1.5704     0.0000
10:44:28 30-Aug-08    -999.25      -999.25    60.3698     0.0000    -0.4863    25.0000    -999.25    -999.25   982.8234    -999.25    31.0000     9.9588     0.0000    27.2690     1.2825     1.2483     0.0000
10:44:38 30-Aug-08    -999.25      -999.25    61.0592     0.0000    -1.0221    24.0000    -999.25    -999.25   982.8234    -999.25    31.0000    10.1865     0.0000    27.2690     1.2822     1.2235     0.0000
10:44:48 30-Aug-08    -999.25      -999.25    61.1453     0.0000    -1.0072    25.0000    -999.25    -999.25   982.8234    -999.25    31.0000    10.6627     0.0000    27.2690     1.2817     1.3846     0.0000
10:44:58 30-Aug-08    -999.25      -999.25    61.8456     0.0000    -1.0072    25.0000    -999.25    -999.25   982.8234    -999.25    31.0000    10.7374     0.0000    27.2690     1.2820     1.3846     0.0000
10:45:08 30-Aug-08    -999.25      -999.25    61.7580     0.0000    -0.6652    24.0000    -999.25    -999.25   982.8234    -999.25    31.0000    10.7374     0.0000    27.2690     1.2819     1.5456     0.0000
10:45:18 30-Aug-08    -999.25      -999.25    59.5558     0.0000    -1.0044    14.0000    -999.25    -999.25   982.8234    -999.25    31.0000    11.5231     0.0000    27.2690     1.2813     1.5054     0.0000
10:45:28 30-Aug-08    -999.25      -999.25    60.3811     0.0000    -1.0044    14.0000    -999.25    -999.25   982.8234    -999.25    31.0000    21.5353     0.0000    27.2690     1.2817     1.5054     0.0000
10:45:38 30-Aug-08    -999.25      -999.25    60.1767     0.0000     0.2307     0.0000    -999.25    -999.25   982.8234    -999.25    31.0000    40.5884     0.0000    27.2690     1.2817     1.3319     0.0000
10:45:48 30-Aug-08    -999.25      -999.25    61.3567     0.0000     0.0117     0.0000    -999.25    -999.25   982.8234    -999.25    31.0000    53.2540     0.0000    27.2690     1.2817     1.4124     0.0000
10:45:58 30-Aug-08    -999.25      -999.25    62.0539     0.0000     0.0111     0.0000    -999.25    -999.25   982.8234    -999.25    31.0000    53.6202     0.0000    27.2690     1.2817     2.2518     0.0000
10:46:08 30-Aug-08    -999.25      -999.25    60.5098     0.0000     0.0101     0.0000    -999.25    -999.25   982.8234    -999.25    31.0000    51.4655     0.0000    27.2690     1.2817     2.4315     0.0000
10:46:18 30-Aug-08    -999.25      -999.25    60.7446     0.0000     0.0101     0.0000    -999.25    -999.25   982.8234    -999.25    31.0000    51.4658     0.0000    27.2690     1.2817     2.4315     0.0000
10:46:28 30-Aug-08    -999.25      -999.25    60.7981     0.0000     0.0093     0.0000    -999.25    -999.25   982.8234    -999.25    31.0000    51.4657     0.0000    27.2690     1.2817     2.2178     0.0000
10:46:38 30-Aug-08    -999.25      -999.25    60.8557     0.0000     0.0114     0.0000    -999.25    -999.25   982.8234    -999.25    31.0000    51.4655     0.0000    27.2690     1.2815     2.2890     0.0000
10:46:48 30-Aug-08    -999.25      -999.25    61.4152     0.0000     0.0116     0.0000    -999.25    -999.25   982.8234    -999.25    31.0000    51.1805     0.0000    27.2690     1.2813     2.4780     0.0000
10:46:58 30-Aug-08    -999.25      -999.25    61.0631     0.0000     0.0116     0.0000    -999.25    -999.25   982.8234    -999.25    31.0000    51.0875     0.0000    27.2690     1.2817     2.4780     0.0000
10:47:08 30-Aug-08    -999.25      -999.25    61.2755     0.0000     0.0114    25.0000    -999.25    -999.25   982.8234    -999.25    31.0000    50.9084     0.0000    27.2690     1.2817     2.2704     0.0000
10:47:18 30-Aug-08    -999.25      -999.25    60.9286     0.0000     0.6205    25.0000    -999.25    -999.25   982.8234    -999.25    31.0000    50.8503     0.0000    27.2690     1.2817     2.2890     0.0000
10:47:28 30-Aug-08    -999.25      -999.25    60.8955     0.0000     1.1536    25.0000    -999.25    -999.25   982.8234    -999.25    31.0000    50.8503     0.0000    27.2690     1.2817     2.2581     0.0000
10:47:38 30-Aug-08    -999.25      -999.25    60.9262     0.0000     1.1063    24.0000    -999.25    -999.25   982.8234    -999.25    31.0000    50.8503     0.0000    27.2690     1.2818     2.0815     0.0000
10:47:48 30-Aug-08    -999.25      -999.25    60.9330     0.0000     1.1063    24.0000    -999.25    -999.25   982.8234    -999.25    31.0000    50.8503     0.0000    27.2690     1.2815     2.0815     0.0000
10:47:58 30-Aug-08    -999.25      -999.25    60.8318     0.0000     0.4073    25.0000    -999.25    -999.25   982.8234    -999.25    31.0000    50.8503     0.0000    27.2690     1.2813     2.1001     0.0000
10:48:08 30-Aug-08    -999.25      -999.25    60.8483     0.0000     0.8578    25.0000    -999.25    -999.25   982.8234    -999.25    31.0000    50.8506     0.0000    27.2690     1.2815     2.2983     0.0000
10:48:18 30-Aug-08    -999.25      -999.25    61.2388     0.0000     0.8578    25.0000    -999.25    -999.25   982.8234    -999.25    31.0000    50.7476     0.0000    27.2690     1.2813     2.2983     0.0000
10:48:28 30-Aug-08    -999.25      -999.25    61.0311     0.0000     1.0170    24.0000    -999.25    -999.25   982.8234    -999.25    31.0000    50.7148     0.0000    27.2690     1.2818     2.4594     0.0000
10:48:38 30-Aug-08    -999.25      -999.25    60.5241     0.0000     0.7171    25.0000    -999.25    -999.25   982.8234    -999.25    31.0000    50.6859     0.0000    27.2690     1.2818     2.2023     0.0000
10:48:48 30-Aug-08    -999.25      -999.25    60.0697     0.0000     0.6631    25.0000    -999.25    -999.25   982.8234    -999.25    31.0000    50.6639     0.0000    27.2690     1.2815     2.0505     0.0000
10:48:58 30-Aug-08    -999.25      -999.25    60.8181     0.0000     0.6631    25.0000    -999.25    -999.25   982.8234    -999.25    31.0000    50.6569     0.0000    27.2690     1.2810     2.0505     0.0000
10:49:08 30-Aug-08    -999.25      -999.25    60.7963     0.0000     0.9770     0.0000    -999.25    -999.25   982.8234    -999.25    31.0000    50.6569     0.0000    27.2690     1.2813     2.2797     0.0000
10:49:18 30-Aug-08    -999.25      -999.25    60.7545     0.0000    15.8973     0.0000    -999.25    -999.25   982.8234    -999.25    31.0000    50.6566     0.0000    27.2690     1.2818     2.3789     0.0000
10:49:28 30-Aug-08    -999.25      -999.25    60.7292     0.0000    46.1849     0.0000    -999.25    -999.25   982.8234    -999.25    31.0000    50.6566     0.0000    27.2690     1.2815     2.9023     0.0000
10:49:38 30-Aug-08    -999.25      -999.25    60.7372     0.0000    46.1849     0.0000    -999.25    -999.25   982.8234    -999.25    31.0000    50.6566     0.0000    27.2690     1.2813     2.9023     0.0000
10:49:48 30-Aug-08    -999.25      -999.25    60.6932     0.0000    14.6553     0.0000    -999.25    -999.25   982.8234    -999.25    31.0000    50.6566     0.0000    27.2690     1.2818     2.8992     0.0000
10:49:58 30-Aug-08    -999.25      -999.25    61.0008     0.0000     2.1998     0.0000    -999.25    -999.25   982.8234    -999.25    31.0000    50.6566     0.0000    27.2690     1.2818     3.2647     0.0000
