~Version Information
VERS.             2.0 : CWLS log ASCII standard - Version 2.0
WRAP.             NO  : One line per depth step
#
~Well Information Block
#MNEM.UNIT                   Data Type:Information
#__________________________________________________________
  STRT.           21-SEP-2007 06:00:00 : START INDEX                   
  STOP.           21-SEP-2007 18:00:00 : STOP INDEX                    
  STEP.SEC           10.0000 : STEP                          
  NULL.              -999.25 : NULL VALUE                    
  COMP.              Statoil : COMPANY                       
  WELL.              15/9-F7 : WELL                          
   FLD.                Volve : FIELD                         
   LOC.                      : LOCATION                      
  PROV.                      : PROVINCE                      
  CNTY.                      : COUNTY                        
  STAT.                      : STATE                         
  CTRY.               Norway : COUNTRY                       
  SRVC.           Schlumberger : SERVICE COMPANY               
  DATE.           21-SEP-2007 04:03:39 : LOG DATE                      
   UWI.                      : UNIQUE WELL ID                
   API.                      : API NUMBER                    
#
~Curve Information Block
#MNEM.UNIT                     : Curve Description
#---------                     --------------------
TIME	    .HHMMSS	       : 
DATE	    .D		       : 
DEPT        .M                 : Bit Depth 2hz                                                   
ROP5        .M/HR              : 5ft ROP 2hz                                                     
BPOS        .M                 : Block Position 2hz                                              
BVEL        .M/S               : Block Velocity 2hz                                              
SWOB        .KKGF              : Surface Weight on Bit 2hz                                       
HKLD        .KKGF              : Measured Hookload 2hz                                           
TQA         .KMN               : SRF STOR 2hz                                                    
RPM         .RPM               : SRF SRPM 2hz                                                    
INCL_CONT_RT.DEG               : MWD Cont Inc 2hz                                                
Stick_RT    .RPM               : MWD PKtoPK RPM 2hz                                              
CRPM_RT     .RPM               : MWD CRPM 2hz                                                    
TFLO        .LPM               : HSPM Total Pump Flow 2hz                                        
TRPM_RT     .RPM               : MWD TUR_RPM 2hz                                                 
SPPA        .BAR               : SRF PUMPRS 2hz                                                  
SHKRSK_RT   .----              : MWD SHKRSK 2hz                                                  
SHKPK_RT    .G                 : MWD SHK_PK 2hz                                                  
GR          .GAPI              : MWD GR(TM) 2hz                                                  
#
~Parameter Information Block
#MNEM.UNIT                       Value:Description
#__________________________________________________________
#
~Other Information Block

#
~A TIME       DATE       DEPT       ROP5       BPOS       BVEL       SWOB       HKLD        TQA        RPM INCL_CONT_RT   Stick_RT    CRPM_RT       TFLO    TRPM_RT       SPPA  SHKRSK_RT   SHKPK_RT       GR
# ...
17:09:39 21-Sep-07    148.688     21.419     38.702      0.000      0.000     69.544     -0.168      0.000      -999.25    -999.25    -999.25      0.000    -999.25      4.030    -999.25    -999.25    -999.25
17:09:49 21-Sep-07    148.688     21.419     38.702      0.000      0.000     69.450     -0.337      0.000      -999.25    -999.25    -999.25      0.000    -999.25      4.013    -999.25    -999.25    -999.25
17:09:59 21-Sep-07    148.688     21.419     38.701      0.000      0.000     69.007     -0.337      0.000      -999.25    -999.25    -999.25      0.000    -999.25      4.014    -999.25    -999.25    -999.25
17:10:09 21-Sep-07    148.688     21.419     38.701      0.000      0.000     68.897      0.012      0.000      -999.25    -999.25    -999.25      0.000    -999.25      4.029    -999.25    -999.25    -999.25
17:10:19 21-Sep-07    148.660     21.419     38.747     -0.001      4.565     84.793      0.012      0.000      -999.25    -999.25    -999.25      0.000    -999.25      4.006    -999.25    -999.25    -999.25
17:10:29 21-Sep-07    148.690     21.419     38.726      0.001      0.000     62.819      0.010     24.000      -999.25    -999.25    -999.25      0.000    -999.25      4.022    -999.25    -999.25    -999.25
17:10:39 21-Sep-07    148.690     21.419     38.726      0.000      0.000     62.894      0.009      0.000      -999.25    -999.25    -999.25      0.000    -999.25      4.053    -999.25    -999.25    -999.25
17:10:49 21-Sep-07    148.690     21.419     38.726      0.000      0.000     62.767      0.731      0.000      -999.25    -999.25    -999.25      0.000    -999.25      4.021    -999.25    -999.25    -999.25
17:10:59 21-Sep-07    148.690     21.419     38.726      0.000      0.000     62.548      0.731      0.000      -999.25    -999.25    -999.25      0.000    -999.25      4.039    -999.25    -999.25    -999.25
17:11:09 21-Sep-07    148.690     21.419     38.728      0.000      0.000     62.265     -0.863     25.000      -999.25    -999.25    -999.25      0.000    -999.25      4.092    -999.25    -999.25    -999.25
17:11:19 21-Sep-07    148.690     21.419     38.765      0.000      0.000     61.693     -0.863     25.000      -999.25    -999.25    -999.25      0.000    -999.25      4.098    -999.25    -999.25    -999.25
17:11:29 21-Sep-07    148.690     21.419     39.024      0.000      0.000     61.651     -0.729     24.000      -999.25    -999.25    -999.25      0.000    -999.25      4.147    -999.25    -999.25    -999.25
17:11:39 21-Sep-07    148.690     21.419     39.242      0.000      0.000     62.033      0.539      0.000      -999.25    -999.25    -999.25      0.000    -999.25      4.205    -999.25    -999.25    -999.25
17:11:49 21-Sep-07    148.690     21.419     39.241      0.000      0.000     61.944      0.539      0.000      -999.25    -999.25    -999.25      0.000    -999.25      4.212    -999.25    -999.25    -999.25
17:11:59 21-Sep-07    148.690     21.419     39.241      0.000      0.000     61.939      0.885      0.000      -999.25    -999.25    -999.25      0.000    -999.25      4.221    -999.25    -999.25    -999.25
17:12:09 21-Sep-07    148.690     21.419     39.241      0.000      0.000     62.697      0.652      0.000      -999.25    -999.25    -999.25      0.000    -999.25      4.222    -999.25    -999.25    -999.25
17:12:19 21-Sep-07    148.690     21.419     39.241      0.000      0.000     62.706      0.243      0.000      -999.25    -999.25    -999.25      0.000    -999.25      4.226    -999.25    -999.25    -999.25
17:12:29 21-Sep-07    148.690     21.419     39.241      0.000      0.000     62.696      0.243      0.000      -999.25    -999.25    -999.25      0.000    -999.25      4.234    -999.25    -999.25    -999.25
17:12:39 21-Sep-07    148.690     21.419     39.241      0.000      0.000     62.704      0.102      0.000      -999.25    -999.25    -999.25      0.000    -999.25      4.243    -999.25    -999.25    -999.25
17:12:49 21-Sep-07    148.690     21.419     39.241      0.000      0.000     62.716      0.102      0.000      -999.25    -999.25    -999.25      0.000    -999.25      4.234    -999.25    -999.25    -999.25
17:12:59 21-Sep-07    148.690     21.419     36.205      0.000      0.000     65.563      0.095      0.000      -999.25    -999.25    -999.25      0.000    -999.25      3.618    -999.25    -999.25    -999.25
17:13:09 21-Sep-07    148.690     21.419     28.692      0.000      0.000     64.786      0.098      0.000      -999.25    -999.25    -999.25      0.000    -999.25      2.874    -999.25    -999.25    -999.25
17:13:19 21-Sep-07    148.690     21.419     20.630      0.000      0.000     65.135      0.098      0.000      -999.25    -999.25    -999.25      0.000    -999.25      2.530    -999.25    -999.25    -999.25
17:13:29 21-Sep-07    148.690     21.419     10.980      0.000      0.000     65.049      0.064      0.000      -999.25    -999.25    -999.25      0.000    -999.25      2.547    -999.25    -999.25    -999.25
17:13:39 21-Sep-07    148.690     21.419      8.169      0.000      0.000     62.983      0.063      0.000      -999.25    -999.25    -999.25      0.000    -999.25      2.902    -999.25    -999.25    -999.25
17:13:49 21-Sep-07    148.690     21.419      8.169      0.000      0.000     63.032      0.131      0.000      -999.25    -999.25    -999.25      0.000    -999.25      2.903    -999.25    -999.25    -999.25
17:13:59 21-Sep-07    148.690     21.419      8.169      0.000      0.000     63.160      0.131      0.000      -999.25    -999.25    -999.25      0.000    -999.25      2.902    -999.25    -999.25    -999.25
17:14:09 21-Sep-07    148.690     21.419      8.169      0.000      0.000     63.039      0.130      0.000      -999.25    -999.25    -999.25      0.000    -999.25      2.904    -999.25    -999.25    -999.25
17:14:19 21-Sep-07    148.690     21.419      7.990      0.000      0.000     64.526      0.130      0.000      -999.25    -999.25    -999.25      0.000    -999.25      2.867    -999.25    -999.25    -999.25
17:14:29 21-Sep-07    148.690     21.419      5.315      0.000      0.000     64.564      0.118      0.000      -999.25    -999.25    -999.25      0.000    -999.25      2.762    -999.25    -999.25    -999.25
17:14:39 21-Sep-07    148.690     21.419      2.941      0.000      0.000     64.160      0.096      0.000      -999.25    -999.25    -999.25      0.000    -999.25      2.818    -999.25    -999.25    -999.25
17:14:49 21-Sep-07    148.690     21.419      1.832      0.000      0.000     63.258      0.096      0.000      -999.25    -999.25    -999.25      0.000    -999.25      2.901    -999.25    -999.25    -999.25
17:14:59 21-Sep-07    148.690     21.419      1.833      0.000      0.000     63.013      0.092      0.000      -999.25    -999.25    -999.25      0.000    -999.25      2.898    -999.25    -999.25    -999.25
17:15:09 21-Sep-07    148.690     21.419      1.833      0.000      0.000     63.115      0.087      0.000      -999.25    -999.25    -999.25      0.000    -999.25      2.897    -999.25    -999.25    -999.25
17:15:19 21-Sep-07    148.690     21.419      2.129      0.000      0.000     62.551      0.116      0.000      -999.25    -999.25    -999.25      0.000    -999.25      2.877    -999.25    -999.25    -999.25
17:15:29 21-Sep-07    148.271     21.419      2.713     -0.043      3.334     85.694      0.116      0.000      -999.25    -999.25    -999.25      0.000    -999.25      2.883    -999.25    -999.25    -999.25
17:15:39 21-Sep-07    147.831     21.419      3.153     -0.049      3.397     85.630      0.132      0.000      -999.25    -999.25    -999.25      0.000    -999.25      2.877    -999.25    -999.25    -999.25
17:15:49 21-Sep-07    147.385     21.419      3.598     -0.049      3.325     85.702      0.132      0.000      -999.25    -999.25    -999.25      0.000    -999.25      2.878    -999.25    -999.25    -999.25
17:15:59 21-Sep-07    146.702     21.419      4.279     -0.059      3.427     85.600      0.194      0.000      -999.25    -999.25    -999.25      0.000    -999.25      2.871    -999.25    -999.25    -999.25
