~VERSION INFORMATION 
VERS  .    2.0                                     :CWLS Log ASCII Standard - VERSION2.0
WRAP  .    NO                                      :One Line per Time step
DLM   .    SPACE                                   :Column Data section Delimiter
PROD  .    Schlumberger Technology Corp.           :LAS Producer
PROG  .    Horizon LASWriter 1.1.8606.0            :LAS Program name and version
CREA  .    08/18/2009                              :LAS Creation date {MM/DD/YYYY}
#--------------------------------------------------
~WELL INFORMATION 
#MNEM           .UNIT                      DATA            :DESCRIPTION
#----            ------          --------------            -----------------------------
 STRT           .S               04:00:00/03-Jul-2009  :START TIME                          
 STOP           .S               11:00:00/04-Jul-2009  :STOP TIME                          
 STEP           .S                           0.00000       :STEP
NULL            .                       -999.25            :NULL VALUE
COMP            .                  StatoilHydro            :COMPANY
WELL            .                    15/9-F-9 A            :WELL NAME
FLD             .                         Volve            :FIELD NAME
RIGN            .                Maersk Inspirer           :Rig Name
RIGTYP          .                       Jack-up            :Rig Type
SON             .                     09SCA0196            :Service Order Number
SRVC            .                  Schlumberger            :SERVICE COMPANY
DATE            .                    07/03/2009            :LOG DATE{MM/DD/YYYY} (Composite Date for Composite LAP)
CLAB            .                       County:            :County Label
CNTY            .                       -999.25            :COUNTY
SLAB            .                       -999.25            :State/Province Label
STAT            .                       -999.25            :STATE or PROVINCE
PROV            .                       -999.25            :STATE or PROVINCE
CTRY            .                        Norway            :COUNTRY
CONT_REGION     .                        Europe            :Continent Region
SECT            .                       -999.25            :Section
TOWN            .                       -999.25            :Township
RANG            .                       -999.25            :Range
API             .                       -999.25            :API NUMBER
UWI             .                       -999.25            :UNIQUE WELL ID
LUL             .                  Weather Deck            :Logging Unit Location
LUN             .                Geoservices: 1010567      :Logging Unit Number
LOC             .                Norwegian North Sea       :FIELD LOCATION
FL1             .                Section: 12 1/4 in.       :Field Location Line 1
FL2             .                Job no.: 09SCA0196        :Field Location Line 2
LATI            .                58° 26' 29.74" N          :LATITUDE
LONG            .                  1° 53' 15" E            :LONGITUDE
PDAT            .                           MSL            :Local Permanent Datum
LMF             .                            DF            :Logging Measured From
APD             .M                      54.9000            :Elevation of Depth Reference (LMF) Above Permanent Datum
EPD             .M                       0.0000            :Elevation of Permanent Datum (PDAT) above Mean Sea Level
EKB             .M                      -999.25            :Elevation of Kelly Bushing Above Permanent Datum
EDF             .M                      54.9000            :Elevation of Drill Floor Above Permanent Datum
EGL             .M                     -91.0000            :Elevation of Ground Level Above Permanent Datum
ECF             .M                      -999.25            :Elevation of Casing Flange above Permanent Datum
#--------------------------------------------------
~CURVE INFORMATION
#MNEM           .UNIT                  API CODE            :DESCRIPTION
#----            ------          --------------            ----------------------------------------
 TIME           .S                                         :                                          Time Index(hh:mm  :ss/dd-MMM-yyyy)
DEPTH           .M                                         :(RT)    (DnMWorkflow)           (1)       Depth Index
ROP5            .M/HR                                      :(RT)                            (1)       Rate of penetration averaged over the last 5 ft (1.5 m)
GR              .GAPI                                      :(RT)    (TELE825-IWOB)          (1)       Gamma Ray
BLKP            .M                                         :(RT)                            (1)       Height of block above rig floor
PVEL            .M/HR                                      :(RT)                            (1)       Pipe Velocity
HKLA            .KKGF                                      :(RT)                            (1)       Average Hookload
SWOB            .KKGF                                      :(RT)                            (1)       Surface Weight On Bit
STOR            .kN.m                                      :(RT)                            (1)       Surface Torque
RPM             .RPM                                       :(RT)                            (1)       Rotational Speed
STICK           .RPM                                       :(RM)    (TELE825-IWOB)          (1)       Stick Slip Indicator
TFLO            .LPM                                       :(RT)                            (1)       Total flow rate of all active pumps
SPM1            .SD/M                                      :(RT)                            (1)       Pump 1 Stroke Rate
SPM2            .SD/M                                      :(RT)                            (1)       Pump 2 Stroke Rate
SPM3            .SD/M                                      :(RT)                            (1)       Pump 3 Stroke Rate
SPPA            .BAR                                       :(RT)                            (1)       Standpipe Pressure
AJAM            .                                          :(RT)    (TELE825-IWOB)          (1)       Number of Anti-Jams Detected
TRPM            .RPM                                       :(RT)    (TELE825-IWOB)          (1)       MWD Turbine Rotation Speed
SHKL            .                                          :(RT)    (TELE825-IWOB)          (1)       Tool Shock Level
SHKPK           .M/S2                                      :(RT)    (TELE825-IWOB)          (1)       Shock Peak
SHKR            .CPS                                       :(RT)    (TELE825-IWOB)          (1)       Shock Rate
SHKRSK          .                                          :(RT)    (TELE825-IWOB)          (1)       Shock Risk
#-------------------------------------------------------------
#          TIME          DEPTH           ROP5             GR           BLKP           PVEL           HKLA           SWOB           STOR            RPM          STICK           TFLO           SPM1           SPM2           SPM3           SPPA           AJAM           TRPM           SHKL          SHKPK           SHKR         SHKRSK 
#                 (DnMWorkflow)                 (TELE825-IWO)                                                                                            (TELE825-IWO)                                                                             (TELE825-IWO)  (TELE825-IWO)  (TELE825-IWO)  (TELE825-IWO)  (TELE825-IWO)  (TELE825-IWO)
#                           (1)            (1)            (1)            (1)            (1)            (1)            (1)            (1)            (1)            (1)            (1)            (1)            (1)            (1)            (1)            (1)            (1)            (1)            (1)            (1)            (1)
#                          (RT)           (RT)           (RT)           (RT)           (RT)           (RT)           (RT)           (RT)           (RT)           (RM)           (RT)           (RT)           (RT)           (RT)           (RT)           (RT)           (RT)           (RT)           (RT)           (RT)           (RT)
~ASCII 
# ...
20:16:00/03-Jul-2009       724.7859        46.3318        -999.25        39.9250        45.1747        96.6571         8.8284         5.3859       144.0000        -999.25      3447.2410        78.0000         0.0000        78.0000       139.4572        -999.25        -999.25        -999.25        -999.25        -999.25        -999.25
20:16:10/03-Jul-2009       724.9236        47.0430        -999.25        39.7876        54.1788       100.9550         4.4701         6.1291       143.0000        -999.25      3447.2410        78.0000         0.0000        78.0000       141.4927        -999.25      3085.9380        -999.25         0.0000         0.0000         0.0000
20:16:20/03-Jul-2009       725.0862        47.8080       189.1126        39.6258        53.0582        98.4029         7.3891         5.5863       143.0000        -999.25      3447.2410        78.0000         0.0000        78.0000       139.7259        -999.25        -999.25        -999.25        -999.25        -999.25        -999.25
20:16:30/03-Jul-2009       725.2322        48.5850        -999.25        39.4802        54.5247        99.7366         5.6339         5.6474       143.0000        -999.25      3447.2410        78.0000         0.0000        78.0000       137.9498         0.0000        -999.25        -999.25        -999.25        -999.25        -999.25
20:16:40/03-Jul-2009       725.3787        49.3860        -999.25        39.3329        52.2074        98.3779         7.1123         6.5756       144.0000        -999.25      3447.2410        78.0000         0.0000        78.0000       138.9506        -999.25        -999.25        -999.25         0.0000         0.0000         0.0000
20:16:50/03-Jul-2009       725.5557        50.8254        -999.25        39.1580        66.0507        97.0710         8.5902         5.9966       144.0000        -999.25      3447.2410        78.0000         0.0000        78.0000       137.4402        -999.25      3164.0630        -999.25        -999.25        -999.25        -999.25
20:17:00/03-Jul-2009       725.7667        53.1990       205.2073        38.9464        80.9559       101.5085         4.0929         6.5918       143.0000        -999.25      3447.2410        78.0000         0.0000        78.0000       139.6580        -999.25        -999.25        -999.25        -999.25        -999.25        -999.25
20:17:10/03-Jul-2009       725.9738        58.8838        -999.25        38.7388        77.5876        99.8516         5.7985         4.9098       144.0000        -999.25      3447.2410        78.0000         0.0000        78.0000       135.7073         0.0000        -999.25        -999.25        -999.25        -999.25        -999.25
20:17:20/03-Jul-2009       726.1957        61.6111        -999.25        38.5172        74.6566        99.7512         5.8026         4.2290       143.0000        -999.25      3447.2410        78.0000         0.0000        78.0000       136.2417        -999.25        -999.25        -999.25         0.0000         0.0000         0.0000
20:17:30/03-Jul-2009       726.4032        64.6885        -999.25        38.3097        75.0025        98.8459         7.1922         5.8975       144.0000        -999.25      3447.2410        78.0000         0.0000        78.0000       137.3969        -999.25      3085.9380        -999.25        -999.25        -999.25        -999.25
20:17:40/03-Jul-2009       726.5813        68.0235       195.1481        38.1303        62.7368        95.7051         9.8164         6.1522       143.0000        45.0000      3447.2410        78.0000         0.0000        78.0000       138.4255        -999.25        -999.25        -999.25        -999.25        -999.25        -999.25
20:17:50/03-Jul-2009       726.7684        69.4625        -999.25        37.9439        66.4467        96.6614         9.0329         6.8199       144.0000        -999.25      3447.2410        78.0000         0.0000        78.0000       141.2147         0.0000        -999.25        -999.25        -999.25        -999.25        -999.25
20:18:00/03-Jul-2009       726.9654        71.5984        -999.25        37.7475        70.7703        99.8082         5.6608         7.5843       144.0000        -999.25      3447.2410        78.0000         0.0000        78.0000       140.9337        -999.25      3125.0000        -999.25         0.0000         0.0000         0.0000
20:18:10/03-Jul-2009       727.1494        72.6743       213.2546        37.5623        66.0725        97.0330         8.3843         6.5465       143.0000        -999.25      3447.2410        78.0000         0.0000        78.0000       137.6471        -999.25        -999.25        -999.25        -999.25        -999.25        -999.25
20:18:20/03-Jul-2009       727.3418        69.9385        -999.25        37.3700        61.8337        95.2236        10.3301         7.1622       144.0000        -999.25      3447.2410        78.0000         0.0000        78.0000       139.0680         0.0000        -999.25        -999.25        -999.25        -999.25        -999.25
20:18:30/03-Jul-2009       727.5194        68.6912        -999.25        37.1931        64.3992        96.4033         8.7751         7.1838       144.0000        -999.25      3447.2410        78.0000         0.0000        78.0000       142.2248        -999.25        -999.25        -999.25        -999.25        -999.25        -999.25
20:18:40/03-Jul-2009       727.6898        67.5765        -999.25        37.0222        63.3003        95.5346         9.8846         7.5571       144.0000        -999.25      3447.2410        78.0000         0.0000        78.0000       141.9808        -999.25      3085.9380        -999.25         0.0000         0.0000         0.0000
20:18:50/03-Jul-2009       727.8639        66.0958       164.9706        36.8470        56.7442        94.3386        11.2016         7.0174       144.0000        -999.25      3447.2410        78.0000         0.0000        78.0000       141.8140        -999.25        -999.25        -999.25        -999.25        -999.25        -999.25
20:19:00/03-Jul-2009       728.0153        64.1434        -999.25        36.6961        52.4315        94.0501        11.0350         8.0855       143.0000        -999.25      3447.2410        78.0000         0.0000        78.0000       142.1228         0.0000        -999.25        -999.25        -999.25        -999.25        -999.25
20:19:10/03-Jul-2009       728.1932        64.5516        -999.25        36.5194        64.8431        96.5401         9.2331         8.1155       143.0000        -999.25      3447.2410        78.0000         0.0000        78.0000       142.2279        -999.25        -999.25        -999.25         0.0000         0.0000         0.0000
20:19:20/03-Jul-2009       728.3495        63.4291        -999.25        36.3620        50.8561        92.7727        12.8001         5.8995       143.0000        -999.25      3447.2410        78.0000         0.0000        78.0000       139.0247        -999.25      3085.9380        -999.25        -999.25        -999.25        -999.25
20:19:30/03-Jul-2009       728.4822        61.0448       175.0298        36.2280        42.9270        93.2368        12.0219         9.2524       143.0000        -999.25      3447.2410        78.0000         0.0000        78.0000       143.6302        -999.25        -999.25        -999.25        -999.25        -999.25        -999.25
20:19:40/03-Jul-2009       728.5939        57.5231        -999.25        36.1179        42.4048        94.4566        11.2213         9.0252       143.0000        24.0000      3447.2410        78.0000         0.0000        78.0000       144.8966         0.0000        -999.25        -999.25        -999.25        -999.25        -999.25
20:19:50/03-Jul-2009       728.7115        -999.25        -999.25        35.9985        40.4703        94.4191        11.0075         8.6813       144.0000        -999.25      3447.2410        78.0000         0.0000        78.0000       141.6533        -999.25        -999.25        -999.25         0.0000         0.0000         0.0000
