~VERSION INFORMATION 
VERS  .    2.0                                     :CWLS Log ASCII Standard - VERSION2.0
WRAP  .    NO                                      :One Line per Time step
DLM   .    SPACE                                   :Column Data section Delimiter
PROD  .    Schlumberger Technology Corp.           :LAS Producer
PROG  .    Horizon LASWriter 1.1.8606.0            :LAS Program name and version
CREA  .    08/18/2009                              :LAS Creation date {MM/DD/YYYY}
#--------------------------------------------------
~WELL INFORMATION 
#MNEM           .UNIT                      DATA            :DESCRIPTION
#----            ------          --------------            -----------------------------
 STRT           .S               04:00:00/03-Jul-2009  :START TIME                          
 STOP           .S               11:00:00/04-Jul-2009  :STOP TIME                          
 STEP           .S                           0.00000       :STEP
NULL            .                       -999.25            :NULL VALUE
COMP            .                  StatoilHydro            :COMPANY
WELL            .                    15/9-F-9 A            :WELL NAME
FLD             .                         Volve            :FIELD NAME
RIGN            .                Maersk Inspirer           :Rig Name
RIGTYP          .                       Jack-up            :Rig Type
SON             .                     09SCA0196            :Service Order Number
SRVC            .                  Schlumberger            :SERVICE COMPANY
DATE            .                    07/03/2009            :LOG DATE{MM/DD/YYYY} (Composite Date for Composite LAP)
CLAB            .                       County:            :County Label
CNTY            .                       -999.25            :COUNTY
SLAB            .                       -999.25            :State/Province Label
STAT            .                       -999.25            :STATE or PROVINCE
PROV            .                       -999.25            :STATE or PROVINCE
CTRY            .                        Norway            :COUNTRY
CONT_REGION     .                        Europe            :Continent Region
SECT            .                       -999.25            :Section
TOWN            .                       -999.25            :Township
RANG            .                       -999.25            :Range
API             .                       -999.25            :API NUMBER
UWI             .                       -999.25            :UNIQUE WELL ID
LUL             .                  Weather Deck            :Logging Unit Location
LUN             .                Geoservices: 1010567      :Logging Unit Number
LOC             .                Norwegian North Sea       :FIELD LOCATION
FL1             .                Section: 12 1/4 in.       :Field Location Line 1
FL2             .                Job no.: 09SCA0196        :Field Location Line 2
LATI            .                58° 26' 29.74" N          :LATITUDE
LONG            .                  1° 53' 15" E            :LONGITUDE
PDAT            .                           MSL            :Local Permanent Datum
LMF             .                            DF            :Logging Measured From
APD             .M                      54.9000            :Elevation of Depth Reference (LMF) Above Permanent Datum
EPD             .M                       0.0000            :Elevation of Permanent Datum (PDAT) above Mean Sea Level
EKB             .M                      -999.25            :Elevation of Kelly Bushing Above Permanent Datum
EDF             .M                      54.9000            :Elevation of Drill Floor Above Permanent Datum
EGL             .M                     -91.0000            :Elevation of Ground Level Above Permanent Datum
ECF             .M                      -999.25            :Elevation of Casing Flange above Permanent Datum
#--------------------------------------------------
~CURVE INFORMATION
#MNEM           .UNIT                  API CODE            :DESCRIPTION
#----            ------          --------------            ----------------------------------------
 TIME           .S                                         :                                          Time Index(hh:mm  :ss/dd-MMM-yyyy)
DEPTH           .M                                         :(RT)    (DnMWorkflow)           (1)       Depth Index
ROP5            .M/HR                                      :(RT)                            (1)       Rate of penetration averaged over the last 5 ft (1.5 m)
GR              .GAPI                                      :(RT)    (TELE825-IWOB)          (1)       Gamma Ray
BLKP            .M                                         :(RT)                            (1)       Height of block above rig floor
PVEL            .M/HR                                      :(RT)                            (1)       Pipe Velocity
HKLA            .KKGF                                      :(RT)                            (1)       Average Hookload
SWOB            .KKGF                                      :(RT)                            (1)       Surface Weight On Bit
STOR            .kN.m                                      :(RT)                            (1)       Surface Torque
RPM             .RPM                                       :(RT)                            (1)       Rotational Speed
STICK           .RPM                                       :(RM)    (TELE825-IWOB)          (1)       Stick Slip Indicator
TFLO            .LPM                                       :(RT)                            (1)       Total flow rate of all active pumps
SPM1            .SD/M                                      :(RT)                            (1)       Pump 1 Stroke Rate
SPM2            .SD/M                                      :(RT)                            (1)       Pump 2 Stroke Rate
SPM3            .SD/M                                      :(RT)                            (1)       Pump 3 Stroke Rate
SPPA            .BAR                                       :(RT)                            (1)       Standpipe Pressure
AJAM            .                                          :(RT)    (TELE825-IWOB)          (1)       Number of Anti-Jams Detected
TRPM            .RPM                                       :(RT)    (TELE825-IWOB)          (1)       MWD Turbine Rotation Speed
SHKL            .                                          :(RT)    (TELE825-IWOB)          (1)       Tool Shock Level
SHKPK           .M/S2                                      :(RT)    (TELE825-IWOB)          (1)       Shock Peak
SHKR            .CPS                                       :(RT)    (TELE825-IWOB)          (1)       Shock Rate
SHKRSK          .                                          :(RT)    (TELE825-IWOB)          (1)       Shock Risk
#-------------------------------------------------------------
#          TIME          DEPTH           ROP5             GR           BLKP           PVEL           HKLA           SWOB           STOR            RPM          STICK           TFLO           SPM1           SPM2           SPM3           SPPA           AJAM           TRPM           SHKL          SHKPK           SHKR         SHKRSK 
#                 (DnMWorkflow)                 (TELE825-IWO)                                                                                            (TELE825-IWO)                                                                             (TELE825-IWO)  (TELE825-IWO)  (TELE825-IWO)  (TELE825-IWO)  (TELE825-IWO)  (TELE825-IWO)
#                           (1)            (1)            (1)            (1)            (1)            (1)            (1)            (1)            (1)            (1)            (1)            (1)            (1)            (1)            (1)            (1)            (1)            (1)            (1)            (1)            (1)
#                          (RT)           (RT)           (RT)           (RT)           (RT)           (RT)           (RT)           (RT)           (RT)           (RM)           (RT)           (RT)           (RT)           (RT)           (RT)           (RT)           (RT)           (RT)           (RT)           (RT)           (RT)
~ASCII 
# ...
16:12:00/03-Jul-2009       673.9254        -999.25        -999.25        50.2518         0.0000       101.7944         2.7226         2.2022       104.0000        -999.25      3447.2410        78.0000         0.0000        78.0000       134.3483        -999.25        -999.25        -999.25        -999.25        -999.25        -999.25
16:12:10/03-Jul-2009       673.9254        -999.25        -999.25        50.2518         0.0000       102.6184         1.9865         2.9414       104.0000        -999.25      3447.2410        78.0000         0.0000        78.0000       130.1537         0.0000      3125.0000        -999.25        -999.25        -999.25        -999.25
16:12:20/03-Jul-2009       673.9257        -999.25       199.1718        50.2514         0.0000       103.0494         1.5711         2.5387       104.0000        -999.25      3447.2410        78.0000         0.0000        78.0000       132.8996        -999.25        -999.25        -999.25         0.0000         0.0000         0.0000
16:12:30/03-Jul-2009       673.9486        -999.25        -999.25        50.2292        11.5869       101.6943         3.1053         1.2661       104.0000        -999.25      3447.2410        78.0000         0.0000        78.0000       130.6108        -999.25        -999.25        -999.25        -999.25        -999.25        -999.25
16:12:40/03-Jul-2009       673.9542        -999.25        -999.25        50.2230         1.2577       101.5285         3.0803         0.8043       104.0000        -999.25      3447.2410        78.0000         0.0000        78.0000       131.2347        -999.25        -999.25        -999.25        -999.25        -999.25        -999.25
16:12:50/03-Jul-2009       673.9658        -999.25        -999.25        50.2123         9.0345       101.8739         2.8174         0.8209       104.0000        -999.25      3447.2410        78.0000         0.0000        78.0000       131.9112        -999.25        -999.25        -999.25        -999.25        -999.25        -999.25
16:13:00/03-Jul-2009       673.9805        -999.25        -999.25        50.1966         2.5393       101.2824         3.4560         0.8131       104.0000        -999.25      3447.2410        78.0000         0.0000        78.0000       130.9598         0.0000      3085.9380        -999.25         0.0000         0.0000         0.0000
16:13:10/03-Jul-2009       673.4285        -999.25       205.2073        50.7338      -232.9302       108.8889        -4.3372         0.8139       104.0000        -999.25      3447.2410        78.0000         0.0000        78.0000       132.4796        -999.25        -999.25        -999.25        -999.25        -999.25        -999.25
16:13:20/03-Jul-2009       672.9626        -999.25        -999.25        51.2031      -179.8959       108.0984        -3.5168         0.8538       104.0000        -999.25      3447.2410        78.0000         0.0000        78.0000       131.9050        -999.25        -999.25        -999.25        -999.25        -999.25        -999.25
16:13:30/03-Jul-2009       672.8682        -999.25        -999.25        51.3090         0.2219       106.3853        -1.7550         0.8643       104.0000        -999.25      3447.2410        78.0000         0.0000        78.0000       132.1058        -999.25        -999.25        -999.25        -999.25        -999.25        -999.25
16:13:40/03-Jul-2009       672.8959        -999.25        -999.25        51.2878        25.2192       106.0202        -1.4707         0.8163       104.0000         0.0000      3447.2410        78.0000         0.0000        78.0000       133.0757        -999.25        -999.25        -999.25        -999.25        -999.25        -999.25
16:13:50/03-Jul-2009       673.2137        -999.25        -999.25        50.9672       105.5397       102.4638         2.1902         0.1812       104.0000        -999.25      3447.2410        78.0000         0.0000        78.0000       132.5876         0.0000      3085.9380        -999.25         0.0000         0.0000         0.0000
16:14:00/03-Jul-2009       673.2924        -999.25       183.0771        50.8864        33.7663       103.0468         1.5639        -0.0483       104.0000        -999.25      3447.2410        78.0000         0.0000        78.0000       134.6479        -999.25        -999.25        -999.25        -999.25        -999.25        -999.25
16:14:10/03-Jul-2009       673.0595        -999.25        -999.25        51.1069      -170.6025       108.2354        -3.5260        -0.0284       104.0000        -999.25      3447.2410        78.0000         0.0000        78.0000       130.3143        -999.25        -999.25        -999.25        -999.25        -999.25        -999.25
16:14:20/03-Jul-2009       672.5571        -999.25        -999.25        51.6110      -169.2469       108.3588        -3.7533        -0.0203       104.0000        -999.25      3447.2410        78.0000         0.0000        78.0000       128.4332        -999.25        -999.25        -999.25        -999.25        -999.25        -999.25
16:14:30/03-Jul-2009       672.5591        -999.25        -999.25        51.6180         0.0000       106.4675        -1.8530        -0.0424       104.0000        -999.25      3447.2410        78.0000         0.0000        78.0000       131.8278        -999.25        -999.25        -999.25        -999.25        -999.25        -999.25
16:14:40/03-Jul-2009       672.5591        -999.25        -999.25        51.6180         0.0000       106.3700        -1.7469        -0.0447       104.0000        -999.25      3447.2410        78.0000         0.0000        78.0000       129.5915         0.0000      3125.0000        -999.25         0.0000         0.0000         0.0000
16:14:50/03-Jul-2009       672.7266        -999.25       191.1245        51.4568        94.9342       102.4491         2.1213        -0.0610       104.0000        -999.25      3447.2410        78.0000         0.0000        78.0000       129.9869        -999.25        -999.25        -999.25        -999.25        -999.25        -999.25
16:15:00/03-Jul-2009       672.7164        -999.25        -999.25        51.4349      -134.4905       105.3144        -4.0881        -0.0465       104.0000        -999.25      3447.2410        78.0000         0.0000        78.0000       129.6409        -999.25        -999.25        -999.25        -999.25        -999.25        -999.25
16:15:10/03-Jul-2009       672.5002        -999.25        -999.25        51.6770         0.2219       106.8417        -2.2142        -0.0440       104.0000        -999.25      3447.2410        78.0000         0.0000        78.0000       130.1475        -999.25        -999.25        -999.25        -999.25        -999.25        -999.25
16:15:20/03-Jul-2009       672.1954        -999.25        -999.25        51.9691      -193.7285       108.7432        -4.0863        -0.0829       104.0000        -999.25      3447.2410        78.0000         0.0000        78.0000       133.3568         0.0000      3125.0000        -999.25        -999.25        -999.25        -999.25
16:15:30/03-Jul-2009       672.3457        -999.25        -999.25        51.8425       164.4076       102.0351         2.4047        -0.5576       104.0000        -999.25      3447.2410        78.0000         0.0000        78.0000       130.1722        -999.25        -999.25        -999.25         0.0000         0.0000         0.0000
16:15:40/03-Jul-2009       672.6171        -999.25       211.2428        51.5652        84.3917       102.6925         1.9350        -0.5709       104.0000         0.0000      3447.2410        78.0000         0.0000        78.0000       132.3251        -999.25        -999.25        -999.25        -999.25        -999.25        -999.25
16:15:50/03-Jul-2009       672.8173        -999.25        -999.25        51.3638        63.1654       103.0304         1.5193        -0.4761       104.0000        -999.25      3447.2410        78.0000         0.0000        78.0000       132.7236        -999.25        -999.25        -999.25        -999.25        -999.25        -999.25
