~VERSION INFORMATION 
VERS  .    2.0                                     :CWLS Log ASCII Standard - VERSION2.0
WRAP  .    NO                                      :One Line per Time step
DLM   .    SPACE                                   :Column Data section Delimiter
PROD  .    Schlumberger Technology Corp.           :LAS Producer
PROG  .    Horizon LASWriter 1.1.8606.0            :LAS Program name and version
CREA  .    08/18/2009                              :LAS Creation date {MM/DD/YYYY}
#--------------------------------------------------
~WELL INFORMATION 
#MNEM           .UNIT                      DATA            :DESCRIPTION
#----            ------          --------------            -----------------------------
 STRT           .S               04:00:00/03-Jul-2009  :START TIME                          
 STOP           .S               11:00:00/04-Jul-2009  :STOP TIME                          
 STEP           .S                           0.00000       :STEP
NULL            .                       -999.25            :NULL VALUE
COMP            .                  StatoilHydro            :COMPANY
WELL            .                    15/9-F-9 A            :WELL NAME
FLD             .                         Volve            :FIELD NAME
RIGN            .                Maersk Inspirer           :Rig Name
RIGTYP          .                       Jack-up            :Rig Type
SON             .                     09SCA0196            :Service Order Number
SRVC            .                  Schlumberger            :SERVICE COMPANY
DATE            .                    07/03/2009            :LOG DATE{MM/DD/YYYY} (Composite Date for Composite LAP)
CLAB            .                       County:            :County Label
CNTY            .                       -999.25            :COUNTY
SLAB            .                       -999.25            :State/Province Label
STAT            .                       -999.25            :STATE or PROVINCE
PROV            .                       -999.25            :STATE or PROVINCE
CTRY            .                        Norway            :COUNTRY
CONT_REGION     .                        Europe            :Continent Region
SECT            .                       -999.25            :Section
TOWN            .                       -999.25            :Township
RANG            .                       -999.25            :Range
API             .                       -999.25            :API NUMBER
UWI             .                       -999.25            :UNIQUE WELL ID
LUL             .                  Weather Deck            :Logging Unit Location
LUN             .                Geoservices: 1010567      :Logging Unit Number
LOC             .                Norwegian North Sea       :FIELD LOCATION
FL1             .                Section: 12 1/4 in.       :Field Location Line 1
FL2             .                Job no.: 09SCA0196        :Field Location Line 2
LATI            .                58° 26' 29.74" N          :LATITUDE
LONG            .                  1° 53' 15" E            :LONGITUDE
PDAT            .                           MSL            :Local Permanent Datum
LMF             .                            DF            :Logging Measured From
APD             .M                      54.9000            :Elevation of Depth Reference (LMF) Above Permanent Datum
EPD             .M                       0.0000            :Elevation of Permanent Datum (PDAT) above Mean Sea Level
EKB             .M                      -999.25            :Elevation of Kelly Bushing Above Permanent Datum
EDF             .M                      54.9000            :Elevation of Drill Floor Above Permanent Datum
EGL             .M                     -91.0000            :Elevation of Ground Level Above Permanent Datum
ECF             .M                      -999.25            :Elevation of Casing Flange above Permanent Datum
#--------------------------------------------------
~CURVE INFORMATION
#MNEM           .UNIT                  API CODE            :DESCRIPTION
#----            ------          --------------            ----------------------------------------
 TIME           .S                                         :                                          Time Index(hh:mm  :ss/dd-MMM-yyyy)
DEPTH           .M                                         :(RT)    (DnMWorkflow)           (1)       Depth Index
ROP5            .M/HR                                      :(RT)                            (1)       Rate of penetration averaged over the last 5 ft (1.5 m)
GR              .GAPI                                      :(RT)    (TELE825-IWOB)          (1)       Gamma Ray
BLKP            .M                                         :(RT)                            (1)       Height of block above rig floor
PVEL            .M/HR                                      :(RT)                            (1)       Pipe Velocity
HKLA            .KKGF                                      :(RT)                            (1)       Average Hookload
SWOB            .KKGF                                      :(RT)                            (1)       Surface Weight On Bit
STOR            .kN.m                                      :(RT)                            (1)       Surface Torque
RPM             .RPM                                       :(RT)                            (1)       Rotational Speed
STICK           .RPM                                       :(RM)    (TELE825-IWOB)          (1)       Stick Slip Indicator
TFLO            .LPM                                       :(RT)                            (1)       Total flow rate of all active pumps
SPM1            .SD/M                                      :(RT)                            (1)       Pump 1 Stroke Rate
SPM2            .SD/M                                      :(RT)                            (1)       Pump 2 Stroke Rate
SPM3            .SD/M                                      :(RT)                            (1)       Pump 3 Stroke Rate
SPPA            .BAR                                       :(RT)                            (1)       Standpipe Pressure
AJAM            .                                          :(RT)    (TELE825-IWOB)          (1)       Number of Anti-Jams Detected
TRPM            .RPM                                       :(RT)    (TELE825-IWOB)          (1)       MWD Turbine Rotation Speed
SHKL            .                                          :(RT)    (TELE825-IWOB)          (1)       Tool Shock Level
SHKPK           .M/S2                                      :(RT)    (TELE825-IWOB)          (1)       Shock Peak
SHKR            .CPS                                       :(RT)    (TELE825-IWOB)          (1)       Shock Rate
SHKRSK          .                                          :(RT)    (TELE825-IWOB)          (1)       Shock Risk
#-------------------------------------------------------------
#          TIME          DEPTH           ROP5             GR           BLKP           PVEL           HKLA           SWOB           STOR            RPM          STICK           TFLO           SPM1           SPM2           SPM3           SPPA           AJAM           TRPM           SHKL          SHKPK           SHKR         SHKRSK 
#                 (DnMWorkflow)                 (TELE825-IWO)                                                                                            (TELE825-IWO)                                                                             (TELE825-IWO)  (TELE825-IWO)  (TELE825-IWO)  (TELE825-IWO)  (TELE825-IWO)  (TELE825-IWO)
#                           (1)            (1)            (1)            (1)            (1)            (1)            (1)            (1)            (1)            (1)            (1)            (1)            (1)            (1)            (1)            (1)            (1)            (1)            (1)            (1)            (1)
#                          (RT)           (RT)           (RT)           (RT)           (RT)           (RT)           (RT)           (RT)           (RT)           (RM)           (RT)           (RT)           (RT)           (RT)           (RT)           (RT)           (RT)           (RT)           (RT)           (RT)           (RT)
~ASCII 
# ...
04:48:00/04-Jul-2009       924.9429        23.5630        -999.25        36.5792        27.5257        98.1784        11.8605         6.9632       144.0000        -999.25      3447.2410        78.0000         0.0000        78.0000       152.8256        -999.25        -999.25        -999.25         0.0000         0.0000         0.0000
04:48:10/04-Jul-2009       925.0258        -999.25        -999.25        36.4968        28.1784        97.9890        11.9246         6.4353       143.0000        -999.25      3447.2410        78.0000         0.0000        78.0000       149.9808        -999.25      3125.0000        -999.25        -999.25        -999.25        -999.25
04:48:20/04-Jul-2009       925.0992        25.0649       237.3967        36.4234        27.6628        98.4582        11.6834         6.5651       144.0000        -999.25      3447.2410        78.0000         0.0000        78.0000       152.3808         0.0000        -999.25        -999.25        -999.25        -999.25        -999.25
04:48:30/04-Jul-2009       925.1807        28.2028        -999.25        36.3422        27.9195        98.3322        11.8097         6.3394       143.0000        -999.25      3447.2410        78.0000         0.0000        78.0000       149.7985        -999.25        -999.25        -999.25        -999.25        -999.25        -999.25
04:48:40/04-Jul-2009       925.2716        -999.25        -999.25        36.2519        36.1185        97.6600        12.8905         6.5911       143.0000        -999.25      3447.2410        78.0000         0.0000        78.0000       149.4711        -999.25      3125.0000        -999.25         0.0000         0.0000         0.0000
04:48:50/04-Jul-2009       925.3619        28.7886       237.3967        36.1600        34.6867        96.9390        13.4429         6.8929       144.0000        -999.25      3447.2410        78.0000         0.0000        78.0000       149.5823        -999.25        -999.25        -999.25        -999.25        -999.25        -999.25
04:49:00/04-Jul-2009       925.4626        -999.25        -999.25        36.0608        36.6624        96.1704        13.9490         7.9500       144.0000        -999.25      3447.2410        78.0000         0.0000        78.0000       151.8248         0.0000        -999.25        -999.25        -999.25        -999.25        -999.25
04:49:10/04-Jul-2009       925.5595        29.3936        -999.25        35.9635        35.0218        96.3621        14.0256         7.7937       144.0000        -999.25      3447.2410        78.0000         0.0000        78.0000       149.5298        -999.25        -999.25        -999.25         0.0000         0.0000         0.0000
04:49:20/04-Jul-2009       925.6465        30.0265        -999.25        35.8755        32.1778        96.7411        13.4739         6.8910       144.0000        -999.25      3447.2410        78.0000         0.0000        78.0000       151.8681        -999.25      3125.0000        -999.25        -999.25        -999.25        -999.25
04:49:30/04-Jul-2009       925.7499        -999.25       243.4322        35.7739        35.5375        96.3730        13.8050         8.6504       143.0000        -999.25      3447.2410        78.0000         0.0000        78.0000       151.0557        -999.25        -999.25        -999.25        -999.25        -999.25        -999.25
04:49:40/04-Jul-2009       925.8439        30.7099        -999.25        35.6781        32.2605        96.3615        14.0673         7.5849       143.0000        57.0000      3447.2410        78.0000         0.0000        78.0000       151.1885         0.0000        -999.25        -999.25        -999.25        -999.25        -999.25
04:49:50/04-Jul-2009       925.9349        31.4330        -999.25        35.5875        35.5005        96.3097        13.9959         8.2503       143.0000        -999.25      3447.2410        78.0000         0.0000        78.0000       150.5923        -999.25        -999.25        -999.25         0.0000         0.0000         0.0000
04:50:00/04-Jul-2009       926.0356        -999.25        -999.25        35.4877        34.9282        95.7552        14.4086         7.7864       144.0000        -999.25      3447.2410        78.0000         0.0000        78.0000       152.1769        -999.25      3085.9380        -999.25        -999.25        -999.25        -999.25
04:50:10/04-Jul-2009       926.1279        32.0655       257.5150        35.3942        31.2139        95.5777        14.8850         7.6148       144.0000        -999.25      3447.2410        78.0000         0.0000        78.0000       153.9407        -999.25        -999.25        -999.25        -999.25        -999.25        -999.25
04:50:20/04-Jul-2009       926.2144        -999.25        -999.25        35.3076        31.1334        95.6403        14.6076         8.0301       143.0000        -999.25      3447.2410        78.0000         0.0000        78.0000       155.1793         0.0000        -999.25        -999.25        -999.25        -999.25        -999.25
04:50:30/04-Jul-2009       926.3074        32.3639        -999.25        35.2159        31.7274        95.4857        14.6621         7.8188       144.0000        -999.25      3447.2410        78.0000         0.0000        78.0000       153.8665        -999.25        -999.25        -999.25         0.0000         0.0000         0.0000
04:50:40/04-Jul-2009       926.3984        32.6443       243.4322        35.1237        31.0072        95.3627        14.7319         8.1433       144.0000        -999.25      3447.2410        78.0000         0.0000        78.0000       154.0580        -999.25      3125.0000        -999.25        -999.25        -999.25        -999.25
04:50:50/04-Jul-2009       926.4836        -999.25        -999.25        35.0383        31.6208        95.7296        14.5172         7.7881       143.0000        -999.25      3447.2410        78.0000         0.0000        78.0000       152.6619         0.0000        -999.25        -999.25        -999.25        -999.25        -999.25
04:51:00/04-Jul-2009       926.5827        33.1159        -999.25        34.9406        36.6603        95.2858        14.9044         7.5012       144.0000        -999.25      3447.2410        78.0000         0.0000        78.0000       153.1345        -999.25        -999.25        -999.25        -999.25        -999.25        -999.25
04:51:10/04-Jul-2009       926.6736        -999.25        -999.25        34.8494        31.6687        95.1328        14.8217         8.3254       143.0000        -999.25      3447.2410        78.0000         0.0000        78.0000       151.0742        -999.25      3125.0000        -999.25         0.0000         0.0000         0.0000
04:51:20/04-Jul-2009       926.7558        33.6025       221.3020        34.7659        31.6230        95.4262        14.7737         8.4105       143.0000        -999.25      3447.2410        78.0000         0.0000        78.0000       152.9368        -999.25        -999.25        -999.25        -999.25        -999.25        -999.25
04:51:30/04-Jul-2009       926.8510        -999.25        -999.25        34.6725        33.5073        95.1467        15.1278         8.2262       144.0000        -999.25      3447.2410        78.0000         0.0000        78.0000       151.4634         0.0000        -999.25        -999.25        -999.25        -999.25        -999.25
04:51:40/04-Jul-2009       926.9349        33.2854        -999.25        34.5881        30.7373        95.4690        14.7598         8.3193       144.0000        33.0000      3447.2410        78.0000         0.0000        78.0000       152.2017        -999.25        -999.25        -999.25         0.0000         0.0000         0.0000
04:51:50/04-Jul-2009       927.0198        33.0275        -999.25        34.5018        30.7722        95.6163        14.5773         8.7327       144.0000        -999.25      3447.2410        78.0000         0.0000        78.0000       152.5878        -999.25      3125.0000        -999.25        -999.25        -999.25        -999.25
