~Version Information
VERS.             2.0 : CWLS log ASCII standard - Version 2.0
WRAP.             NO  : One line per depth step
#
~Well Information Block
#MNEM.UNIT                   Data Type:Information
#__________________________________________________________
  STRT.           21-SEP-2007 06:00:00 : START INDEX                   
  STOP.           21-SEP-2007 18:00:00 : STOP INDEX                    
  STEP.SEC           10.0000 : STEP                          
  NULL.              -999.25 : NULL VALUE                    
  COMP.              Statoil : COMPANY                       
  WELL.              15/9-F7 : WELL                          
   FLD.                Volve : FIELD                         
   LOC.                      : LOCATION                      
  PROV.                      : PROVINCE                      
  CNTY.                      : COUNTY                        
  STAT.                      : STATE                         
  CTRY.               Norway : COUNTRY                       
  SRVC.           Schlumberger : SERVICE COMPANY               
  DATE.           21-SEP-2007 04:03:39 : LOG DATE                      
   UWI.                      : UNIQUE WELL ID                
   API.                      : API NUMBER                    
#
~Curve Information Block
#MNEM.UNIT                     : Curve Description
#---------                     --------------------
TIME	    .HHMMSS	       : 
DATE	    .D		       : 
DEPT        .M                 : Bit Depth 2hz                                                   
ROP5        .M/HR              : 5ft ROP 2hz                                                     
BPOS        .M                 : Block Position 2hz                                              
BVEL        .M/S               : Block Velocity 2hz                                              
SWOB        .KKGF              : Surface Weight on Bit 2hz                                       
HKLD        .KKGF              : Measured Hookload 2hz                                           
TQA         .KMN               : SRF STOR 2hz                                                    
RPM         .RPM               : SRF SRPM 2hz                                                    
INCL_CONT_RT.DEG               : MWD Cont Inc 2hz                                                
Stick_RT    .RPM               : MWD PKtoPK RPM 2hz                                              
CRPM_RT     .RPM               : MWD CRPM 2hz                                                    
TFLO        .LPM               : HSPM Total Pump Flow 2hz                                        
TRPM_RT     .RPM               : MWD TUR_RPM 2hz                                                 
SPPA        .BAR               : SRF PUMPRS 2hz                                                  
SHKRSK_RT   .----              : MWD SHKRSK 2hz                                                  
SHKPK_RT    .G                 : MWD SHK_PK 2hz                                                  
GR          .GAPI              : MWD GR(TM) 2hz                                                  
#
~Parameter Information Block
#MNEM.UNIT                       Value:Description
#__________________________________________________________
#
~Other Information Block

#
~A TIME       DATE       DEPT       ROP5       BPOS       BVEL       SWOB       HKLD        TQA        RPM INCL_CONT_RT   Stick_RT    CRPM_RT       TFLO    TRPM_RT       SPPA  SHKRSK_RT   SHKPK_RT       GR
# ...
06:45:39 21-Sep-07    188.400      6.553     38.404      0.000      7.211     91.632     -0.110      0.000      -999.25    -999.25    -999.25      0.000    -999.25      2.408    -999.25    -999.25    -999.25
06:45:49 21-Sep-07    188.400      6.553     38.404      0.000      7.211     91.632     -0.110      0.000      -999.25    -999.25    -999.25      0.000    -999.25      2.409    -999.25    -999.25    -999.25
06:45:59 21-Sep-07    188.400      6.553     38.404      0.000      7.223     91.620     -0.030      0.000      -999.25    -999.25    -999.25      0.000    -999.25      2.406    -999.25    -999.25    -999.25
06:46:09 21-Sep-07    188.400      6.553     38.404      0.000      7.201     91.642     -0.071      0.000      -999.25    -999.25    -999.25      0.000    -999.25      2.407    -999.25    -999.25    -999.25
06:46:19 21-Sep-07    188.400      6.553     38.404      0.000      7.239     91.604     -0.071      0.000      -999.25    -999.25    -999.25      0.000    -999.25      2.407    -999.25    -999.25    -999.25
06:46:29 21-Sep-07    188.400      6.553     38.404      0.000      7.225     91.619     -0.068      0.000      -999.25    -999.25    -999.25      0.000    -999.25      2.406    -999.25    -999.25    -999.25
06:46:39 21-Sep-07    188.400      6.553     38.404      0.000      7.227     91.617     -0.050      0.000      -999.25    -999.25    -999.25      0.000    -999.25      2.406    -999.25    -999.25    -999.25
06:46:49 21-Sep-07    188.400      6.553     38.404      0.000      7.200     91.643     -0.070      0.000      -999.25    -999.25    -999.25      0.000    -999.25      2.407    -999.25    -999.25    -999.25
06:46:59 21-Sep-07    188.400      6.553     38.404      0.000      7.204     91.639     -0.070      0.000      -999.25    -999.25    -999.25      0.000    -999.25      2.408    -999.25    -999.25    -999.25
06:47:09 21-Sep-07    188.400      6.553     38.404      0.000      7.268     91.576     -0.134      0.000      -999.25    -999.25    -999.25      0.000    -999.25      2.405    -999.25    -999.25    -999.25
06:47:19 21-Sep-07    188.400      6.553     38.404      0.000      7.206     91.637     -0.134      0.000      -999.25    -999.25    -999.25      0.000    -999.25      2.409    -999.25    -999.25    -999.25
06:47:29 21-Sep-07    188.400      6.553     38.404      0.000      7.220     91.624     -0.101      0.000      -999.25    -999.25    -999.25      0.000    -999.25      2.406    -999.25    -999.25    -999.25
06:47:39 21-Sep-07    188.400      6.553     38.404      0.000      7.220     91.623     -0.034      0.000      -999.25    -999.25    -999.25      0.000    -999.25      2.410    -999.25    -999.25    -999.25
06:47:49 21-Sep-07    188.400      6.553     38.404      0.000      7.225     91.619     -0.034      0.000      -999.25    -999.25    -999.25      0.000    -999.25      2.407    -999.25    -999.25    -999.25
06:47:59 21-Sep-07    188.400      6.553     38.404      0.000      7.225     91.619     -0.040      0.000      -999.25    -999.25    -999.25      0.000    -999.25      2.407    -999.25    -999.25    -999.25
06:48:09 21-Sep-07    188.400      6.553     38.404      0.000      7.214     91.630     -0.029      0.000      -999.25    -999.25    -999.25      0.000    -999.25      2.409    -999.25    -999.25    -999.25
06:48:19 21-Sep-07    188.400      6.553     38.404      0.000      7.234     91.610     -0.087      0.000      -999.25    -999.25    -999.25      0.000    -999.25      2.407    -999.25    -999.25    -999.25
06:48:29 21-Sep-07    188.400      6.553     38.404      0.000      7.241     91.602     -0.087      0.000      -999.25    -999.25    -999.25      0.000    -999.25      2.407    -999.25    -999.25    -999.25
06:48:39 21-Sep-07    188.400      6.553     38.404      0.000      7.264     91.580     -0.120      0.000      -999.25    -999.25    -999.25      0.000    -999.25      2.410    -999.25    -999.25    -999.25
06:48:49 21-Sep-07    188.400      6.553     38.404      0.000      7.192     91.652     -0.120      0.000      -999.25    -999.25    -999.25      0.000    -999.25      2.407    -999.25    -999.25    -999.25
06:48:59 21-Sep-07    188.400      6.553     38.404      0.000      7.227     91.616     -0.144      0.000      -999.25    -999.25    -999.25      0.000    -999.25      2.406    -999.25    -999.25    -999.25
06:49:09 21-Sep-07    188.400      6.553     38.404      0.000      7.272     91.571     -0.083      0.000      -999.25    -999.25    -999.25      0.000    -999.25      2.408    -999.25    -999.25    -999.25
06:49:19 21-Sep-07    188.400      6.553     38.404      0.000      7.220     91.623     -0.083      0.000      -999.25    -999.25    -999.25      0.000    -999.25      2.405    -999.25    -999.25    -999.25
06:49:29 21-Sep-07    188.400      6.553     38.404      0.000      7.194     91.650     -0.108      0.000      -999.25    -999.25    -999.25      0.000    -999.25      2.407    -999.25    -999.25    -999.25
06:49:39 21-Sep-07    188.400      6.553     38.404      0.000      7.218     91.626     -0.070      0.000      -999.25    -999.25    -999.25      0.000    -999.25      2.408    -999.25    -999.25    -999.25
06:49:49 21-Sep-07    188.400      6.553     38.404      0.000      7.230     91.614     -0.077      0.000      -999.25    -999.25    -999.25      0.000    -999.25      2.409    -999.25    -999.25    -999.25
06:49:59 21-Sep-07    188.400      6.553     38.404      0.000      7.260     91.583     -0.077      0.000      -999.25    -999.25    -999.25      0.000    -999.25      2.407    -999.25    -999.25    -999.25
06:50:09 21-Sep-07    188.400      6.553     38.404      0.000      7.248     91.595     -0.096      0.000      -999.25    -999.25    -999.25      0.000    -999.25      2.406    -999.25    -999.25    -999.25
06:50:19 21-Sep-07    188.400      6.553     38.404      0.000      7.240     91.603     -0.096      0.000      -999.25    -999.25    -999.25      0.000    -999.25      2.409    -999.25    -999.25    -999.25
06:50:29 21-Sep-07    188.400      6.553     38.404      0.000      7.262     91.582     -0.094      0.000      -999.25    -999.25    -999.25      0.000    -999.25      2.407    -999.25    -999.25    -999.25
06:50:39 21-Sep-07    188.400      6.553     38.404      0.000      7.223     91.620     -0.067      0.000      -999.25    -999.25    -999.25      0.000    -999.25      2.408    -999.25    -999.25    -999.25
06:50:49 21-Sep-07    188.400      6.553     38.404      0.000      7.255     91.588     -0.067      0.000      -999.25    -999.25    -999.25      0.000    -999.25      2.407    -999.25    -999.25    -999.25
06:50:59 21-Sep-07    188.400      6.553     38.404      0.000      7.220     91.624     -0.191      0.000      -999.25    -999.25    -999.25      0.000    -999.25      2.408    -999.25    -999.25    -999.25
06:51:09 21-Sep-07    188.400      6.553     38.404      0.000      7.256     91.587     -0.050      0.000      -999.25    -999.25    -999.25      0.000    -999.25      2.406    -999.25    -999.25    -999.25
06:51:19 21-Sep-07    188.400      6.553     38.404      0.000      7.193     91.651     -0.113      0.000      -999.25    -999.25    -999.25      0.000    -999.25      2.406    -999.25    -999.25    -999.25
06:51:29 21-Sep-07    188.400      6.553     38.404      0.000      7.200     91.643     -0.113      0.000      -999.25    -999.25    -999.25      0.000    -999.25      2.408    -999.25    -999.25    -999.25
06:51:39 21-Sep-07    188.400      6.553     38.404      0.000      7.268     91.575      0.126      0.000      -999.25    -999.25    -999.25      0.000    -999.25      2.407    -999.25    -999.25    -999.25
06:51:49 21-Sep-07    188.400      6.553     38.404      0.000      7.223     91.620      0.126      0.000      -999.25    -999.25    -999.25      0.000    -999.25      2.411    -999.25    -999.25    -999.25
06:51:59 21-Sep-07    188.400      6.553     38.404      0.000      7.246     91.598      0.191      0.000      -999.25    -999.25    -999.25      0.000    -999.25      2.407    -999.25    -999.25    -999.25
