~Version Information
VERS.             2.0 : CWLS log ASCII standard - Version 2.0
WRAP.             NO  : One line per depth step
#
~Well Information Block
#MNEM.UNIT                   Data Type:Information
#__________________________________________________________
  STRT.           30-AUG-2008 00:00:00 : START INDEX                   
  STOP.           30-AUG-2008 18:00:00 : STOP INDEX                    
  STEP.SEC           10.0000 : STEP                          
  NULL.              -999.25 : NULL VALUE                    
  COMP.           StatoilHydro : COMPANY                       
  WELL.             15/9-F-9 : WELL                          
   FLD.                Volve : FIELD                         
   LOC.           Norwegian North Sea : LOCATION                      
  PROV.                      : PROVINCE                      
  CNTY.               Norway : COUNTY                        
  STAT.           Maersk Inspirer : RIG                           
  CTRY.                      : COUNTRY                       
  SRVC.           Schlumberger D&M : SERVICE COMPANY               
  DATE.           29-AUG-2008 09:22:08 : LOG DATE                      
   UWI.                      : UNIQUE WELL ID                
   API.                      : API NUMBER                    
#
~Curve Information Block
#MNEM.UNIT                     : Curve Description
#---------                     --------------------
TIME	    .HHMMSS	       : 
DATE	    .D		       : 
GR          .GAPI              : ARC Gamma Ray, Real-Time                                        
INCL_CONT_RT.DEG               : MWD Cont Inc 2hz                                                
HKLD        .KKGF              : Measured Hookload 2hz                                           
SWOB        .KKGF              : Surface Weight on Bit 2hz                                       
TQA         .KMN               : SRF STOR 2hz                                                    
RPM         .RPM               : SRF SRPM 2hz                                                    
SHKRSK_RT   .----              : MWD SHKRSK 2hz                                                  
Stick_RT    .RPM               : MWD PKtoPK RPM 2hz                                              
DEPT        .M                 : Bit Depth 2hz                                                   
TRPM_RT     .RPM               : MWD TUR_RPM 2hz                                                 
ATMP        .DEGC              : ARC Annular Temperature                                         
BPOS        .M                 : Block Position 2hz                                              
BVEL        .M/S               : Block Velocity 2hz                                              
ROP5        .M/HR              : 5ft ROP 2hz                                                     
ECD_ARC     .G/C3              : Equivalent Circulating Density                                  
SPPA        .BAR               : SRF PUMPRS 2hz                                                  
TFLO        .LPM               : HSPM Total Pump Flow 2hz                                        
#
~Parameter Information Block
#MNEM.UNIT                       Value:Description
#__________________________________________________________
#
~Other Information Block

#
~A TIME       DATE     GR    INCL_CONT_RT       HKLD       SWOB        TQA        RPM  SHKRSK_RT   Stick_RT       DEPT    TRPM_RT       ATMP       BPOS       BVEL       ROP5    ECD_ARC       SPPA       TFLO
# ...
03:34:38 30-Aug-08    -999.25      10.1250    94.2812     0.4170     5.6354    64.0000     0.0000   339.0000   906.4662  2695.3125    20.0000    45.8382     0.0210     6.5954     1.0385    95.3312  3101.6666
03:34:48 30-Aug-08    -999.25      10.1250    93.9028     0.7954     5.4082    65.0000     0.0000   339.0000   906.6152  2695.3125    20.0000    45.6841     0.0191     6.5954     1.0386    95.3529  3101.6666
03:34:58 30-Aug-08    -999.25      10.1250    93.6182     1.0800     5.4867    64.0000     0.0000   339.0000   906.6149  2695.3125    20.0000    45.6847     0.0000     6.5954     1.0391    96.7282  3101.6666
03:35:08 30-Aug-08    -999.25      10.1250    93.7809     0.9173     5.0075    64.0000     0.0000    84.0000   906.6149  2695.3125    20.0000    45.6847     0.0000     6.5954     1.0388    95.3281  3101.6666
03:35:18 30-Aug-08    -999.25      10.1250    93.8218     0.8764     5.0075    64.0000     0.0000    84.0000   906.6149  2695.3125    20.4000    45.6847     0.0000     6.5954     1.0383    95.3281  3101.6666
03:35:28 30-Aug-08    -999.25      10.1250    93.8108     0.8874     6.6108    64.0000     0.0000    84.0000   906.6149  2695.3125    21.0000    45.6847     0.0000     6.5954     1.0386    95.5480  3101.6666
03:35:38 30-Aug-08    -999.25      10.1250    93.6995     0.9987     7.2526    64.0000     0.0000    84.0000   906.6149  2695.3125    21.0000    45.6847     0.0000     6.5954     1.0388    95.2662  3101.6666
03:35:48 30-Aug-08    -999.25      10.1250    93.7974     0.9009     7.2339    64.0000     0.0000    63.0000   906.6149  2695.3125    21.0000    45.6847     0.0000     6.5954     1.0383    95.0525  3101.6666
03:35:58 30-Aug-08    -999.25      10.1250    93.7742     0.9240     7.2339    64.0000     0.0000    63.0000   906.6149  2695.3125    21.0000    45.6847     0.0000     6.5954     1.0383    95.0525  3101.6666
03:36:08 30-Aug-08    -999.25      10.1250    93.7525     0.9457     5.4557    65.0000     0.0000    63.0000   906.6149  2695.3125    21.0000    45.6847     0.0000     6.5954     1.0386    96.1242  3101.6666
03:36:18 30-Aug-08    -999.25      10.1250    94.0321     0.6661     5.5589    64.0000     0.0000    63.0000   906.6198  2695.3125    21.0000    45.6809     0.0000     6.5954     1.0391    95.9321  3101.6666
03:36:28 30-Aug-08    -999.25      10.1250    94.1016     0.5966     7.5376    65.0000     0.0000    60.0000   906.6919  2695.3125    21.0000    45.6078     0.0077     6.5954     1.0390    96.2140  3101.6666
03:36:38 30-Aug-08    -999.25      10.1250    94.2709     0.4273     7.5376    65.0000     0.0000    60.0000   906.7070  2695.3125    21.0000    45.5940     0.0011     6.5954     1.0390    96.2140  3101.6666
03:36:48 30-Aug-08    -999.25      10.1250    94.3497     0.3485     6.4924    65.0000     0.0000    60.0000   906.7661  2695.3125    21.0000    45.5349     0.0065     6.5954     1.0389    96.0715  3101.6666
03:36:58 30-Aug-08    -999.25      10.1250    94.3233     0.3750     6.4667    65.0000     0.0000    84.0000   906.8630  2695.3125    21.0000    45.4390     0.0105     6.5954     1.0391    96.2357  3101.6666
03:37:08 30-Aug-08    -999.25      10.1250    94.3023     0.3960     5.3925    64.0000     0.0000    84.0000   906.9794  2695.3125    21.0000    45.3240     0.0120     6.5954     1.0394    95.9910  3101.6666
03:37:18 30-Aug-08    -999.25      10.1250    94.2677     0.4305     5.3925    64.0000     0.0000    84.0000   907.1295  2695.3125    21.0000    45.1740     0.0167     6.5954     1.0393    95.9910  3101.6666
03:37:28 30-Aug-08    -999.25      10.1250    94.2091     0.4891     6.2554    65.0000     0.0000    84.0000   907.3310  2695.3125    21.0000    44.9725     0.0169     6.5954     1.0394    95.4644  3101.6666
03:37:38 30-Aug-08    -999.25      10.1250    94.2093     0.4889     5.2534    64.0000     0.0000   132.0000   907.4825  2695.3125    21.0000    44.8210     0.0167     6.5954     1.0393    95.8299  3101.6666
03:37:48 30-Aug-08    -999.25      10.1250    94.1624     0.5358     5.2534    64.0000     0.0000   132.0000   907.6379  2695.3125    21.0000    44.6657     0.0173     6.5954     1.0390    95.8299  3101.6666
03:37:58 30-Aug-08    -999.25      10.1250    93.7269     0.9713     6.7250    65.0000     0.0000   132.0000   907.6692  2695.3125    21.0000    44.6304    -0.0001     6.5954     1.0391    94.5538  3101.6666
03:38:08 30-Aug-08    -999.25      10.1250    94.2432     0.4550     5.7908    64.0000     0.0000   132.0000   907.6794  2695.3125    21.0000    44.6217     0.0000     6.5954     1.0386    95.2104  3101.6666
03:38:18 30-Aug-08    -999.25      10.1250    94.0002     0.6980     6.4924    65.0000     0.0000    69.0000   907.6843  2695.3125    21.0000    44.6153     0.0015     6.5954     1.0386    94.8759  3101.6666
03:38:28 30-Aug-08    -999.25       9.9611    94.3175     0.3807     6.5657    65.0000     0.0000    69.0000   907.6955  2695.3125    21.0000    44.6053     0.0001     6.5954     1.0386    95.8020  3101.6666
03:38:38 30-Aug-08    -999.25       9.9611    94.2425     0.4557     6.5657    65.0000     0.0000    69.0000   907.7760  2695.3125    21.0000    44.5259     0.0088     6.5954     1.0388    95.8020  3101.6666
03:38:48 30-Aug-08    -999.25       9.9611    94.2613     0.4369     6.3539    64.0000     0.0000   126.0000   907.8661  2656.2500    21.0000    44.4359     0.0100     6.5954     1.0389    95.9043  3101.6666
03:38:58 30-Aug-08    -999.25       9.9611    93.9422     0.7560     6.2788    64.0000     0.0000   126.0000   907.9212  2656.2500    21.0000    44.3784     0.0031     6.5954     1.0384    95.6689  3101.6666
03:39:08 30-Aug-08    -999.25      10.1250    94.2652     0.4330     6.2788    64.0000     0.0000   126.0000   907.9360  2656.2500    21.0000    44.3641     0.0017     6.5954     1.0384    95.6689  3101.6666
03:39:18 30-Aug-08    -999.25      10.1250    94.2646     0.4336     6.3778    65.0000     0.0000   126.0000   907.9536  2656.2500    21.0000    44.3465     0.0020     6.5954     1.0383    95.4582  3101.6666
03:39:28 30-Aug-08    -999.25      10.1250    94.2822     0.4160     6.2109    64.0000     0.0000   129.0000   907.9772  2695.3125    21.0000    44.3230     0.0020     6.5954     1.0386    96.0220  3101.6666
03:39:38 30-Aug-08    -999.25      10.1250    94.2493     0.4489     6.1954    64.0000     0.0000   129.0000   907.9947  2695.3125    21.0000    44.3053     0.0020     6.5954     1.0391    95.7370  3101.6666
03:39:48 30-Aug-08    -999.25       9.9611    94.2502     0.4480     6.1954    64.0000     0.0000   129.0000   908.0123  2695.3125    21.0000    44.2876     0.0020     6.5954     1.0387    95.7370  3101.6666
03:39:58 30-Aug-08    -999.25       9.9611    94.3134     0.3848     6.5788    64.0000     0.0000   129.0000   908.0359  2695.3125    21.0000    44.2641     0.0020     6.5954     1.0386    96.5392  3101.6666
03:40:08 30-Aug-08    -999.25       9.9611    94.3227     0.3755     6.7003    65.0000     0.0000    45.0000   908.0538  2695.3125    21.0000    44.2464     0.0020     6.5954     1.0390    95.7618  3101.6666
03:40:18 30-Aug-08    -999.25       9.9611    94.3116     0.3866     6.2048    65.0000     0.0000    45.0000   908.0714  2695.3125    21.0000    44.2288     0.0019     6.5954     1.0387    95.0029  3101.6666
03:40:28 30-Aug-08    -999.25       9.9611    94.4392     0.2590     6.2048    65.0000     0.0000    45.0000   908.0949  2695.3125    21.0000    44.2053     0.0020     6.5954     1.0385    95.0029  3101.6666
03:40:38 30-Aug-08    -999.25       9.9611    94.3236     0.3746     6.8429    64.0000     0.0000    63.0000   908.1125  2695.3125    21.0000    44.1877     0.0020     6.5954     1.0389    95.5357  3101.6666
03:40:48 30-Aug-08    -999.25       9.9611    94.2389     0.4593     5.7544    64.0000     0.0000    63.0000   908.1301  2695.3125    21.0000    44.1699     0.0019     6.5954     1.0386    96.8087  3101.6666
03:40:58 30-Aug-08    -999.25       9.9611    94.3326     0.3656     5.7466    64.0000     0.0000    63.0000   908.1536  2695.3125    21.0000    44.1464     0.0019     6.5954     1.0384    95.7556  3101.6666
