~Version Information
VERS.             2.0 : CWLS log ASCII standard - Version 2.0
WRAP.             NO  : One line per depth step
#
~Well Information Block
#MNEM.UNIT                   Data Type:Information
#__________________________________________________________
  STRT.           30-AUG-2008 00:00:00 : START INDEX                   
  STOP.           30-AUG-2008 18:00:00 : STOP INDEX                    
  STEP.SEC           10.0000 : STEP                          
  NULL.              -999.25 : NULL VALUE                    
  COMP.           StatoilHydro : COMPANY                       
  WELL.             15/9-F-9 : WELL                          
   FLD.                Volve : FIELD                         
   LOC.           Norwegian North Sea : LOCATION                      
  PROV.                      : PROVINCE                      
  CNTY.               Norway : COUNTY                        
  STAT.           Maersk Inspirer : RIG                           
  CTRY.                      : COUNTRY                       
  SRVC.           Schlumberger D&M : SERVICE COMPANY               
  DATE.           29-AUG-2008 09:22:08 : LOG DATE                      
   UWI.                      : UNIQUE WELL ID                
   API.                      : API NUMBER                    
#
~Curve Information Block
#MNEM.UNIT                     : Curve Description
#---------                     --------------------
TIME	    .HHMMSS	       : 
DATE	    .D		       : 
GR          .GAPI              : ARC Gamma Ray, Real-Time                                        
INCL_CONT_RT.DEG               : MWD Cont Inc 2hz                                                
HKLD        .KKGF              : Measured Hookload 2hz                                           
SWOB        .KKGF              : Surface Weight on Bit 2hz                                       
TQA         .KMN               : SRF STOR 2hz                                                    
RPM         .RPM               : SRF SRPM 2hz                                                    
SHKRSK_RT   .----              : MWD SHKRSK 2hz                                                  
Stick_RT    .RPM               : MWD PKtoPK RPM 2hz                                              
DEPT        .M                 : Bit Depth 2hz                                                   
TRPM_RT     .RPM               : MWD TUR_RPM 2hz                                                 
ATMP        .DEGC              : ARC Annular Temperature                                         
BPOS        .M                 : Block Position 2hz                                              
BVEL        .M/S               : Block Velocity 2hz                                              
ROP5        .M/HR              : 5ft ROP 2hz                                                     
ECD_ARC     .G/C3              : Equivalent Circulating Density                                  
SPPA        .BAR               : SRF PUMPRS 2hz                                                  
TFLO        .LPM               : HSPM Total Pump Flow 2hz                                        
#
~Parameter Information Block
#MNEM.UNIT                       Value:Description
#__________________________________________________________
#
~Other Information Block

#
~A TIME       DATE     GR    INCL_CONT_RT       HKLD       SWOB        TQA        RPM  SHKRSK_RT   Stick_RT       DEPT    TRPM_RT       ATMP       BPOS       BVEL       ROP5    ECD_ARC       SPPA       TFLO
# ...
11:55:08 30-Aug-08    28.7504       9.6868    87.5193     9.0265     8.1139   140.0000     0.0000    15.0000  1019.1923  2812.5000    34.0000    13.6235     0.0134    39.4833     1.3290   128.2977  3278.9046
11:55:18 30-Aug-08    30.1700       9.6868    87.4441     9.1016     8.2515   140.0000     0.0000    12.0000  1019.2818  2812.5000    34.0000    13.5335     0.0102    40.3496     1.3291   128.8801  3278.9046
11:55:28 30-Aug-08    30.1700       9.6868    87.3899     9.1559     8.9337   139.0000     0.0000    12.0000  1019.3709  2812.5000    34.0000    13.4446     0.0100    40.3496     1.3294   127.9013  3278.9046
11:55:38 30-Aug-08    34.6339       9.5156    87.2246     9.3212     8.9337   139.0000     0.0000    12.0000  1019.4823  2812.5000    34.0000    13.3330     0.0091    40.3562     1.3290   127.9013  3278.9046
11:55:48 30-Aug-08    34.6339       9.5156    86.9026     9.6432     8.6748   139.0000     0.0000    12.0000  1019.5666  2812.5000    34.0000    13.2489     0.0091    39.9224     1.3287   127.9756  3278.9046
11:55:58 30-Aug-08    34.6339       9.5156    87.1552     9.3905     8.7528   140.0000     0.0000    12.0000  1019.6463  2812.5000    34.0000    13.1695     0.0093    39.9224     1.3290   127.3654  3278.9046
11:56:08 30-Aug-08    36.1903       9.5156    87.1664     9.3794     8.6725   140.0000     0.0000    12.0000  1019.7573  2812.5000    34.0000    13.0576     0.0092    38.7579     1.3289   128.4588  3278.9046
11:56:18 30-Aug-08    36.1903       9.5156    87.0865     9.4592     8.4957   139.0000     0.0000    12.0000  1019.8396  2812.5000    34.0000    12.9755     0.0091    38.7579     1.3288   128.5641  3278.9046
11:56:28 30-Aug-08    36.1903       9.5156    87.0115     9.5343     8.4957   139.0000     0.0000    12.0000  1019.9220  2812.5000    34.0000    12.8938     0.0093    37.6716     1.3287   128.5641  3278.9046
11:56:38 30-Aug-08    36.1903       9.5156    87.0633     9.4825     8.0727   138.0000     0.0000     9.0000  1020.0313  2812.5000    34.0000    12.7842     0.0093    36.8085     1.3286   128.4960  3278.9046
11:56:48 30-Aug-08    39.4057       9.6868    87.1496     9.3962     8.9036   140.0000     0.0000     9.0000  1020.1133  2812.5000    34.0000    12.7025     0.0091    36.8085     1.3284   128.9637  3278.9046
11:56:58 30-Aug-08    39.4057       9.6868    87.0682     9.4775     8.2758   139.0000     0.0000     9.0000  1020.1943  2812.5000    34.0000    12.6215     0.0090    36.0498     1.3283   127.4986  3278.9046
11:57:08 30-Aug-08    37.7809       9.6868    87.1138     9.4320     8.2758   139.0000     0.0000     6.0000  1020.3023  2812.5000    34.0000    12.5133     0.0090    36.0498     1.3285   127.4986  3278.9046
11:57:18 30-Aug-08    37.7809       9.6868    87.1287     9.4170     8.1643   139.0000     0.0000     6.0000  1020.3840  2812.5000    34.0000    12.4316     0.0090    35.4013     1.3288   128.0251  3278.9046
11:57:28 30-Aug-08    36.1903       9.6868    87.1746     9.3711     9.0272   140.0000     0.0000     6.0000  1020.4653  2812.5000    34.0000    12.3499     0.0091    35.4013     1.3287   127.5977  3278.9046
11:57:38 30-Aug-08    36.1903       9.6868    87.1389     9.4068     8.2531   140.0000     0.0000     6.0000  1020.5743  2812.5000    34.0000    12.2414     0.0094    34.5702     1.3286   127.5915  3278.9046
11:57:48 30-Aug-08    30.1700       9.6868    87.1466     9.3991     8.2531   140.0000     0.0000     6.0000  1020.6584  2812.5000    34.0000    12.1573     0.0093    33.7548     1.3287   127.5915  3278.9046
11:57:58 30-Aug-08    30.1700       9.6868    87.1621     9.3837     8.1712   139.0000     0.0000     6.0000  1020.7410  2812.5000    34.0000    12.0743     0.0091    33.7548     1.3290   127.3034  3278.9046
11:58:08 30-Aug-08    27.3650       9.6868    87.0653     9.4805     8.9412   140.0000     0.0000     6.0000  1020.8524  2812.5000    34.0000    11.9634     0.0091    33.0979     1.3289   127.7309  3278.9046
11:58:18 30-Aug-08    27.3650       9.6868    87.1308     9.4150     8.6080   139.0000     0.0000     6.0000  1020.9364  2812.5000    34.0000    11.8794     0.0093    32.9002     1.3288   126.9410  3278.9046
11:58:28 30-Aug-08    36.1903       9.6868    87.0694     9.4764     8.6080   139.0000     0.0000     6.0000  1021.0170  2812.5000    34.0000    11.7979     0.0091    32.9002     1.3289   126.9410  3278.9046
11:58:38 30-Aug-08    36.1903       9.5156    87.1470     9.3988     9.7531   139.0000     0.0000     6.0000  1021.1287  2812.5000    34.0000    11.6871     0.0092    32.8725     1.3290   128.6477  3278.9046
11:58:48 30-Aug-08    36.1903       9.5156    87.2273     9.3184     9.7308   140.0000     0.0000     6.0000  1021.2091  2812.5000    34.0000    11.6061     0.0092    32.8725     1.3287   128.5579  3278.9046
11:58:58 30-Aug-08    36.1903       9.5156    87.2190     9.3268    10.0205   140.0000     0.0000     6.0000  1021.2914  2812.5000    34.0000    11.5242     0.0091    32.8577     1.3290   127.1424  3278.9046
11:59:08 30-Aug-08    36.1903       9.5156    87.1017     9.4441     8.9161   139.0000     0.0000     9.0000  1021.4039  2812.5000    34.0000    11.4120     0.0093    32.8939     1.3289   127.5760  3278.9046
11:59:18 30-Aug-08    33.1117       9.5156    87.1491     9.3967     8.9161   139.0000     0.0000     9.0000  1021.4855  2812.5000    34.0000    11.3303     0.0091    32.8939     1.3288   127.5760  3278.9046
11:59:28 30-Aug-08    33.1117       9.5156    87.3435     9.2022     9.5162   140.0000     0.0000     9.0000  1021.5679  2812.5000    34.0000    11.2471     0.0091    32.8956     1.3286   128.5982  3278.9046
11:59:38 30-Aug-08    30.1700       9.5156    87.1071     9.4387     9.3377   140.0000     0.0000     9.0000  1021.6802  2812.5000    34.0000    11.1355     0.0093    32.8956     1.3288   128.0004  3278.9046
11:59:48 30-Aug-08    30.1700       9.5156    87.0525     9.4933     9.6726   139.0000     0.0000     9.0000  1021.7642  2812.5000    34.0000    11.0511     0.0095    33.0036     1.3291   127.3313  3278.9046
11:59:58 30-Aug-08    27.3650       9.5156    87.1774     9.3684     9.6726   139.0000     0.0000     9.0000  1021.8459  2812.5000    34.0000    10.9695     0.0091    33.0036     1.3284   127.3313  3278.9046
12:00:08 30-Aug-08    27.3650       9.5156    87.0658     9.4800     9.6161   140.0000     0.0000     9.0000  1021.9556  2812.5000    34.0000    10.8596     0.0091    33.1124     1.3280   128.4030  3278.9046
12:00:18 30-Aug-08    31.6237       9.5156    87.1873     9.3585     9.4247   140.0000     0.0000    12.0000  1022.0393  2812.5000    34.0000    10.7763     0.0092    33.1225     1.3276   124.0170  3278.9046
12:00:28 30-Aug-08    36.1903       9.5156    87.1821     9.3637     9.3806   139.0000     0.0000    12.0000  1022.1210  2812.5000    34.0000    10.6942     0.0090    33.1225     1.3272   127.3716  3278.9046
12:00:38 30-Aug-08    36.1903       9.6868    87.1671     9.3787     9.8479   139.0000     0.0000    12.0000  1022.2272  2812.5000    34.0000    10.5879     0.0091    33.1026     1.3292   125.6432  3278.9046
12:00:48 30-Aug-08    33.1117       9.6868    87.0153     9.5305     9.8479   139.0000     0.0000    12.0000  1022.3110  2812.5000    34.0000    10.5041     0.0092    33.0286     1.3291   125.6432  3278.9046
12:00:58 30-Aug-08    33.1117       9.6868    87.0726     9.4732     8.8860   140.0000     0.0000     9.0000  1022.3936  2812.5000    34.0000    10.4222     0.0092    33.0286     1.3290   126.8915  3278.9046
12:01:08 30-Aug-08    33.1117       9.6868    87.0681     9.4777     9.6394   140.0000     0.0000     9.0000  1022.5036  2812.5000    34.0000    10.3121     0.0094    32.9930     1.3291   128.5487  3278.9046
12:01:18 30-Aug-08    33.1117       9.6868    87.0184     9.5273     9.1152   140.0000     0.0000     9.0000  1022.5870  2812.5000    34.0000    10.2283     0.0093    32.9930     1.3294   128.2172  3278.9046
12:01:28 30-Aug-08    31.6237       9.6868    86.8851     9.6607     9.1152   140.0000     0.0000    12.0000  1022.6704  2812.5000    34.0000    10.1454     0.0091    33.0708     1.3296   128.2172  3278.9046
