~Version Information
VERS.             2.0 : CWLS log ASCII standard - Version 2.0
WRAP.             NO  : One line per depth step
#
~Well Information Block
#MNEM.UNIT                   Data Type:Information
#__________________________________________________________
  STRT.           30-AUG-2008 00:00:00 : START INDEX                   
  STOP.           30-AUG-2008 18:00:00 : STOP INDEX                    
  STEP.SEC           10.0000 : STEP                          
  NULL.              -999.25 : NULL VALUE                    
  COMP.           StatoilHydro : COMPANY                       
  WELL.             15/9-F-9 : WELL                          
   FLD.                Volve : FIELD                         
   LOC.           Norwegian North Sea : LOCATION                      
  PROV.                      : PROVINCE                      
  CNTY.               Norway : COUNTY                        
  STAT.           Maersk Inspirer : RIG                           
  CTRY.                      : COUNTRY                       
  SRVC.           Schlumberger D&M : SERVICE COMPANY               
  DATE.           29-AUG-2008 09:22:08 : LOG DATE                      
   UWI.                      : UNIQUE WELL ID                
   API.                      : API NUMBER                    
#
~Curve Information Block
#MNEM.UNIT                     : Curve Description
#---------                     --------------------
TIME	    .HHMMSS	       : 
DATE	    .D		       : 
GR          .GAPI              : ARC Gamma Ray, Real-Time                                        
INCL_CONT_RT.DEG               : MWD Cont Inc 2hz                                                
HKLD        .KKGF              : Measured Hookload 2hz                                           
SWOB        .KKGF              : Surface Weight on Bit 2hz                                       
TQA         .KMN               : SRF STOR 2hz                                                    
RPM         .RPM               : SRF SRPM 2hz                                                    
SHKRSK_RT   .----              : MWD SHKRSK 2hz                                                  
Stick_RT    .RPM               : MWD PKtoPK RPM 2hz                                              
DEPT        .M                 : Bit Depth 2hz                                                   
TRPM_RT     .RPM               : MWD TUR_RPM 2hz                                                 
ATMP        .DEGC              : ARC Annular Temperature                                         
BPOS        .M                 : Block Position 2hz                                              
BVEL        .M/S               : Block Velocity 2hz                                              
ROP5        .M/HR              : 5ft ROP 2hz                                                     
ECD_ARC     .G/C3              : Equivalent Circulating Density                                  
SPPA        .BAR               : SRF PUMPRS 2hz                                                  
TFLO        .LPM               : HSPM Total Pump Flow 2hz                                        
#
~Parameter Information Block
#MNEM.UNIT                       Value:Description
#__________________________________________________________
#
~Other Information Block

#
~A TIME       DATE     GR    INCL_CONT_RT       HKLD       SWOB        TQA        RPM  SHKRSK_RT   Stick_RT       DEPT    TRPM_RT       ATMP       BPOS       BVEL       ROP5    ECD_ARC       SPPA       TFLO
# ...
02:23:08 30-Aug-08    -999.25      10.4453    92.0521     2.6461     5.4398    64.0000     0.0000    51.0000   901.9048  2695.3125    20.0000    50.3951     0.0016    -999.25     1.0382    95.9755  3101.6666
02:23:18 30-Aug-08    -999.25      10.4453    91.7692     2.9291     5.4398    64.0000     0.0000    51.0000   901.9192  2695.3125    20.0000    50.3807     0.0016    -999.25     1.0381    95.9755  3101.6666
02:23:28 30-Aug-08    -999.25      10.4453    91.4180     3.2802     5.6333    64.0000     0.0000    51.0000   901.9375  2695.3125    20.0000    50.3625     0.0015    -999.25     1.0381    95.3250  3101.6666
02:23:38 30-Aug-08    -999.25      10.4453    91.7240     2.9742     5.3908    65.0000     0.0000    42.0000   901.9522  2695.3125    20.0000    50.3479     0.0016    -999.25     1.0381    95.9043  3101.6666
02:23:48 30-Aug-08    -999.25      10.4453    91.8078     2.8905     5.9518    64.0000     0.0000    42.0000   901.9663  2695.3125    20.0000    50.3337     0.0016    -999.25     1.0381    94.6529  3101.6666
02:23:58 30-Aug-08    -999.25      10.4453    91.9783     2.7199     5.9518    64.0000     0.0000    42.0000   901.9857  2695.3125    20.0000    50.3144     0.0016    -999.25     1.0381    94.6529  3101.6666
02:24:08 30-Aug-08    -999.25      10.4453    91.8209     2.8773     6.0392    64.0000     0.0000    42.0000   901.9997  2695.3125    20.0000    50.3003     0.0016    -999.25     1.0380    94.9812  3101.6666
02:24:18 30-Aug-08    -999.25      10.4453    92.1710     2.5272     4.7208    64.0000     0.0000    42.0000   902.0127  2695.3125    20.0000    50.2872     0.0014    -999.25     1.0380    96.4370  3101.6666
02:24:28 30-Aug-08    -999.25      10.4453    91.7383     2.9599     5.7530    65.0000     0.0000    42.0000   902.0325  2695.3125    20.0000    50.2675     0.0017    -999.25     1.0380    96.3038  3101.6666
02:24:38 30-Aug-08    -999.25      10.4453    91.5565     3.1417     5.7530    65.0000     0.0000    42.0000   902.0458  2695.3125    20.0000    50.2541     0.0016    -999.25     1.0380    96.3038  3101.6666
02:24:48 30-Aug-08    -999.25      10.4453    91.8237     2.8745     5.8709    65.0000     0.0000    42.0000   902.0574  2695.3125    20.0000    50.2425     0.0013    -999.25     1.0380    96.4339  3101.6666
02:24:58 30-Aug-08    -999.25      10.4453    92.1289     2.5693     6.6289    64.0000     0.0000    42.0000   902.0771  2695.3125    20.0000    50.2229     0.0016    -999.25     1.0380    95.5264  3101.6666
02:25:08 30-Aug-08    -999.25      10.4453    92.1540     2.5442     5.9149    65.0000     0.0000    42.0000   902.0933  2695.3125    20.0000    50.2069     0.0018    -999.25     1.0383    95.2414  3101.6666
02:25:18 30-Aug-08    -999.25      10.4453    91.6331     3.0651     4.8885    64.0000     0.0000    42.0000   902.1108  2695.3125    20.0000    50.1894     0.0019    -999.25     1.0387    95.5821  3101.6666
02:25:28 30-Aug-08    -999.25      10.4453    91.5149     3.1833     4.8885    64.0000     0.0000    15.0000   902.1322  2695.3125    20.0000    50.1678     0.0017    -999.25     1.0384    95.5821  3101.6666
02:25:38 30-Aug-08    -999.25      10.4453    91.6889     3.0093     5.6204    64.0000     0.0000    15.0000   902.1495  2695.3125    20.0000    50.1506     0.0019    -999.25     1.0382    96.1304  3101.6666
02:25:48 30-Aug-08    -999.25      10.4453    92.1344     2.5638     6.2105    65.0000     0.0000    15.0000   902.1660  2695.3125    20.0000    50.1340     0.0019    -999.25     1.0383    95.6440  3101.6666
02:25:58 30-Aug-08    -999.25      10.4453    91.8608     2.8374     5.7995    65.0000     0.0000    15.0000   902.1892  2695.3125    20.0000    50.1108     0.0019    -999.25     1.0378    95.1949  3101.6666
02:26:08 30-Aug-08    -999.25      10.4453    91.8801     2.8181     5.7995    65.0000     0.0000    42.0000   902.2068  2695.3125    20.0000    50.0934     0.0020    -999.25     1.0378    95.1949  3101.6666
02:26:18 30-Aug-08    -999.25      10.4453    91.5103     3.1879     5.1079    65.0000     0.0000    42.0000   902.2240  2695.3125    20.0000    50.0759     0.0019    -999.25     1.0378    95.2414  3101.6666
02:26:28 30-Aug-08    -999.25      10.4453    91.3619     3.3363     5.2361    64.0000     0.0000    42.0000   902.2468  2695.3125    20.0000    50.0533     0.0019    -999.25     1.0378    94.9781  3101.6666
02:26:38 30-Aug-08    -999.25      10.4453    91.7447     2.9535     5.7341    65.0000     0.0000    51.0000   902.2637  2695.3125    20.0000    50.0363     0.0019    -999.25     1.0377    95.8020  3101.6666
02:26:48 30-Aug-08    -999.25      10.4453    91.6790     3.0193     5.7341    65.0000     0.0000    51.0000   902.2813  2695.3125    20.0000    50.0187     0.0020    -999.25     1.0377    95.8020  3101.6666
02:26:58 30-Aug-08    -999.25      10.4453    91.7231     2.9751     5.1974    65.0000     0.0000    51.0000   902.3045  2695.3125    20.0000    49.9954     0.0019    -999.25     1.0377    95.8144  3101.6666
02:27:08 30-Aug-08    -999.25      10.4453    91.6196     3.0786     5.6075    64.0000     0.0000    51.0000   902.3218  2695.3125    20.0000    49.9782     0.0019    -999.25     1.0380    96.3844  3101.6666
02:27:18 30-Aug-08    -999.25      10.4453    91.7685     2.9297     5.6075    64.0000     0.0000    57.0000   902.3397  2695.3125    20.0000    49.9606     0.0019    -999.25     1.0381    96.3844  3101.6666
02:27:28 30-Aug-08    -999.25      10.4453    91.8467     2.8516     5.9657    65.0000     0.0000    57.0000   902.3626  2695.3125    20.0000    49.9376     0.0019    -999.25     1.0376    95.8516  3101.6666
02:27:38 30-Aug-08    -999.25      10.4453    91.7540     2.9442     5.9915    65.0000     0.0000    57.0000   902.3797  2695.3125    20.0000    49.9204     0.0019    -999.25     1.0379    96.4463  3101.6666
02:27:48 30-Aug-08    -999.25      10.4453    91.9431     2.7551     5.9920    65.0000     0.0000    57.0000   902.3966  2695.3125    20.0000    49.9033     0.0019    -999.25     1.0384    95.7401  3101.6666
02:27:58 30-Aug-08    -999.25      10.4453    91.4099     3.2883     5.7334    65.0000     0.0000    69.0000   902.4199  2695.3125    20.0000    49.8801     0.0020    -999.25     1.0380    96.0870  3101.6666
02:28:08 30-Aug-08    -999.25      10.4453    91.5500     3.1482     5.7334    65.0000     0.0000    69.0000   902.4367  2695.3125    20.0000    49.8634     0.0018    -999.25     1.0375    96.0870  3101.6666
02:28:18 30-Aug-08    -999.25      10.4453    91.4292     3.2690     6.2273    64.0000     0.0000    69.0000   902.4529  2695.3125    20.0000    49.8473     0.0018    -999.25     1.0378    95.4892  3101.6666
02:28:28 30-Aug-08    -999.25      10.4453    91.8570     2.8412     5.8713    65.0000     0.0000    81.0000   902.4761  2695.3125    20.0000    49.8241     0.0019    -999.25     1.0383    96.9172  3101.6666
02:28:38 30-Aug-08    -999.25      10.4453    91.9210     2.7772     5.8713    65.0000     0.0000    81.0000   902.4937  2695.3125    20.0000    49.8065     0.0020    -999.25     1.0383    96.9172  3101.6666
02:28:48 30-Aug-08    -999.25      10.4453    91.3941     3.3041     5.6759    64.0000     0.0000    81.0000   902.5109  2695.3125    20.0000    49.7890     0.0019    -999.25     1.0382    95.2847  3101.6666
02:28:58 30-Aug-08    -999.25      10.4453    91.2656     3.4326     5.9151    64.0000     0.0000    81.0000   902.5330  2695.3125    20.0000    49.7672     0.0018    -999.25     1.0382    95.5945  3101.6666
02:29:08 30-Aug-08    -999.25      10.4453    91.1826     3.5156     6.6135    65.0000     0.0000    87.0000   902.5488  2695.3125    20.0000    49.7511     0.0018    -999.25     1.0382    95.2817  3101.6666
02:29:18 30-Aug-08    -999.25      10.4453    91.5164     3.1818     6.6135    65.0000     0.0000    87.0000   902.5661  2695.3125    20.0000    49.7342     0.0019    -999.25     1.0385    95.2817  3101.6666
02:29:28 30-Aug-08    -999.25      10.4453    91.3650     3.3332     6.2183    64.0000     0.0000    87.0000   902.5886  2695.3125    20.0000    49.7114     0.0020    -999.25     1.0386    96.0034  3101.6666
