~VERSION INFORMATION 
VERS  .    2.0                                     :CWLS Log ASCII Standard - VERSION2.0
WRAP  .    NO                                      :One Line per Time step
DLM   .    SPACE                                   :Column Data section Delimiter
PROD  .    Schlumberger Technology Corp.           :LAS Producer
PROG  .    Horizon LASWriter 1.1.8606.0            :LAS Program name and version
CREA  .    08/18/2009                              :LAS Creation date {MM/DD/YYYY}
#--------------------------------------------------
~WELL INFORMATION 
#MNEM           .UNIT                      DATA            :DESCRIPTION
#----            ------          --------------            -----------------------------
 STRT           .S               04:00:00/03-Jul-2009  :START TIME                          
 STOP           .S               11:00:00/04-Jul-2009  :STOP TIME                          
 STEP           .S                           0.00000       :STEP
NULL            .                       -999.25            :NULL VALUE
COMP            .                  StatoilHydro            :COMPANY
WELL            .                    15/9-F-9 A            :WELL NAME
FLD             .                         Volve            :FIELD NAME
RIGN            .                Maersk Inspirer           :Rig Name
RIGTYP          .                       Jack-up            :Rig Type
SON             .                     09SCA0196            :Service Order Number
SRVC            .                  Schlumberger            :SERVICE COMPANY
DATE            .                    07/03/2009            :LOG DATE{MM/DD/YYYY} (Composite Date for Composite LAP)
CLAB            .                       County:            :County Label
CNTY            .                       -999.25            :COUNTY
SLAB            .                       -999.25            :State/Province Label
STAT            .                       -999.25            :STATE or PROVINCE
PROV            .                       -999.25            :STATE or PROVINCE
CTRY            .                        Norway            :COUNTRY
CONT_REGION     .                        Europe            :Continent Region
SECT            .                       -999.25            :Section
TOWN            .                       -999.25            :Township
RANG            .                       -999.25            :Range
API             .                       -999.25            :API NUMBER
UWI             .                       -999.25            :UNIQUE WELL ID
LUL             .                  Weather Deck            :Logging Unit Location
LUN             .                Geoservices: 1010567      :Logging Unit Number
LOC             .                Norwegian North Sea       :FIELD LOCATION
FL1             .                Section: 12 1/4 in.       :Field Location Line 1
FL2             .                Job no.: 09SCA0196        :Field Location Line 2
LATI            .                58° 26' 29.74" N          :LATITUDE
LONG            .                  1° 53' 15" E            :LONGITUDE
PDAT            .                           MSL            :Local Permanent Datum
LMF             .                            DF            :Logging Measured From
APD             .M                      54.9000            :Elevation of Depth Reference (LMF) Above Permanent Datum
EPD             .M                       0.0000            :Elevation of Permanent Datum (PDAT) above Mean Sea Level
EKB             .M                      -999.25            :Elevation of Kelly Bushing Above Permanent Datum
EDF             .M                      54.9000            :Elevation of Drill Floor Above Permanent Datum
EGL             .M                     -91.0000            :Elevation of Ground Level Above Permanent Datum
ECF             .M                      -999.25            :Elevation of Casing Flange above Permanent Datum
#--------------------------------------------------
~CURVE INFORMATION
#MNEM           .UNIT                  API CODE            :DESCRIPTION
#----            ------          --------------            ----------------------------------------
 TIME           .S                                         :                                          Time Index(hh:mm  :ss/dd-MMM-yyyy)
DEPTH           .M                                         :(RT)    (DnMWorkflow)           (1)       Depth Index
ROP5            .M/HR                                      :(RT)                            (1)       Rate of penetration averaged over the last 5 ft (1.5 m)
GR              .GAPI                                      :(RT)    (TELE825-IWOB)          (1)       Gamma Ray
BLKP            .M                                         :(RT)                            (1)       Height of block above rig floor
PVEL            .M/HR                                      :(RT)                            (1)       Pipe Velocity
HKLA            .KKGF                                      :(RT)                            (1)       Average Hookload
SWOB            .KKGF                                      :(RT)                            (1)       Surface Weight On Bit
STOR            .kN.m                                      :(RT)                            (1)       Surface Torque
RPM             .RPM                                       :(RT)                            (1)       Rotational Speed
STICK           .RPM                                       :(RM)    (TELE825-IWOB)          (1)       Stick Slip Indicator
TFLO            .LPM                                       :(RT)                            (1)       Total flow rate of all active pumps
SPM1            .SD/M                                      :(RT)                            (1)       Pump 1 Stroke Rate
SPM2            .SD/M                                      :(RT)                            (1)       Pump 2 Stroke Rate
SPM3            .SD/M                                      :(RT)                            (1)       Pump 3 Stroke Rate
SPPA            .BAR                                       :(RT)                            (1)       Standpipe Pressure
AJAM            .                                          :(RT)    (TELE825-IWOB)          (1)       Number of Anti-Jams Detected
TRPM            .RPM                                       :(RT)    (TELE825-IWOB)          (1)       MWD Turbine Rotation Speed
SHKL            .                                          :(RT)    (TELE825-IWOB)          (1)       Tool Shock Level
SHKPK           .M/S2                                      :(RT)    (TELE825-IWOB)          (1)       Shock Peak
SHKR            .CPS                                       :(RT)    (TELE825-IWOB)          (1)       Shock Rate
SHKRSK          .                                          :(RT)    (TELE825-IWOB)          (1)       Shock Risk
#-------------------------------------------------------------
#          TIME          DEPTH           ROP5             GR           BLKP           PVEL           HKLA           SWOB           STOR            RPM          STICK           TFLO           SPM1           SPM2           SPM3           SPPA           AJAM           TRPM           SHKL          SHKPK           SHKR         SHKRSK 
#                 (DnMWorkflow)                 (TELE825-IWO)                                                                                            (TELE825-IWO)                                                                             (TELE825-IWO)  (TELE825-IWO)  (TELE825-IWO)  (TELE825-IWO)  (TELE825-IWO)  (TELE825-IWO)
#                           (1)            (1)            (1)            (1)            (1)            (1)            (1)            (1)            (1)            (1)            (1)            (1)            (1)            (1)            (1)            (1)            (1)            (1)            (1)            (1)            (1)
#                          (RT)           (RT)           (RT)           (RT)           (RT)           (RT)           (RT)           (RT)           (RT)           (RM)           (RT)           (RT)           (RT)           (RT)           (RT)           (RT)           (RT)           (RT)           (RT)           (RT)           (RT)
~ASCII 
# ...
22:20:00/03-Jul-2009       777.6710        37.8987        -999.25        27.7612        42.8704        89.6176        17.0118         0.7653       104.0000        -999.25      3447.2410        78.0000         0.0000        78.0000       146.4688         0.0000        -999.25        -999.25        -999.25        -999.25        -999.25
22:20:10/03-Jul-2009       777.7801        -999.25        -999.25        27.6511        41.3919        89.3887        16.4785         0.7427       104.0000        -999.25      3447.2410        78.0000         0.0000        78.0000       148.0626        -999.25        -999.25        -999.25        -999.25        -999.25        -999.25
22:20:20/03-Jul-2009       777.8917        38.6394        -999.25        27.5392        38.1093        89.4406        16.8847         0.8193       104.0000        -999.25      3447.2410        78.0000         0.0000        78.0000       148.3437        -999.25        -999.25        -999.25        -999.25        -999.25        -999.25
22:20:30/03-Jul-2009       778.0059        39.1979        -999.25        27.4267        41.3406        90.0513        16.6457         0.6338       104.0000        -999.25      3447.2410        78.0000         0.0000        78.0000       145.5823        -999.25      3085.9380        -999.25         0.0000         0.0000         0.0000
22:20:40/03-Jul-2009       778.0641        -999.25       201.1836        27.3648         0.7899        92.5851        13.5343         0.6695       104.0000        -999.25      3447.2410        78.0000         0.0000        78.0000       147.2132         0.0000        -999.25        -999.25        -999.25        -999.25        -999.25
22:20:50/03-Jul-2009       777.1888        -999.25        -999.25        28.2183      -359.8660       110.2000        -3.7538         0.6616       104.0000        -999.25      3447.2410        78.0000         0.0000        78.0000       145.9622        -999.25        -999.25        -999.25        -999.25        -999.25        -999.25
22:21:00/03-Jul-2009       776.9929        -999.25        -999.25        28.4361         0.0000       106.5781         0.0354         0.6840       104.0000        -999.25      3447.2410        78.0000         0.0000        78.0000       138.0055        -999.25        -999.25        -999.25        -999.25        -999.25        -999.25
22:21:10/03-Jul-2009       776.9929        -999.25        -999.25        28.4361         0.0000       104.5938         1.9269         7.1837       119.0000        -999.25      3447.2410        78.0000         0.0000        78.0000       143.8526         0.0000        -999.25        -999.25        -999.25        -999.25        -999.25
22:21:20/03-Jul-2009       776.9929        -999.25        -999.25        28.4361         0.0000       104.3579         2.0571         5.2921       144.0000        -999.25      3447.2410        78.0000         0.0000        78.0000       141.5113        -999.25      3125.0000        -999.25         0.0000         0.0000         0.0000
22:21:30/03-Jul-2009       776.9929        -999.25       189.1126        28.4361         0.0000       104.6497         1.8235         4.0731       143.0000        -999.25      3447.2410        78.0000         0.0000        78.0000       140.9429        -999.25        -999.25        -999.25        -999.25        -999.25        -999.25
22:21:40/03-Jul-2009       776.9929        -999.25        -999.25        28.4361         0.0000       104.5634         1.7860         4.3140       143.0000        69.0000      3447.2410        78.0000         0.0000        78.0000       140.4703        -999.25        -999.25        -999.25        -999.25        -999.25        -999.25
22:21:50/03-Jul-2009       777.0800        -999.25        -999.25        28.3534        69.8107       103.9165         2.7880         5.9398       144.0000        -999.25      3447.2410        78.0000         0.0000        78.0000       139.5190         0.0000        -999.25        -999.25        -999.25        -999.25        -999.25
22:22:00/03-Jul-2009       777.2830        -999.25        -999.25        28.1503        69.0339       103.6350         2.9641         5.5054       143.0000        -999.25      3447.2410        78.0000         0.0000        78.0000       137.6255        -999.25        -999.25        -999.25         0.0000         0.0000         0.0000
22:22:10/03-Jul-2009       777.5118        -999.25        -999.25        27.9236        95.6370       103.2747         3.4821         5.5317       144.0000        -999.25      3447.2410        78.0000         0.0000        78.0000       140.8564        -999.25      3125.0000        -999.25        -999.25        -999.25        -999.25
22:22:20/03-Jul-2009       777.8019        -999.25       199.1718        27.6336       103.2323       103.3962         2.5758         6.2986       143.0000        -999.25      3447.2410        78.0000         0.0000        78.0000       138.7406        -999.25        -999.25        -999.25        -999.25        -999.25        -999.25
22:22:30/03-Jul-2009       778.0294        -999.25        -999.25        27.4028        58.2096       100.1194         6.4601         4.4652       144.0000        -999.25      3447.2410        78.0000         0.0000        78.0000       139.0711         0.0000        -999.25        -999.25        -999.25        -999.25        -999.25
22:22:40/03-Jul-2009       778.1744        36.4985        -999.25        27.2580        51.6982        98.2940         8.3995         5.5118       144.0000        -999.25      3447.2410        78.0000         0.0000        78.0000       138.6047        -999.25        -999.25        -999.25         0.0000         0.0000         0.0000
22:22:50/03-Jul-2009       778.3121        37.4964        -999.25        27.1202        52.2531        97.5567         8.8977         6.6518       143.0000        -999.25      3447.2410        78.0000         0.0000        78.0000       144.1645        -999.25      3125.0000        -999.25        -999.25        -999.25        -999.25
22:23:00/03-Jul-2009       778.4655        38.4825       197.1600        26.9678        52.6491        97.3408         9.2761         7.1773       143.0000        -999.25      3447.2410        78.0000         0.0000        78.0000       146.6233        -999.25        -999.25        -999.25        -999.25        -999.25        -999.25
22:23:10/03-Jul-2009       778.6010        39.3059        -999.25        26.8321        49.1241        97.0170         9.1480         7.3191       144.0000        -999.25      3447.2410        78.0000         0.0000        78.0000       141.3939         0.0000        -999.25        -999.25        -999.25        -999.25        -999.25
22:23:20/03-Jul-2009       778.7341        40.0109        -999.25        26.6974        48.5494        97.5008         9.3535         7.5507       144.0000        -999.25      3447.2410        78.0000         0.0000        78.0000       142.6603        -999.25        -999.25        -999.25         0.0000         0.0000         0.0000
22:23:30/03-Jul-2009       778.8658        40.7324       197.1600        26.5654        45.3007        97.2087         9.4439         7.4797       143.0000        -999.25      3447.2410        78.0000         0.0000        78.0000       142.9970        -999.25      3085.9380        -999.25        -999.25        -999.25        -999.25
22:23:40/03-Jul-2009       779.0006        -999.25        -999.25        26.4327        48.4473        96.9353         9.6507         6.7840       143.0000        15.0000      3447.2410        78.0000         0.0000        78.0000       141.8140         0.0000        -999.25        -999.25        -999.25        -999.25        -999.25
22:23:50/03-Jul-2009       779.1284        41.3858        -999.25        26.3040        50.0967        96.6834         9.5880         7.3376       144.0000        -999.25      3447.2410        78.0000         0.0000        78.0000       142.0117        -999.25        -999.25        -999.25        -999.25        -999.25        -999.25
