~VERSION INFORMATION 
VERS  .    2.0                                     :CWLS Log ASCII Standard - VERSION2.0
WRAP  .    NO                                      :One Line per Time step
DLM   .    SPACE                                   :Column Data section Delimiter
PROD  .    Schlumberger Technology Corp.           :LAS Producer
PROG  .    Horizon LASWriter 1.1.8606.0            :LAS Program name and version
CREA  .    08/18/2009                              :LAS Creation date {MM/DD/YYYY}
#--------------------------------------------------
~WELL INFORMATION 
#MNEM           .UNIT                      DATA            :DESCRIPTION
#----            ------          --------------            -----------------------------
 STRT           .S               04:00:00/03-Jul-2009  :START TIME                          
 STOP           .S               11:00:00/04-Jul-2009  :STOP TIME                          
 STEP           .S                           0.00000       :STEP
NULL            .                       -999.25            :NULL VALUE
COMP            .                  StatoilHydro            :COMPANY
WELL            .                    15/9-F-9 A            :WELL NAME
FLD             .                         Volve            :FIELD NAME
RIGN            .                Maersk Inspirer           :Rig Name
RIGTYP          .                       Jack-up            :Rig Type
SON             .                     09SCA0196            :Service Order Number
SRVC            .                  Schlumberger            :SERVICE COMPANY
DATE            .                    07/03/2009            :LOG DATE{MM/DD/YYYY} (Composite Date for Composite LAP)
CLAB            .                       County:            :County Label
CNTY            .                       -999.25            :COUNTY
SLAB            .                       -999.25            :State/Province Label
STAT            .                       -999.25            :STATE or PROVINCE
PROV            .                       -999.25            :STATE or PROVINCE
CTRY            .                        Norway            :COUNTRY
CONT_REGION     .                        Europe            :Continent Region
SECT            .                       -999.25            :Section
TOWN            .                       -999.25            :Township
RANG            .                       -999.25            :Range
API             .                       -999.25            :API NUMBER
UWI             .                       -999.25            :UNIQUE WELL ID
LUL             .                  Weather Deck            :Logging Unit Location
LUN             .                Geoservices: 1010567      :Logging Unit Number
LOC             .                Norwegian North Sea       :FIELD LOCATION
FL1             .                Section: 12 1/4 in.       :Field Location Line 1
FL2             .                Job no.: 09SCA0196        :Field Location Line 2
LATI            .                58° 26' 29.74" N          :LATITUDE
LONG            .                  1° 53' 15" E            :LONGITUDE
PDAT            .                           MSL            :Local Permanent Datum
LMF             .                            DF            :Logging Measured From
APD             .M                      54.9000            :Elevation of Depth Reference (LMF) Above Permanent Datum
EPD             .M                       0.0000            :Elevation of Permanent Datum (PDAT) above Mean Sea Level
EKB             .M                      -999.25            :Elevation of Kelly Bushing Above Permanent Datum
EDF             .M                      54.9000            :Elevation of Drill Floor Above Permanent Datum
EGL             .M                     -91.0000            :Elevation of Ground Level Above Permanent Datum
ECF             .M                      -999.25            :Elevation of Casing Flange above Permanent Datum
#--------------------------------------------------
~CURVE INFORMATION
#MNEM           .UNIT                  API CODE            :DESCRIPTION
#----            ------          --------------            ----------------------------------------
 TIME           .S                                         :                                          Time Index(hh:mm  :ss/dd-MMM-yyyy)
DEPTH           .M                                         :(RT)    (DnMWorkflow)           (1)       Depth Index
ROP5            .M/HR                                      :(RT)                            (1)       Rate of penetration averaged over the last 5 ft (1.5 m)
GR              .GAPI                                      :(RT)    (TELE825-IWOB)          (1)       Gamma Ray
BLKP            .M                                         :(RT)                            (1)       Height of block above rig floor
PVEL            .M/HR                                      :(RT)                            (1)       Pipe Velocity
HKLA            .KKGF                                      :(RT)                            (1)       Average Hookload
SWOB            .KKGF                                      :(RT)                            (1)       Surface Weight On Bit
STOR            .kN.m                                      :(RT)                            (1)       Surface Torque
RPM             .RPM                                       :(RT)                            (1)       Rotational Speed
STICK           .RPM                                       :(RM)    (TELE825-IWOB)          (1)       Stick Slip Indicator
TFLO            .LPM                                       :(RT)                            (1)       Total flow rate of all active pumps
SPM1            .SD/M                                      :(RT)                            (1)       Pump 1 Stroke Rate
SPM2            .SD/M                                      :(RT)                            (1)       Pump 2 Stroke Rate
SPM3            .SD/M                                      :(RT)                            (1)       Pump 3 Stroke Rate
SPPA            .BAR                                       :(RT)                            (1)       Standpipe Pressure
AJAM            .                                          :(RT)    (TELE825-IWOB)          (1)       Number of Anti-Jams Detected
TRPM            .RPM                                       :(RT)    (TELE825-IWOB)          (1)       MWD Turbine Rotation Speed
SHKL            .                                          :(RT)    (TELE825-IWOB)          (1)       Tool Shock Level
SHKPK           .M/S2                                      :(RT)    (TELE825-IWOB)          (1)       Shock Peak
SHKR            .CPS                                       :(RT)    (TELE825-IWOB)          (1)       Shock Rate
SHKRSK          .                                          :(RT)    (TELE825-IWOB)          (1)       Shock Risk
#-------------------------------------------------------------
#          TIME          DEPTH           ROP5             GR           BLKP           PVEL           HKLA           SWOB           STOR            RPM          STICK           TFLO           SPM1           SPM2           SPM3           SPPA           AJAM           TRPM           SHKL          SHKPK           SHKR         SHKRSK 
#                 (DnMWorkflow)                 (TELE825-IWO)                                                                                            (TELE825-IWO)                                                                             (TELE825-IWO)  (TELE825-IWO)  (TELE825-IWO)  (TELE825-IWO)  (TELE825-IWO)  (TELE825-IWO)
#                           (1)            (1)            (1)            (1)            (1)            (1)            (1)            (1)            (1)            (1)            (1)            (1)            (1)            (1)            (1)            (1)            (1)            (1)            (1)            (1)            (1)
#                          (RT)           (RT)           (RT)           (RT)           (RT)           (RT)           (RT)           (RT)           (RT)           (RM)           (RT)           (RT)           (RT)           (RT)           (RT)           (RT)           (RT)           (RT)           (RT)           (RT)           (RT)
~ASCII 
# ...
14:12:00/03-Jul-2009       621.1379        43.2897       205.2073        21.8961        38.2169        93.2621         9.9261         1.4042       104.0000        -999.25      3447.2410        78.0000         0.0000        78.0000       135.9143        -999.25        -999.25        -999.25        -999.25        -999.25        -999.25
14:12:10/03-Jul-2009       621.2405        -999.25        -999.25        21.7933        36.7248        93.2477         9.5135         1.3901       104.0000        -999.25      3447.2410        78.0000         0.0000        78.0000       135.0216        -999.25        -999.25        -999.25        -999.25        -999.25        -999.25
14:12:20/03-Jul-2009       621.3511        42.2779        -999.25        21.6830        39.5171        93.2892         9.5964         1.4192       104.0000        -999.25      3447.2410        78.0000         0.0000        78.0000       133.3413        -999.25        -999.25        -999.25        -999.25        -999.25        -999.25
14:12:30/03-Jul-2009       621.4501        41.1558        -999.25        21.5829        36.3453        92.7999         9.6164         1.3982       104.0000        -999.25      3447.2410        78.0000         0.0000        78.0000       133.5297        -999.25        -999.25        -999.25        -999.25        -999.25        -999.25
14:12:40/03-Jul-2009       621.5435        -999.25        -999.25        21.4892        35.3017        92.6657        10.1654         1.3962       104.0000        -999.25      3447.2410        78.0000         0.0000        78.0000       134.4595         0.0000      3125.0000        -999.25         0.0000         0.0000         0.0000
14:12:50/03-Jul-2009       621.6503        40.1529       203.1955        21.3826        38.2892        92.8180         9.8597         1.3489       104.0000        -999.25      3447.2410        78.0000         0.0000        78.0000       134.5521        -999.25        -999.25        -999.25        -999.25        -999.25        -999.25
14:13:00/03-Jul-2009       621.7598        39.3907        -999.25        21.2744        39.5433        92.7670        10.1195         1.3898       104.0000        -999.25      3447.2410        78.0000         0.0000        78.0000       136.1552        -999.25        -999.25        -999.25        -999.25        -999.25        -999.25
14:13:10/03-Jul-2009       621.8528        -999.25        -999.25        21.1809        34.4182        92.9813         9.8095         1.3869       104.0000        -999.25      3447.2410        78.0000         0.0000        78.0000       136.7545        -999.25        -999.25        -999.25        -999.25        -999.25        -999.25
14:13:20/03-Jul-2009       621.9697        38.6344        -999.25        21.0645        40.4607        92.6162        10.2185         1.3942       104.0000        -999.25      3447.2410        78.0000         0.0000        78.0000       130.8332         0.0000        -999.25        -999.25        -999.25        -999.25        -999.25
14:13:30/03-Jul-2009       622.0901        38.4827        -999.25        20.9438        43.2528        92.1118        10.5763         1.4024       104.0000        -999.25      3447.2410        78.0000         0.0000        78.0000       138.2124        -999.25      3085.9380        -999.25         0.0000         0.0000         0.0000
14:13:40/03-Jul-2009       622.1990        38.6147       199.1718        20.8346        39.4540        92.2059        10.5852         1.4375       104.0000         0.0000      3447.2410        78.0000         0.0000        78.0000       135.8803        -999.25        -999.25        -999.25        -999.25        -999.25        -999.25
14:13:50/03-Jul-2009       622.3359        -999.25        -999.25        20.6981        46.5399        91.1090        11.6423         1.4131       104.0000        -999.25      3447.2410        78.0000         0.0000        78.0000       135.1823        -999.25        -999.25        -999.25        -999.25        -999.25        -999.25
14:14:00/03-Jul-2009       622.4666        39.2177        -999.25        20.5676        46.8596        91.2830        11.4325         1.3886       104.0000        -999.25      3447.2410        78.0000         0.0000        78.0000       134.8085        -999.25        -999.25        -999.25        -999.25        -999.25        -999.25
14:14:10/03-Jul-2009       622.5905        40.1075        -999.25        20.4436        46.7873        91.4631        11.3038         1.3908       104.0000        -999.25      3447.2410        78.0000         0.0000        78.0000       137.9437         0.0000      3085.9380        -999.25        -999.25        -999.25        -999.25
14:14:20/03-Jul-2009       622.7278        40.8078        -999.25        20.3065        47.0101        91.4963        11.2693         1.3636       104.0000        -999.25      3447.2410        78.0000         0.0000        78.0000       140.0039        -999.25        -999.25        -999.25         0.0000         0.0000         0.0000
14:14:30/03-Jul-2009       622.8581        41.7505       213.2546        20.1760        46.7889        91.1232        11.6537         1.3574       104.0000        -999.25      3447.2410        78.0000         0.0000        78.0000       137.6533        -999.25        -999.25        -999.25        -999.25        -999.25        -999.25
14:14:40/03-Jul-2009       622.9821        42.9057        -999.25        20.0520        46.8242        91.0039        11.7346         1.4214       104.0000        -999.25      3447.2410        78.0000         0.0000        78.0000       136.2016        -999.25        -999.25        -999.25        -999.25        -999.25        -999.25
14:14:50/03-Jul-2009       623.1193        44.0529        -999.25        19.9149        47.2207        91.0921        11.7004         1.4184       104.0000        -999.25      3447.2410        78.0000         0.0000        78.0000       137.1745        -999.25        -999.25        -999.25        -999.25        -999.25        -999.25
14:15:00/03-Jul-2009       623.2496        -999.25        -999.25        19.7844        46.8596        90.5175        12.1172         1.4112       104.0000        -999.25      3447.2410        78.0000         0.0000        78.0000       134.9290         0.0000      3125.0000        -999.25        -999.25        -999.25        -999.25
14:15:10/03-Jul-2009       623.3735        45.0284       207.2191        19.6605        46.6106        90.8528        11.9373         1.3851       104.0000        -999.25      3447.2410        78.0000         0.0000        78.0000       138.8209        -999.25        -999.25        -999.25         0.0000         0.0000         0.0000
14:15:20/03-Jul-2009       623.5091        46.0868        -999.25        19.5250        45.7285        91.0642        11.7984         1.3916       104.0000        -999.25      3447.2410        78.0000         0.0000        78.0000       138.4348        -999.25        -999.25        -999.25        -999.25        -999.25        -999.25
14:15:30/03-Jul-2009       623.6346        46.3506        -999.25        19.3993        45.0723        90.9449        11.7823         1.3481       104.0000        -999.25      3447.2410        78.0000         0.0000        78.0000       135.2317        -999.25        -999.25        -999.25        -999.25        -999.25        -999.25
14:15:40/03-Jul-2009       623.7535        46.6012        -999.25        19.2804        44.6774        91.4265        11.3043         1.3315       104.0000         0.0000      3447.2410        78.0000         0.0000        78.0000       138.7962        -999.25        -999.25        -999.25        -999.25        -999.25        -999.25
14:15:50/03-Jul-2009       623.8853        46.4086        -999.25        19.1488        45.1461        91.5717        11.2018         1.3705       104.0000        -999.25      3447.2410        78.0000         0.0000        78.0000       135.6796         0.0000      3125.0000        -999.25         0.0000         0.0000         0.0000
