~Version Information
VERS.             2.0 : CWLS log ASCII standard - Version 2.0
WRAP.             NO  : One line per depth step
#
~Well Information Block
#MNEM.UNIT                   Data Type:Information
#__________________________________________________________
  STRT.           21-SEP-2007 06:00:00 : START INDEX                   
  STOP.           21-SEP-2007 18:00:00 : STOP INDEX                    
  STEP.SEC           10.0000 : STEP                          
  NULL.              -999.25 : NULL VALUE                    
  COMP.              Statoil : COMPANY                       
  WELL.              15/9-F7 : WELL                          
   FLD.                Volve : FIELD                         
   LOC.                      : LOCATION                      
  PROV.                      : PROVINCE                      
  CNTY.                      : COUNTY                        
  STAT.                      : STATE                         
  CTRY.               Norway : COUNTRY                       
  SRVC.           Schlumberger : SERVICE COMPANY               
  DATE.           21-SEP-2007 04:03:39 : LOG DATE                      
   UWI.                      : UNIQUE WELL ID                
   API.                      : API NUMBER                    
#
~Curve Information Block
#MNEM.UNIT                     : Curve Description
#---------                     --------------------
TIME	    .HHMMSS	       : 
DATE	    .D		       : 
DEPT        .M                 : Bit Depth 2hz                                                   
ROP5        .M/HR              : 5ft ROP 2hz                                                     
BPOS        .M                 : Block Position 2hz                                              
BVEL        .M/S               : Block Velocity 2hz                                              
SWOB        .KKGF              : Surface Weight on Bit 2hz                                       
HKLD        .KKGF              : Measured Hookload 2hz                                           
TQA         .KMN               : SRF STOR 2hz                                                    
RPM         .RPM               : SRF SRPM 2hz                                                    
INCL_CONT_RT.DEG               : MWD Cont Inc 2hz                                                
Stick_RT    .RPM               : MWD PKtoPK RPM 2hz                                              
CRPM_RT     .RPM               : MWD CRPM 2hz                                                    
TFLO        .LPM               : HSPM Total Pump Flow 2hz                                        
TRPM_RT     .RPM               : MWD TUR_RPM 2hz                                                 
SPPA        .BAR               : SRF PUMPRS 2hz                                                  
SHKRSK_RT   .----              : MWD SHKRSK 2hz                                                  
SHKPK_RT    .G                 : MWD SHK_PK 2hz                                                  
GR          .GAPI              : MWD GR(TM) 2hz                                                  
#
~Parameter Information Block
#MNEM.UNIT                       Value:Description
#__________________________________________________________
#
~Other Information Block

#
~A TIME       DATE       DEPT       ROP5       BPOS       BVEL       SWOB       HKLD        TQA        RPM INCL_CONT_RT   Stick_RT    CRPM_RT       TFLO    TRPM_RT       SPPA  SHKRSK_RT   SHKPK_RT       GR
# ...
17:55:09 21-Sep-07     82.374     21.419     31.594      0.000      0.000     63.312      0.011      0.000      -999.25    -999.25    -999.25      0.000    -999.25      3.459    -999.25    -999.25    -999.25
17:55:19 21-Sep-07     82.374     21.419     31.594      0.000      0.000     63.360      0.011      0.000      -999.25    -999.25    -999.25      0.000    -999.25      3.458    -999.25    -999.25    -999.25
17:55:29 21-Sep-07     82.374     21.419     31.594      0.000      0.000     63.382      0.015      0.000      -999.25    -999.25    -999.25      0.000    -999.25      3.461    -999.25    -999.25    -999.25
17:55:39 21-Sep-07     82.374     21.419     31.594      0.000      0.000     63.361      0.011      0.000      -999.25    -999.25    -999.25      0.000    -999.25      3.451    -999.25    -999.25    -999.25
17:55:49 21-Sep-07     82.374     21.419     31.594      0.000      0.000     63.283      0.011      0.000      -999.25    -999.25    -999.25      0.000    -999.25      3.456    -999.25    -999.25    -999.25
17:55:59 21-Sep-07     82.374     21.419     31.594      0.000      0.000     63.384      0.015      0.000      -999.25    -999.25    -999.25      0.000    -999.25      3.458    -999.25    -999.25    -999.25
17:56:09 21-Sep-07     82.374     21.419     31.032      0.000      0.000     65.912      0.011      0.000      -999.25    -999.25    -999.25      0.000    -999.25      3.241    -999.25    -999.25    -999.25
17:56:19 21-Sep-07     82.374     21.419     25.943      0.000      0.000     64.687      0.014      0.000      -999.25    -999.25    -999.25      0.000    -999.25      2.840    -999.25    -999.25    -999.25
17:56:29 21-Sep-07     82.374     21.419     17.488      0.000      0.000     65.261      0.014      0.000      -999.25    -999.25    -999.25      0.000    -999.25      2.514    -999.25    -999.25    -999.25
17:56:39 21-Sep-07     82.374     21.419     10.281      0.000      0.000     63.070      0.010      0.000      -999.25    -999.25    -999.25      0.000    -999.25      2.641    -999.25    -999.25    -999.25
17:56:49 21-Sep-07     82.374     21.419      5.989      0.000      0.000     64.856      0.010      0.000      -999.25    -999.25    -999.25      0.000    -999.25      2.731    -999.25    -999.25    -999.25
17:56:59 21-Sep-07     82.374     21.419      3.197      0.000      0.000     64.345      0.010      0.000      -999.25    -999.25    -999.25      0.000    -999.25      2.824    -999.25    -999.25    -999.25
17:57:09 21-Sep-07     82.374     21.419      2.969      0.000      0.000     62.546      0.010      0.000      -999.25    -999.25    -999.25      0.000    -999.25      2.888    -999.25    -999.25    -999.25
17:57:19 21-Sep-07     82.374     21.419      2.972      0.000      0.000     63.075      0.010      0.000      -999.25    -999.25    -999.25      0.000    -999.25      2.889    -999.25    -999.25    -999.25
17:57:29 21-Sep-07     82.374     21.419      3.146      0.000      0.000     62.766      0.015      0.000      -999.25    -999.25    -999.25      0.000    -999.25      2.863    -999.25    -999.25    -999.25
17:57:39 21-Sep-07     82.270     21.419      3.375     -0.011      8.239     80.196      0.011      0.000      -999.25    -999.25    -999.25      0.000    -999.25      2.887    -999.25    -999.25    -999.25
17:57:49 21-Sep-07     82.271     21.419      3.374      0.000      7.928     80.507      0.012      0.000      -999.25    -999.25    -999.25      0.000    -999.25      2.889    -999.25    -999.25    -999.25
17:57:59 21-Sep-07     82.271     21.419      3.374      0.000      7.912     80.523      0.012      0.000      -999.25    -999.25    -999.25      0.000    -999.25      2.891    -999.25    -999.25    -999.25
17:58:09 21-Sep-07     82.271     21.419      3.374      0.000      8.019     80.415      0.012      0.000      -999.25    -999.25    -999.25      0.000    -999.25      2.889    -999.25    -999.25    -999.25
17:58:19 21-Sep-07     82.221     21.419      3.418     -0.002      9.035     79.399      0.012      0.000      -999.25    -999.25    -999.25      0.000    -999.25      2.869    -999.25    -999.25    -999.25
17:58:29 21-Sep-07     81.792     21.419      3.845     -0.037      8.808     79.627      0.015      0.000      -999.25    -999.25    -999.25      0.000    -999.25      2.877    -999.25    -999.25    -999.25
17:58:39 21-Sep-07     81.477     21.419      4.160     -0.036      8.875     79.560      0.011      0.000      -999.25    -999.25    -999.25      0.000    -999.25      2.877    -999.25    -999.25    -999.25
17:58:49 21-Sep-07     81.167     21.419      4.470     -0.034      8.843     79.591      0.011      0.000      -999.25    -999.25    -999.25      0.000    -999.25      2.868    -999.25    -999.25    -999.25
17:58:59 21-Sep-07     80.757     21.419      4.881     -0.034      8.816     79.619      0.017      0.000      -999.25    -999.25    -999.25      0.000    -999.25      2.864    -999.25    -999.25    -999.25
17:59:09 21-Sep-07     79.921     21.419      5.700     -0.080      9.068     79.366      0.012      0.000      -999.25    -999.25    -999.25      0.000    -999.25      2.851    -999.25    -999.25    -999.25
17:59:19 21-Sep-07     78.975     21.419      6.646     -0.105      8.956     79.479      0.015      0.000      -999.25    -999.25    -999.25      0.000    -999.25      2.840    -999.25    -999.25    -999.25
17:59:29 21-Sep-07     77.694     21.419      7.925     -0.105      8.998     79.437      0.015      0.000      -999.25    -999.25    -999.25      0.000    -999.25      2.837    -999.25    -999.25    -999.25
17:59:39 21-Sep-07     76.644     21.419      8.974     -0.116      8.987     79.448      0.014      0.000      -999.25    -999.25    -999.25      0.000    -999.25      2.841    -999.25    -999.25    -999.25
17:59:49 21-Sep-07     75.583     21.419     10.035     -0.117      8.979     79.456      0.014      0.000      -999.25    -999.25    -999.25      0.000    -999.25      2.841    -999.25    -999.25    -999.25
17:59:59 21-Sep-07     74.171     21.419     11.448     -0.117      8.881     79.553      0.014      0.000      -999.25    -999.25    -999.25      0.000    -999.25      2.848    -999.25    -999.25    -999.25
