~Version Information
VERS.             2.0 : CWLS log ASCII standard - Version 2.0
WRAP.             NO  : One line per depth step
#
~Well Information Block
#MNEM.UNIT                   Data Type:Information
#__________________________________________________________
  STRT.           21-SEP-2007 06:00:00 : START INDEX                   
  STOP.           21-SEP-2007 18:00:00 : STOP INDEX                    
  STEP.SEC           10.0000 : STEP                          
  NULL.              -999.25 : NULL VALUE                    
  COMP.              Statoil : COMPANY                       
  WELL.              15/9-F7 : WELL                          
   FLD.                Volve : FIELD                         
   LOC.                      : LOCATION                      
  PROV.                      : PROVINCE                      
  CNTY.                      : COUNTY                        
  STAT.                      : STATE                         
  CTRY.               Norway : COUNTRY                       
  SRVC.           Schlumberger : SERVICE COMPANY               
  DATE.           21-SEP-2007 04:03:39 : LOG DATE                      
   UWI.                      : UNIQUE WELL ID                
   API.                      : API NUMBER                    
#
~Curve Information Block
#MNEM.UNIT                     : Curve Description
#---------                     --------------------
TIME	    .HHMMSS	       : 
DATE	    .D		       : 
DEPT        .M                 : Bit Depth 2hz                                                   
ROP5        .M/HR              : 5ft ROP 2hz                                                     
BPOS        .M                 : Block Position 2hz                                              
BVEL        .M/S               : Block Velocity 2hz                                              
SWOB        .KKGF              : Surface Weight on Bit 2hz                                       
HKLD        .KKGF              : Measured Hookload 2hz                                           
TQA         .KMN               : SRF STOR 2hz                                                    
RPM         .RPM               : SRF SRPM 2hz                                                    
INCL_CONT_RT.DEG               : MWD Cont Inc 2hz                                                
Stick_RT    .RPM               : MWD PKtoPK RPM 2hz                                              
CRPM_RT     .RPM               : MWD CRPM 2hz                                                    
TFLO        .LPM               : HSPM Total Pump Flow 2hz                                        
TRPM_RT     .RPM               : MWD TUR_RPM 2hz                                                 
SPPA        .BAR               : SRF PUMPRS 2hz                                                  
SHKRSK_RT   .----              : MWD SHKRSK 2hz                                                  
SHKPK_RT    .G                 : MWD SHK_PK 2hz                                                  
GR          .GAPI              : MWD GR(TM) 2hz                                                  
#
~Parameter Information Block
#MNEM.UNIT                       Value:Description
#__________________________________________________________
#
~Other Information Block

#
~A TIME       DATE       DEPT       ROP5       BPOS       BVEL       SWOB       HKLD        TQA        RPM INCL_CONT_RT   Stick_RT    CRPM_RT       TFLO    TRPM_RT       SPPA  SHKRSK_RT   SHKPK_RT       GR
# ...
13:54:39 21-Sep-07    209.762     12.277     17.889      0.000      0.344     89.369      2.156    102.000        1.874     72.000      0.000   3500.452   2539.063     94.810      0.000     40.000      7.209
13:54:49 21-Sep-07    209.762     12.277     17.889      0.000      0.393     89.319      2.156    102.000        1.874     72.000      0.000   3500.452   2539.063     94.526      0.000     40.000      9.612
13:54:59 21-Sep-07    209.762     12.277     17.889      0.000      0.379     89.334     -1.369    102.000        2.606     72.000      0.000   3500.452   2539.063     94.551      0.000     48.000      9.612
13:55:09 21-Sep-07    209.762     12.277     17.889      0.000      0.401     89.312      2.156    102.000        2.606     72.000      0.000   3500.452   2539.063     75.192      0.000     48.000      7.209
13:55:19 21-Sep-07    209.762     12.277     17.889      0.000      0.308     89.404     -1.541    102.000        2.606    117.000      0.000   3500.452   2539.063     49.058      0.000     48.000      9.612
13:55:29 21-Sep-07    209.762     12.277     17.889      0.000      0.217     89.495     -1.541    102.000        2.606    117.000      0.000   3500.452   2539.063     10.007      0.000     48.000      9.612
13:55:39 21-Sep-07    209.762     12.277     17.889      0.000      0.032     89.680     -1.362     58.000      -999.25    -999.25    -999.25   3433.988    -999.25      2.738    -999.25    -999.25    -999.25
13:55:49 21-Sep-07    209.762     12.277     17.889      0.000      0.157     89.555     -1.362     58.000      -999.25    -999.25    -999.25   3433.988    -999.25      2.777    -999.25    -999.25    -999.25
13:55:59 21-Sep-07    209.762     12.277     17.889      0.000      0.241     89.471     -1.324     10.000      -999.25    -999.25    -999.25    199.393    -999.25      2.759    -999.25    -999.25    -999.25
13:56:09 21-Sep-07    209.762     12.277     17.889     -0.000      0.197     89.516      1.173     16.000      -999.25    -999.25    -999.25    199.393    -999.25      2.769    -999.25    -999.25    -999.25
13:56:19 21-Sep-07    209.762     12.277     17.888     -0.000      0.229     89.484      1.173     16.000      -999.25    -999.25    -999.25    199.393    -999.25      2.748    -999.25    -999.25    -999.25
13:56:29 21-Sep-07    209.762     12.277     17.888      0.000      0.215     89.497     -1.322      0.000      -999.25    -999.25    -999.25      0.000    -999.25      2.784    -999.25    -999.25    -999.25
13:56:39 21-Sep-07    209.762     12.277     17.888      0.000      0.195     89.517      0.133      0.000      -999.25    -999.25    -999.25      0.000    -999.25      2.844    -999.25    -999.25    -999.25
13:56:49 21-Sep-07    209.762     12.277     17.888      0.000      0.138     89.574     -1.408      0.000      -999.25    -999.25    -999.25      0.000    -999.25      2.822    -999.25    -999.25    -999.25
13:56:59 21-Sep-07    209.762     12.277     17.888      0.000      0.224     89.488     -1.408      0.000      -999.25    -999.25    -999.25      0.000    -999.25      9.310    -999.25    -999.25    -999.25
13:57:09 21-Sep-07    209.762     12.277     17.888      0.000      0.101     89.611     -1.334     19.000      -999.25    -999.25    -999.25    664.643    -999.25     12.271    -999.25    -999.25    -999.25
13:57:19 21-Sep-07    209.762     12.277     17.888      0.000      0.172     89.540     -1.334     19.000      -999.25    -999.25    -999.25    664.643    -999.25     12.467    -999.25    -999.25    -999.25
13:57:29 21-Sep-07    209.763     12.277     17.888      0.000      0.126     89.587     -1.344     38.000      -999.25    -999.25    -999.25    664.643    -999.25     36.795    -999.25    -999.25    -999.25
13:57:39 21-Sep-07    209.763     12.277     17.888      0.000      0.187     89.526     -0.918      0.000      -999.25    -999.25    -999.25      0.000    -999.25     39.594    -999.25    -999.25    -999.25
13:57:49 21-Sep-07    209.763     12.277     17.888      0.000      0.109     89.603     -0.918      0.000      -999.25    -999.25    -999.25      0.000    -999.25     40.030    -999.25    -999.25    -999.25
13:57:59 21-Sep-07    209.763     12.277     17.888      0.000      0.227     89.485     -1.308     67.000      -999.25    -999.25    -999.25      0.000    -999.25     45.084    -999.25    -999.25    -999.25
13:58:09 21-Sep-07    209.763     12.277     17.888      0.000      0.287     89.425     -0.677      0.000      -999.25    -999.25    -999.25      0.000    -999.25     64.782    -999.25    -999.25    -999.25
13:58:19 21-Sep-07    209.763     12.277     17.888      0.000      0.294     89.418     -1.359     69.000      -999.25    -999.25    -999.25      0.000    -999.25     71.543    -999.25    -999.25    -999.25
13:58:29 21-Sep-07    209.763     12.277     17.888      0.000      0.246     89.466     -1.359     69.000      -999.25    -999.25    -999.25      0.000    -999.25     72.715    -999.25    -999.25    -999.25
13:58:39 21-Sep-07    209.763     12.277     17.888      0.000      0.241     89.471     -1.416     89.000      -999.25    -999.25    -999.25      0.000    -999.25     73.043    -999.25    -999.25    -999.25
13:58:49 21-Sep-07    209.763     12.277     17.888      0.000      0.241     89.471     -1.416     89.000      -999.25    -999.25    -999.25      0.000    -999.25     72.988    -999.25    -999.25    -999.25
13:58:59 21-Sep-07    209.763     12.277     17.888      0.000      0.292     89.420     -1.342     89.000      -999.25    -999.25    -999.25   3057.357    -999.25     73.456    -999.25    -999.25    -999.25
13:59:09 21-Sep-07    209.763     12.277     17.888      0.000      0.174     89.538     -0.368     42.000      -999.25    -999.25    -999.25   3057.357    -999.25     73.521    -999.25    -999.25    -999.25
13:59:19 21-Sep-07    209.761     12.277     17.889     -0.000      0.744     88.968     -0.368     42.000      -999.25    -999.25    -999.25    908.345    -999.25     73.544    -999.25    -999.25    -999.25
13:59:29 21-Sep-07    209.826     12.277     17.830      0.003     -0.794     90.506     -1.381     89.000      -999.25    -999.25    -999.25   3057.357    -999.25      2.933    -999.25    -999.25    -999.25
13:59:39 21-Sep-07    210.035      9.782     17.622      0.023      0.519     89.194     -0.581     42.000      -999.25    -999.25    -999.25   3057.357    -999.25      2.672    -999.25    -999.25    -999.25
13:59:49 21-Sep-07    210.093      9.782     17.558      0.014     12.373     77.339     -1.352     26.000      -999.25    -999.25    -999.25    310.167    -999.25      2.724    -999.25    -999.25    -999.25
13:59:59 21-Sep-07    210.094      9.782     17.558      0.000     12.774     76.939     -1.352     26.000      -999.25    -999.25    -999.25    310.167    -999.25      2.722    -999.25    -999.25    -999.25
14:00:09 21-Sep-07    210.094      9.782     17.558      0.000     12.330     77.383     -1.329      0.000      -999.25    -999.25    -999.25      0.000    -999.25      2.767    -999.25    -999.25    -999.25
14:00:19 21-Sep-07    210.094      9.782     17.558      0.000     12.825     76.887     -1.329      0.000      -999.25    -999.25    -999.25      0.000    -999.25      2.766    -999.25    -999.25    -999.25
14:00:29 21-Sep-07    210.094      9.782     17.558      0.000     12.693     77.019     -1.336      0.000      -999.25    -999.25    -999.25      0.000    -999.25      2.771    -999.25    -999.25    -999.25
14:00:39 21-Sep-07    210.094      9.782     17.558      0.000     12.398     77.315     -0.603      0.000      -999.25    -999.25    -999.25      0.000    -999.25      2.756    -999.25    -999.25    -999.25
14:00:49 21-Sep-07    210.094      9.782     17.558      0.000     12.440     77.272     -0.603      0.000      -999.25    -999.25    -999.25      0.000    -999.25      2.756    -999.25    -999.25    -999.25
14:00:59 21-Sep-07    210.094      9.782     17.558      0.000     12.698     77.014     -1.391      0.000      -999.25    -999.25    -999.25      0.000    -999.25      2.757    -999.25    -999.25    -999.25
